{"name":"United Arab Emirates","code":"AE","regions":[{"name":"Abu Dhabi","code":"01","cities":[{"name":"Abu Dhabi","latitude":"24.4638","longitude":"54.363"},{"name":"Al Ain City","latitude":"24.19","longitude":"55.7623"},{"name":"Ar Ruways","latitude":"24.1103","longitude":"52.7306"},{"name":"Musaffah City","latitude":"24.3589","longitude":"54.4827"}]},{"name":"Ajman","code":"02","cities":[{"name":"Ajman","latitude":"25.4019","longitude":"55.478"},{"name":"Sharqan","latitude":"25.383","longitude":"55.4136"}]},{"name":"Dubai","code":"03","cities":[{"name":"Al Karama","latitude":"25.24","longitude":"55.3011"},{"name":"Al Warqaa","latitude":"25.1917","longitude":"55.4236"},{"name":"As Satwah","latitude":"25.2274","longitude":"55.2737"},{"name":"Bur Dubai","latitude":"25.2662","longitude":"55.2994"},{"name":"Dayrah","latitude":"25.2731","longitude":"55.3064"},{"name":"Dubai","latitude":"25.2633","longitude":"55.3087"},{"name":"Hatta","latitude":"24.8007","longitude":"56.1273"},{"name":"International City","latitude":"25.1581","longitude":"55.4149"},{"name":"Jebel Ali","latitude":"25.0025","longitude":"55.1081"}]},{"name":"Fujairah","code":"04","cities":[{"name":"Al Fujairah City","latitude":"25.1164","longitude":"56.3414"},{"name":"Badiyah","latitude":"25.4323","longitude":"56.3457"},{"name":"Dibba Al-Hisn","latitude":"25.6195","longitude":"56.2729"}]},{"name":"Ra's al Khaymah","code":"05","cities":[{"name":"Masafi","latitude":"25.3013","longitude":"56.1653"},{"name":"Ras al-Khaimah","latitude":"25.7895","longitude":"55.9432"}]},{"name":"Sharjah","code":"06","cities":[{"name":"Adh Dhayd","latitude":"25.2881","longitude":"55.8816"},{"name":"Al Hamriyah","latitude":"25.4762","longitude":"55.5353"},{"name":"Al Khan","latitude":"25.3314","longitude":"55.359"},{"name":"Kalba","latitude":"25.0746","longitude":"56.3554"},{"name":"Khor'fakkan","latitude":"25.3313","longitude":"56.342"},{"name":"Samnan","latitude":"25.3412","longitude":"55.4224"},{"name":"Sharjah","latitude":"25.3569","longitude":"55.405"}]},{"name":"Umm al Qaywayn","code":"07","cities":[{"name":"Al Hazaywah","latitude":"25.5293","longitude":"55.6609"},{"name":"Lazimah","latitude":"25.5861","longitude":"55.5633"},{"name":"Umm Al Quwain City","latitude":"25.5647","longitude":"55.5552"}]}]}