{"name":"Bulgaria","code":"BG","regions":[{"name":"Blagoevgrad","code":"38","cities":[{"name":"Ablanitsa","latitude":"41.5333","longitude":"23.9333"},{"name":"Baldevo","latitude":"41.6333","longitude":"23.7667"},{"name":"Bansko","latitude":"41.8394","longitude":"23.5"},{"name":"Banya","latitude":"41.8833","longitude":"23.5333"},{"name":"Bistritsa","latitude":"42.05","longitude":"23.1833"},{"name":"Blagoevgrad","latitude":"42.02","longitude":"23.0961"},{"name":"Breznitsa","latitude":"41.6667","longitude":"23.6667"},{"name":"Cherniche","latitude":"41.85","longitude":"23.1333"},{"name":"Dobrinishte","latitude":"41.8167","longitude":"23.5667"},{"name":"Dolno Osenovo","latitude":"41.95","longitude":"23.25"},{"name":"Godlevo","latitude":"41.9329","longitude":"23.485"},{"name":"Gotse Delchev","latitude":"41.5667","longitude":"23.7333"},{"name":"Kochan","latitude":"41.5798","longitude":"24.0345"},{"name":"Kresna","latitude":"41.7333","longitude":"23.15"},{"name":"Petrich","latitude":"41.4","longitude":"23.2167"},{"name":"Razlog","latitude":"41.8913","longitude":"23.4806"},{"name":"Sandanski","latitude":"41.5667","longitude":"23.2833"},{"name":"Simitli","latitude":"41.8833","longitude":"23.1167"},{"name":"Strumyani","latitude":"41.6312","longitude":"23.1977"},{"name":"Valkosel","latitude":"41.5333","longitude":"23.9833"},{"name":"Yakoruda","latitude":"42.0253","longitude":"23.6842"}]},{"name":"Burgas","code":"39","cities":[{"name":"Aheloy","latitude":"42.65","longitude":"27.65"},{"name":"Ahtopol","latitude":"42.1","longitude":"27.95"},{"name":"Aytos","latitude":"42.7","longitude":"27.25"},{"name":"Balgarovo","latitude":"42.6167","longitude":"27.3"},{"name":"Burgas","latitude":"42.4963","longitude":"27.4646"},{"name":"Chernomorets","latitude":"42.45","longitude":"27.65"},{"name":"Debelt","latitude":"42.4005","longitude":"27.2677"},{"name":"Karnobat","latitude":"42.65","longitude":"26.9833"},{"name":"Kitka","latitude":"42.8333","longitude":"27.2"},{"name":"Nesebar","latitude":"42.65","longitude":"27.7333"},{"name":"Obzor","latitude":"42.8167","longitude":"27.8833"},{"name":"Orizare","latitude":"42.75","longitude":"27.6167"},{"name":"Podvis","latitude":"42.8318","longitude":"26.8451"},{"name":"Pomorie","latitude":"42.55","longitude":"27.65"},{"name":"Primorsko","latitude":"42.2667","longitude":"27.7667"},{"name":"Ravda","latitude":"42.65","longitude":"27.6833"},{"name":"Razboyna","latitude":"42.8","longitude":"27.3833"},{"name":"Ruen","latitude":"42.8","longitude":"27.2833"},{"name":"Saint Vlas","latitude":"42.7167","longitude":"27.7667"},{"name":"Sokolovo","latitude":"42.6667","longitude":"27.0667"},{"name":"Sozopol","latitude":"42.4167","longitude":"27.7"},{"name":"Sredets","latitude":"42.3509","longitude":"27.181"},{"name":"Sungurlare","latitude":"42.7667","longitude":"26.7833"},{"name":"Sunny Beach","latitude":"42.6931","longitude":"27.7083"},{"name":"Tsarevo","latitude":"42.1667","longitude":"27.85"},{"name":"Varvara","latitude":"42.1167","longitude":"27.9167"},{"name":"Vinarsko","latitude":"42.6167","longitude":"27.2"}]},{"name":"Dobrich","code":"40","cities":[{"name":"Baltchik","latitude":"43.4167","longitude":"28.1667"},{"name":"Dobrich","latitude":"43.5606","longitude":"27.8299"},{"name":"Durankulak","latitude":"43.6996","longitude":"28.5114"},{"name":"General Toshevo","latitude":"43.7195","longitude":"28.0825"},{"name":"Izvorovo","latitude":"43.8024","longitude":"27.9301"},{"name":"Kardam","latitude":"43.75","longitude":"28.1"},{"name":"Kavarna","latitude":"43.4333","longitude":"28.3333"},{"name":"Nova Kamena","latitude":"43.7001","longitude":"27.297"},{"name":"Shabla","latitude":"43.5333","longitude":"28.5333"},{"name":"Tervel Municipality","latitude":"43.7423","longitude":"27.4033"},{"name":"Vasilevo","latitude":"43.6","longitude":"28.1667"}]},{"name":"Gabrovo","code":"41","cities":[{"name":"Balanite","latitude":"42.8667","longitude":"25.3167"},{"name":"Dryanovo","latitude":"43.0858","longitude":"25.6556"},{"name":"Gabrovo","latitude":"42.8757","longitude":"25.3349"},{"name":"Sevlievo","latitude":"43.0258","longitude":"25.1136"},{"name":"Tryavna","latitude":"42.8667","longitude":"25.5"}]},{"name":"Haskovo","code":"43","cities":[{"name":"Dimitrovgrad","latitude":"42.05","longitude":"25.6"},{"name":"Harmanli","latitude":"41.9339","longitude":"25.8991"},{"name":"Haskovo","latitude":"41.9459","longitude":"25.5742"},{"name":"Ivaylovgrad","latitude":"41.5333","longitude":"26.1333"},{"name":"Lyubimets","latitude":"41.8333","longitude":"26.0833"},{"name":"Madzharovo","latitude":"41.6402","longitude":"25.8633"},{"name":"Mineralni Bani","latitude":"41.9174","longitude":"25.3489"},{"name":"Simeonovgrad","latitude":"42.0333","longitude":"25.8333"},{"name":"Svilengrad","latitude":"41.7667","longitude":"26.2"},{"name":"Topolovgrad","latitude":"42.0833","longitude":"26.3333"},{"name":"Zornitsa","latitude":"41.6333","longitude":"25.4667"}]},{"name":"Kardzhali","code":"44","cities":[{"name":"Ardino","latitude":"41.5167","longitude":"25.1667"},{"name":"Dzhebel","latitude":"41.5","longitude":"25.2966"},{"name":"Edrino","latitude":"41.456","longitude":"25.6736"},{"name":"Kardzhali","latitude":"41.6439","longitude":"25.3594"},{"name":"Kirkovo","latitude":"41.3167","longitude":"25.35"},{"name":"Krumovgrad","latitude":"41.4667","longitude":"25.65"},{"name":"Momchilgrad","latitude":"41.4333","longitude":"25.4667"},{"name":"Nane","latitude":"41.4333","longitude":"25.4667"},{"name":"Pepelishte","latitude":"41.5833","longitude":"25.3833"}]},{"name":"Kyustendil","code":"45","cities":[{"name":"Bobov Dol","latitude":"42.3697","longitude":"23.0172"},{"name":"Dupnitsa","latitude":"42.1671","longitude":"23.0954"},{"name":"Kyustendil","latitude":"42.2839","longitude":"22.6911"},{"name":"Resilovo","latitude":"42.2667","longitude":"23.2"},{"name":"Rila","latitude":"42.1333","longitude":"23.1333"}]},{"name":"Lovech","code":"46","cities":[{"name":"Dermantsi","latitude":"43.15","longitude":"24.2833"},{"name":"Galata","latitude":"43.0167","longitude":"24.2833"},{"name":"Lovech","latitude":"43.1329","longitude":"24.7172"},{"name":"Lukovit","latitude":"43.1981","longitude":"24.1654"},{"name":"Slatina","latitude":"43.4667","longitude":"23.9333"},{"name":"Teteven","latitude":"42.9167","longitude":"24.2667"},{"name":"Toros","latitude":"43.1","longitude":"24.2833"},{"name":"Troyan Municipality","latitude":"42.8833","longitude":"24.7167"},{"name":"Ugarchin","latitude":"43.0577","longitude":"24.5459"}]},{"name":"Montana","code":"47","cities":[{"name":"Berkovitsa Municipality","latitude":"43.2361","longitude":"23.1258"},{"name":"Brusartsi","latitude":"43.6667","longitude":"23.0667"},{"name":"Chiprovtsi","latitude":"43.3842","longitude":"22.8808"},{"name":"Lom","latitude":"43.8139","longitude":"23.2361"},{"name":"Montana","latitude":"43.4082","longitude":"23.2267"},{"name":"Slivata","latitude":"43.7633","longitude":"23.0408"},{"name":"Valchedram","latitude":"43.6938","longitude":"23.4506"},{"name":"Varshets","latitude":"43.1953","longitude":"23.2861"}]},{"name":"Pazardzhik","code":"48","cities":[{"name":"Batak","latitude":"41.95","longitude":"24.2167"},{"name":"Belovo","latitude":"42.1833","longitude":"23.9833"},{"name":"Bratsigovo","latitude":"42.0167","longitude":"24.3667"},{"name":"Dorkovo","latitude":"42.0333","longitude":"24.1333"},{"name":"Kalugerovo","latitude":"42.3182","longitude":"24.1706"},{"name":"Panagyurishte","latitude":"42.5","longitude":"24.1833"},{"name":"Pazardzhik","latitude":"42.1982","longitude":"24.3304"},{"name":"Peshtera","latitude":"42.0333","longitude":"24.3"},{"name":"Popintsi","latitude":"42.4139","longitude":"24.2823"},{"name":"Rakitovo","latitude":"41.9833","longitude":"24.0833"},{"name":"Sarnitsa","latitude":"41.7333","longitude":"24.0333"},{"name":"Septemvri","latitude":"42.2167","longitude":"24.1"},{"name":"Strelcha","latitude":"42.5","longitude":"24.3167"},{"name":"Sveta Petka","latitude":"42.0333","longitude":"23.8667"},{"name":"Varvara","latitude":"42.15","longitude":"24.1333"},{"name":"Velingrad","latitude":"42.0167","longitude":"24.0"}]},{"name":"Pernik","code":"49","cities":[{"name":"Breznik","latitude":"42.7439","longitude":"22.8954"},{"name":"Pernik","latitude":"42.6","longitude":"23.0333"},{"name":"Radomir","latitude":"42.5444","longitude":"22.9578"},{"name":"Zemen","latitude":"42.4787","longitude":"22.7433"}]},{"name":"Pleven","code":"50","cities":[{"name":"Belene","latitude":"43.65","longitude":"25.1167"},{"name":"Cherkovitsa","latitude":"43.6833","longitude":"24.8333"},{"name":"Cherven Bryag","latitude":"43.2667","longitude":"24.1"},{"name":"Dolna Mitropolia","latitude":"43.4534","longitude":"24.539"},{"name":"Dolni Dabnik","latitude":"43.4","longitude":"24.4333"},{"name":"Knezha","latitude":"43.5","longitude":"24.0833"},{"name":"Koynare","latitude":"43.35","longitude":"24.1333"},{"name":"Levski","latitude":"43.3667","longitude":"25.1333"},{"name":"Pleven","latitude":"43.4167","longitude":"24.6167"},{"name":"Sadovets","latitude":"43.3","longitude":"24.35"},{"name":"Trastenik","latitude":"43.5167","longitude":"24.4667"},{"name":"Yasen","latitude":"43.4133","longitude":"24.5187"}]},{"name":"Plovdiv","code":"51","cities":[{"name":"Asenovgrad","latitude":"42.0167","longitude":"24.8667"},{"name":"Bogdan","latitude":"42.65","longitude":"24.6333"},{"name":"Brestovitsa","latitude":"42.0833","longitude":"24.6"},{"name":"Cheshnegirovo","latitude":"42.1167","longitude":"24.9667"},{"name":"Choba","latitude":"42.3172","longitude":"25.1047"},{"name":"Dalgo Pole","latitude":"42.3167","longitude":"24.7667"},{"name":"Duvanlii","latitude":"42.3667","longitude":"24.7167"},{"name":"Graf Ignatievo","latitude":"42.2833","longitude":"24.75"},{"name":"Hisarya","latitude":"42.5","longitude":"24.7"},{"name":"Kalekovets","latitude":"42.2333","longitude":"24.8167"},{"name":"Kalofer","latitude":"42.6167","longitude":"24.9833"},{"name":"Karlovo","latitude":"42.6333","longitude":"24.8"},{"name":"Kostievo","latitude":"42.1833","longitude":"24.6167"},{"name":"Krichim","latitude":"42.05","longitude":"24.4667"},{"name":"Krumovo","latitude":"42.0833","longitude":"24.8167"},{"name":"Parvenets","latitude":"42.0667","longitude":"24.6667"},{"name":"Parvomay","latitude":"42.0983","longitude":"25.2124"},{"name":"Perushtitsa","latitude":"42.05","longitude":"24.55"},{"name":"Plovdiv","latitude":"42.0333","longitude":"24.7833"},{"name":"Radinovo","latitude":"42.1828","longitude":"24.6345"},{"name":"Rakovski","latitude":"42.3025","longitude":"24.9652"},{"name":"Rogosh","latitude":"42.1833","longitude":"24.8667"},{"name":"Saedinenie","latitude":"42.2667","longitude":"24.55"},{"name":"Skutare","latitude":"42.1833","longitude":"24.8333"},{"name":"Sopot","latitude":"42.65","longitude":"24.75"},{"name":"Stamboliyski","latitude":"42.1394","longitude":"24.5281"},{"name":"Stroevo","latitude":"42.2333","longitude":"24.6833"},{"name":"Stryama","latitude":"42.25","longitude":"24.8833"},{"name":"Trud","latitude":"42.2333","longitude":"24.7333"},{"name":"Tsalapitsa","latitude":"42.1899","longitude":"24.5605"},{"name":"Ustina","latitude":"42.0333","longitude":"24.5167"},{"name":"Voysil","latitude":"42.2167","longitude":"24.6333"},{"name":"Yagodovo","latitude":"42.1","longitude":"24.85"},{"name":"Yoakim-Gruevo","latitude":"41.9949","longitude":"24.939"},{"name":"Zlatitrap","latitude":"42.1167","longitude":"24.6333"},{"name":"Zlatovrah","latitude":"42.0147","longitude":"24.9979"}]},{"name":"Razgrad","code":"52","cities":[{"name":"Dyankovo","latitude":"43.6152","longitude":"26.6038"},{"name":"Isperih","latitude":"43.7167","longitude":"26.8333"},{"name":"Kubrat","latitude":"43.8","longitude":"26.5"},{"name":"Razgrad","latitude":"43.5346","longitude":"26.5275"},{"name":"Tsar Kaloyan","latitude":"43.6167","longitude":"26.25"},{"name":"Zavet","latitude":"43.7692","longitude":"26.6723"}]},{"name":"Ruse","code":"53","cities":[{"name":"Byala","latitude":"43.45","longitude":"25.7333"},{"name":"Cherven","latitude":"43.6167","longitude":"26.0333"},{"name":"Dve Mogili","latitude":"43.6","longitude":"25.8667"},{"name":"Glodzhevo","latitude":"43.7333","longitude":"26.4"},{"name":"Gorno Ablanovo","latitude":"43.6333","longitude":"25.7333"},{"name":"Ivanovo","latitude":"43.7","longitude":"25.9833"},{"name":"Rousse","latitude":"43.8586","longitude":"25.9684"},{"name":"Senovo","latitude":"43.65","longitude":"26.3667"},{"name":"Vetovo","latitude":"43.7","longitude":"26.2667"},{"name":"Yudelnik","latitude":"43.85","longitude":"26.25"}]},{"name":"Shumen","code":"54","cities":[{"name":"Kaspichan","latitude":"43.3167","longitude":"27.1667"},{"name":"Novi Pazar","latitude":"43.35","longitude":"27.2"},{"name":"Preslav","latitude":"43.1667","longitude":"26.8167"},{"name":"Shumen","latitude":"43.2759","longitude":"26.9363"},{"name":"Smyadovo","latitude":"43.0667","longitude":"27.0167"}]},{"name":"Silistra","code":"55","cities":[{"name":"Dulovo","latitude":"43.8167","longitude":"27.15"},{"name":"Iskra","latitude":"44.0","longitude":"26.9833"},{"name":"Kolobar","latitude":"43.7812","longitude":"27.1822"},{"name":"Silistra","latitude":"44.0028","longitude":"26.837"},{"name":"Sitovo","latitude":"44.0167","longitude":"27.0167"},{"name":"Turtucaia","latitude":"44.05","longitude":"26.6167"},{"name":"Yarebitsa","latitude":"43.85","longitude":"27.0"}]},{"name":"Sliven","code":"56","cities":[{"name":"Banya","latitude":"42.6167","longitude":"26.0"},{"name":"Kotel","latitude":"42.8833","longitude":"26.45"},{"name":"Nova Zagora","latitude":"42.4833","longitude":"26.0167"},{"name":"Shivachevo","latitude":"42.6833","longitude":"26.0333"},{"name":"Sliven","latitude":"42.6927","longitude":"26.3272"}]},{"name":"Smolyan","code":"57","cities":[{"name":"Chepelare","latitude":"41.7333","longitude":"24.6833"},{"name":"Devin","latitude":"41.7333","longitude":"24.4"},{"name":"Dospat","latitude":"41.6333","longitude":"24.2167"},{"name":"Madan","latitude":"41.5","longitude":"24.95"},{"name":"Nedelino","latitude":"41.45","longitude":"25.0833"},{"name":"Rudozem","latitude":"41.4833","longitude":"24.85"},{"name":"Smolyan","latitude":"41.5853","longitude":"24.6919"},{"name":"Zlatograd","latitude":"41.3833","longitude":"25.1"}]},{"name":"Sofia","code":"58","cities":[{"name":"Botevgrad","latitude":"42.9007","longitude":"23.7866"},{"name":"Bozhurishte","latitude":"42.75","longitude":"23.2"},{"name":"Dolna Banya","latitude":"42.3","longitude":"23.7667"},{"name":"Dragoman","latitude":"42.9189","longitude":"22.9317"},{"name":"Elin Pelin","latitude":"42.6661","longitude":"23.5993"},{"name":"Etropole","latitude":"42.8333","longitude":"24.0"},{"name":"Gara Elin Pelin","latitude":"42.6333","longitude":"23.5833"},{"name":"Godech","latitude":"43.015","longitude":"23.0442"},{"name":"Gorna Malina","latitude":"42.6835","longitude":"23.698"},{"name":"Ihtiman","latitude":"42.4333","longitude":"23.8167"},{"name":"Koprivshtitsa","latitude":"42.6333","longitude":"24.35"},{"name":"Kostenets","latitude":"42.3","longitude":"23.8667"},{"name":"Kostinbrod","latitude":"42.8221","longitude":"23.2164"},{"name":"Lesnovo","latitude":"42.6316","longitude":"23.6287"},{"name":"Litakovo","latitude":"42.9471","longitude":"23.6839"},{"name":"Mirkovo","latitude":"42.7","longitude":"23.9833"},{"name":"Novi Han","latitude":"42.6","longitude":"23.6"},{"name":"Petarch","latitude":"42.8333","longitude":"23.1333"},{"name":"Pirdop","latitude":"42.7","longitude":"24.1833"},{"name":"Pravets","latitude":"42.8833","longitude":"23.9167"},{"name":"Rebrovo","latitude":"42.8855","longitude":"23.3869"},{"name":"Samokov","latitude":"42.3333","longitude":"23.55"},{"name":"Slivnitsa","latitude":"42.85","longitude":"23.0333"},{"name":"Stambolovo","latitude":"42.4","longitude":"23.8167"},{"name":"Svoge","latitude":"42.9667","longitude":"23.35"},{"name":"Vlado Trichkov","latitude":"42.8667","longitude":"23.3667"},{"name":"Zlatitsa","latitude":"42.7167","longitude":"24.1333"}]},{"name":"Sofia-Capital","code":"42","cities":[{"name":"Bankya","latitude":"42.7","longitude":"23.1333"},{"name":"Bistritsa","latitude":"42.5793","longitude":"23.3665"},{"name":"Buhovo","latitude":"42.7667","longitude":"23.5667"},{"name":"Kokalyane","latitude":"42.5806","longitude":"23.4164"},{"name":"Lokorsko","latitude":"42.7833","longitude":"23.45"},{"name":"Lozen","latitude":"42.5974","longitude":"23.4806"},{"name":"Novi Iskar","latitude":"42.8","longitude":"23.35"},{"name":"Sofia","latitude":"42.683","longitude":"23.3175"},{"name":"Voluyak","latitude":"42.7667","longitude":"23.25"}]},{"name":"Stara Zagora","code":"59","cities":[{"name":"Bogomilovo","latitude":"42.3837","longitude":"25.5457"},{"name":"Chirpan","latitude":"42.2","longitude":"25.3333"},{"name":"Gulubovo","latitude":"42.1333","longitude":"25.85"},{"name":"Gurkovo","latitude":"42.6667","longitude":"25.7333"},{"name":"Kazanlak","latitude":"42.6223","longitude":"25.3937"},{"name":"Ovchartsi","latitude":"42.2167","longitude":"26.0667"},{"name":"Radnevo","latitude":"42.3","longitude":"25.9333"},{"name":"Rozovo","latitude":"42.5667","longitude":"25.4167"},{"name":"Stara Zagora","latitude":"42.4339","longitude":"25.6418"},{"name":"Viden","latitude":"42.6","longitude":"25.2333"}]},{"name":"Targovishte","code":"60","cities":[{"name":"Omurtag","latitude":"43.1","longitude":"26.4167"},{"name":"Opaka","latitude":"43.45","longitude":"26.1667"},{"name":"Popovo","latitude":"43.35","longitude":"26.2333"},{"name":"Targovishte","latitude":"43.2619","longitude":"26.5889"}]},{"name":"Varna","code":"61","cities":[{"name":"Aksakovo Municipality","latitude":"43.25","longitude":"27.8167"},{"name":"Beloslav","latitude":"43.1833","longitude":"27.7"},{"name":"Byala","latitude":"42.8833","longitude":"27.8833"},{"name":"Devnya","latitude":"43.2222","longitude":"27.5694"},{"name":"Priseltsi","latitude":"43.1167","longitude":"27.8333"},{"name":"Provadia","latitude":"43.1853","longitude":"27.4316"},{"name":"Ravna Gora","latitude":"43.0667","longitude":"27.8167"},{"name":"Suvorovo","latitude":"43.3333","longitude":"27.6"},{"name":"Varna","latitude":"43.2222","longitude":"27.5694"},{"name":"Zvezditsa","latitude":"43.15","longitude":"27.85"}]},{"name":"Veliko Tarnovo","code":"62","cities":[{"name":"Debelets","latitude":"43.0333","longitude":"25.6167"},{"name":"Dolna Oryahovitsa","latitude":"43.1667","longitude":"25.7333"},{"name":"Elena","latitude":"42.9333","longitude":"25.8833"},{"name":"Gorna Oryahovitsa","latitude":"43.1278","longitude":"25.7017"},{"name":"Klimentovo","latitude":"43.3703","longitude":"25.6004"},{"name":"Lozen","latitude":"43.2333","longitude":"25.9667"},{"name":"Lyaskovets","latitude":"43.1111","longitude":"25.7283"},{"name":"Oresh","latitude":"43.5833","longitude":"25.2333"},{"name":"Pavlikeni","latitude":"43.2428","longitude":"25.3219"},{"name":"Polikrayshte","latitude":"43.1848","longitude":"25.6115"},{"name":"Polski Trambesh","latitude":"43.3836","longitude":"25.6497"},{"name":"Radanovo","latitude":"43.3487","longitude":"25.6281"},{"name":"Resen","latitude":"43.2","longitude":"25.55"},{"name":"Sistov","latitude":"43.6231","longitude":"25.3539"},{"name":"Veliko Tarnovo","latitude":"43.0858","longitude":"25.6556"}]},{"name":"Vidin","code":"63","cities":[{"name":"Archar","latitude":"43.8124","longitude":"22.9157"},{"name":"Belogradchik","latitude":"43.6272","longitude":"22.6836"},{"name":"Vidin","latitude":"43.988","longitude":"22.8835"},{"name":"Vrav","latitude":"44.1936","longitude":"22.7364"}]},{"name":"Vratsa","code":"64","cities":[{"name":"Beli Izvor","latitude":"43.2667","longitude":"23.4667"},{"name":"Borovan","latitude":"43.4333","longitude":"23.75"},{"name":"Butan","latitude":"43.6433","longitude":"23.749"},{"name":"Byala Slatina","latitude":"43.4667","longitude":"23.9333"},{"name":"Kozloduy","latitude":"43.7833","longitude":"23.7333"},{"name":"Krivodol","latitude":"43.3744","longitude":"23.4844"},{"name":"Kunino","latitude":"43.2","longitude":"24.0"},{"name":"Mezdra","latitude":"43.15","longitude":"23.7"},{"name":"Rahova","latitude":"43.7362","longitude":"23.9605"},{"name":"Tarnava","latitude":"43.5","longitude":"23.8667"},{"name":"Vratsa","latitude":"43.2159","longitude":"23.5579"}]},{"name":"Yambol","code":"65","cities":[{"name":"Elhovo","latitude":"42.1667","longitude":"26.5667"},{"name":"Kabile","latitude":"42.5319","longitude":"26.4877"},{"name":"Popovo","latitude":"42.2","longitude":"26.75"},{"name":"Razdel","latitude":"42.0833","longitude":"26.65"},{"name":"Straldzha","latitude":"42.6","longitude":"26.6833"},{"name":"Yambol","latitude":"42.4821","longitude":"26.501"}]}]}