{"name":"Benin","code":"BJ","regions":[{"name":"Alibori","code":"07","cities":[{"name":"Banikoara","latitude":"11.3058","longitude":"2.4408"},{"name":"Kandi","latitude":"11.1374","longitude":"2.9375"},{"name":"Malanville","latitude":"11.8685","longitude":"3.3899"}]},{"name":"Atakora Department","code":"08","cities":[{"name":"Natitingou","latitude":"10.3042","longitude":"1.3796"}]},{"name":"Atlantique Department","code":"09","cities":[{"name":"Abomey-Calavi","latitude":"6.4485","longitude":"2.3557"},{"name":"Ouidah","latitude":"6.3631","longitude":"2.0851"}]},{"name":"Borgou Department","code":"10","cities":[{"name":"Parakou","latitude":"9.3338","longitude":"2.6261"}]},{"name":"Collines Department","code":"11","cities":[{"name":"Come","latitude":"6.4076","longitude":"1.882"},{"name":"Savalou","latitude":"7.9281","longitude":"1.9756"},{"name":"Savé","latitude":"8.0327","longitude":"2.4854"}]},{"name":"Donga","code":"13","cities":[{"name":"Bassila","latitude":"9.0011","longitude":"1.6612"},{"name":"Djougou","latitude":"9.7064","longitude":"1.6703"}]},{"name":"Kouffo Department","code":"12","cities":[{"name":"Aplahoue","latitude":"6.933","longitude":"1.681"},{"name":"Dogbo","latitude":"6.8167","longitude":"1.7833"}]},{"name":"Littoral","code":"14","cities":[{"name":"Cotonou","latitude":"6.3598","longitude":"2.4161"}]},{"name":"Mono","code":"15","cities":[{"name":"Lokossa","latitude":"6.6387","longitude":"1.7167"}]},{"name":"Ouémé","code":"16","cities":[{"name":"Porto-Novo","latitude":"6.4833","longitude":"2.6167"}]},{"name":"Zou Department","code":"18","cities":[{"name":"Bohicon","latitude":"7.1742","longitude":"2.0667"}]}]}