{"name":"Belarus","code":"BY","regions":[{"name":"Brest","code":"01","cities":[{"name":"Baranovichi","latitude":"53.1324","longitude":"26.0088"},{"name":"Beloozersk","latitude":"52.4731","longitude":"25.1784"},{"name":"Brest","latitude":"52.0995","longitude":"23.6806"},{"name":"Dobrinevo","latitude":"52.813","longitude":"25.4847"},{"name":"Gorodnyany","latitude":"52.5061","longitude":"24.4806"},{"name":"Kamyanyets","latitude":"52.4014","longitude":"23.8038"},{"name":"Kobryn","latitude":"52.2138","longitude":"24.3564"},{"name":"Kossovo","latitude":"52.7564","longitude":"25.1496"},{"name":"Luninyets","latitude":"52.2494","longitude":"26.8055"},{"name":"Malaryta","latitude":"51.7905","longitude":"24.074"},{"name":"Osipovichi","latitude":"52.1374","longitude":"24.8273"},{"name":"Pinkavichy","latitude":"52.1433","longitude":"26.1683"},{"name":"Pinsk","latitude":"52.1214","longitude":"26.0728"},{"name":"Polonka","latitude":"53.1444","longitude":"25.7217"},{"name":"Slabudka","latitude":"52.518","longitude":"24.5165"},{"name":"Stolin","latitude":"51.8911","longitude":"26.846"}]},{"name":"Grodnenskaya","code":"03","cities":[{"name":"Ashmyany","latitude":"54.4207","longitude":"25.936"},{"name":"Astravyets","latitude":"54.6145","longitude":"25.9571"},{"name":"Baranovichi","latitude":"53.512","longitude":"25.9857"},{"name":"Dzyatlava","latitude":"53.4634","longitude":"25.4001"},{"name":"Gonchary","latitude":"53.0476","longitude":"24.0407"},{"name":"Hrodna","latitude":"53.688","longitude":"23.8277"},{"name":"Lida","latitude":"53.8833","longitude":"25.2997"},{"name":"Masty","latitude":"53.4122","longitude":"24.5387"},{"name":"Navahrudak","latitude":"53.5942","longitude":"25.8191"},{"name":"Selishche","latitude":"53.6604","longitude":"25.982"},{"name":"Slonim","latitude":"53.0869","longitude":"25.3163"},{"name":"Smarhon'","latitude":"54.4798","longitude":"26.3957"},{"name":"Vawkavysk","latitude":"53.1561","longitude":"24.4513"}]},{"name":"Homyel’ Voblasc’","code":"02","cities":[{"name":"Chachersk","latitude":"52.9226","longitude":"30.9222"},{"name":"Gomel","latitude":"52.4345","longitude":"30.9754"},{"name":"Mazyr","latitude":"52.0573","longitude":"29.2482"},{"name":"Milashavichy","latitude":"51.6565","longitude":"27.9349"},{"name":"Narowlya","latitude":"51.7957","longitude":"29.4945"},{"name":"Rahachow","latitude":"53.0934","longitude":"30.0495"},{"name":"Rechytsa","latitude":"52.3617","longitude":"30.3916"},{"name":"Svyetlahorsk","latitude":"52.6329","longitude":"29.7389"},{"name":"Vyetka","latitude":"52.5591","longitude":"31.1794"},{"name":"Zhlobin","latitude":"52.8926","longitude":"30.024"}]},{"name":"Minsk","code":"05","cities":[{"name":"Borisov","latitude":"54.2279","longitude":"28.505"},{"name":"Borovlyany","latitude":"54.0022","longitude":"27.6754"},{"name":"Chervyen'","latitude":"53.7059","longitude":"28.4313"},{"name":"Dzyarzhynsk","latitude":"53.6832","longitude":"27.138"},{"name":"Fanipol","latitude":"53.7445","longitude":"27.3273"},{"name":"Gulevichi","latitude":"52.974","longitude":"27.0704"},{"name":"Klyetsk","latitude":"53.0668","longitude":"26.633"},{"name":"Lahoysk","latitude":"54.2062","longitude":"27.8485"},{"name":"Lyakhavichy","latitude":"53.6183","longitude":"27.1959"},{"name":"Lyasny","latitude":"54.0107","longitude":"27.6957"},{"name":"Maladzyechna","latitude":"54.3149","longitude":"26.8628"},{"name":"Mar''ina Horka","latitude":"53.509","longitude":"28.147"},{"name":"Naroch'","latitude":"54.5652","longitude":"26.7314"},{"name":"Obchak","latitude":"54.0379","longitude":"28.3806"},{"name":"Salihorsk","latitude":"52.7876","longitude":"27.5415"},{"name":"Slutsk","latitude":"53.0274","longitude":"27.5597"},{"name":"Smalyavichy","latitude":"54.0249","longitude":"28.0894"},{"name":"Smilavichy","latitude":"53.7496","longitude":"28.0115"},{"name":"Stowbtsy","latitude":"53.4785","longitude":"26.7434"},{"name":"Svir'","latitude":"54.8517","longitude":"26.395"},{"name":"Tarasovo","latitude":"53.9253","longitude":"27.3815"},{"name":"Uzda","latitude":"53.4629","longitude":"27.2201"},{"name":"Vilyeyka","latitude":"54.4914","longitude":"26.9111"},{"name":"Zaslawye","latitude":"54.0114","longitude":"27.2695"},{"name":"Zhodzina","latitude":"54.0927","longitude":"28.3362"}]},{"name":"Minsk City","code":"04","cities":[{"name":"Minsk","latitude":"53.8996","longitude":"27.5678"}]},{"name":"Mogilev","code":"06","cities":[{"name":"Asipovichy","latitude":"53.3011","longitude":"28.6386"},{"name":"Babruysk","latitude":"53.1384","longitude":"29.2214"},{"name":"Bykhaw","latitude":"53.521","longitude":"30.2454"},{"name":"Horki","latitude":"54.2862","longitude":"30.9863"},{"name":"Kirawsk","latitude":"53.2693","longitude":"29.4752"},{"name":"Klichaw","latitude":"53.4923","longitude":"29.3356"},{"name":"Klimavichy","latitude":"53.6112","longitude":"31.9505"},{"name":"Mogilev","latitude":"53.9168","longitude":"30.3449"},{"name":"Shklow","latitude":"54.2131","longitude":"30.2877"}]},{"name":"Vitebsk","code":"07","cities":[{"name":"Apanasenki","latitude":"55.5946","longitude":"27.4608"},{"name":"Baliny","latitude":"55.7999","longitude":"27.7411"},{"name":"Baranovichi","latitude":"55.0919","longitude":"26.9223"},{"name":"Barowka","latitude":"55.8082","longitude":"27.9511"},{"name":"Bigosovo","latitude":"55.8351","longitude":"27.7399"},{"name":"Dokshytsy","latitude":"54.8918","longitude":"27.7667"},{"name":"Dubrowna","latitude":"54.5769","longitude":"30.6901"},{"name":"Golochin","latitude":"54.3865","longitude":"29.6858"},{"name":"Gorodok","latitude":"55.1584","longitude":"28.6406"},{"name":"Hlybokaye","latitude":"55.137","longitude":"27.6894"},{"name":"Homyel'","latitude":"55.2987","longitude":"28.7739"},{"name":"Lyepyel'","latitude":"54.8814","longitude":"28.699"},{"name":"Navapolatsk","latitude":"55.5318","longitude":"28.5987"},{"name":"Novolukoml'","latitude":"54.6588","longitude":"29.1373"},{"name":"Orsha","latitude":"54.5081","longitude":"30.4172"},{"name":"Paris","latitude":"55.1546","longitude":"27.3846"},{"name":"Polatsk","latitude":"55.4879","longitude":"28.7856"},{"name":"Staraya Lepel'","latitude":"54.8814","longitude":"28.699"},{"name":"Ushachy","latitude":"55.1771","longitude":"28.6097"},{"name":"Vitebsk","latitude":"55.1904","longitude":"30.199"}]}]}