{"name":"Canada","code":"CA","regions":[{"name":"Alberta","code":"AB","cities":[{"name":"Acadia Valley","latitude":"51.15","longitude":"-110.2"},{"name":"Acheson","latitude":"53.5425","longitude":"-113.7639"},{"name":"Acme","latitude":"51.5","longitude":"-113.5"},{"name":"Airdrie","latitude":"51.2854","longitude":"-113.9894"},{"name":"Alberta Beach","latitude":"53.6668","longitude":"-114.3521"},{"name":"Andrew","latitude":"53.8859","longitude":"-112.333"},{"name":"Ardrossan","latitude":"53.552","longitude":"-113.1274"},{"name":"Ashmont","latitude":"54.1297","longitude":"-111.5681"},{"name":"Athabasca","latitude":"54.7233","longitude":"-113.2858"},{"name":"Atikameg","latitude":"55.9167","longitude":"-115.65"},{"name":"Banff","latitude":"51.1762","longitude":"-115.5698"},{"name":"Barnwell","latitude":"49.7667","longitude":"-112.2518"},{"name":"Barrhead","latitude":"54.1334","longitude":"-114.4021"},{"name":"Bashaw","latitude":"52.5833","longitude":"-112.9667"},{"name":"Bassano","latitude":"50.7833","longitude":"-112.4667"},{"name":"Bawlf","latitude":"52.9168","longitude":"-112.4686"},{"name":"Bay Tree","latitude":"55.8166","longitude":"-119.9028"},{"name":"Beaumont","latitude":"53.3466","longitude":"-113.4143"},{"name":"Beaverlodge","latitude":"55.2","longitude":"-119.45"},{"name":"Bellevue","latitude":"49.5833","longitude":"-114.3667"},{"name":"Benalto","latitude":"52.3","longitude":"-114.2833"},{"name":"Bentley","latitude":"52.4667","longitude":"-114.05"},{"name":"Big Valley","latitude":"52.0333","longitude":"-112.75"},{"name":"Birchcliff","latitude":"52.3589","longitude":"-114.1241"},{"name":"Black Diamond","latitude":"50.7","longitude":"-114.2333"},{"name":"Blackfalds","latitude":"52.3805","longitude":"-113.7793"},{"name":"Blairmore","latitude":"49.6","longitude":"-114.4333"},{"name":"Bluffton","latitude":"52.7442","longitude":"-114.2781"},{"name":"Bon Accord","latitude":"53.8333","longitude":"-113.4167"},{"name":"Bonanza","latitude":"55.9166","longitude":"-119.8195"},{"name":"Bonnyville","latitude":"54.2668","longitude":"-110.7351"},{"name":"Bow Island","latitude":"49.8667","longitude":"-111.3667"},{"name":"Bowden","latitude":"51.9167","longitude":"-114.0333"},{"name":"Boyle","latitude":"54.5908","longitude":"-112.8092"},{"name":"Bragg Creek","latitude":"50.9513","longitude":"-114.5603"},{"name":"Breton","latitude":"53.1167","longitude":"-114.4833"},{"name":"Brooks","latitude":"50.5834","longitude":"-111.8851"},{"name":"Bruderheim","latitude":"53.7835","longitude":"-112.9353"},{"name":"Busby","latitude":"53.95","longitude":"-113.9"},{"name":"Calais","latitude":"55.0744","longitude":"-117.5362"},{"name":"Calgary","latitude":"50.9129","longitude":"-114.1028"},{"name":"Calmar","latitude":"53.25","longitude":"-113.7833"},{"name":"Camrose","latitude":"53.0192","longitude":"-112.8347"},{"name":"Canmore","latitude":"51.0868","longitude":"-115.3504"},{"name":"Carbon","latitude":"51.4834","longitude":"-113.1519"},{"name":"Cardston","latitude":"49.2","longitude":"-113.3167"},{"name":"Caroline","latitude":"52.0833","longitude":"-114.75"},{"name":"Carseland","latitude":"50.85","longitude":"-113.4667"},{"name":"Carstairs","latitude":"51.5333","longitude":"-114.1"},{"name":"Caslan","latitude":"54.6317","longitude":"-112.5117"},{"name":"Castor","latitude":"52.2167","longitude":"-111.9"},{"name":"Champion","latitude":"50.2167","longitude":"-113.15"},{"name":"Chard","latitude":"55.8461","longitude":"-110.9072"},{"name":"Chateh","latitude":"58.6714","longitude":"-118.6764"},{"name":"Chauvin","latitude":"52.6833","longitude":"-110.1333"},{"name":"Cherry Grove","latitude":"54.355","longitude":"-110.08"},{"name":"Chestermere","latitude":"51.0334","longitude":"-113.8187"},{"name":"Chipman","latitude":"53.7","longitude":"-112.6333"},{"name":"Clairmont","latitude":"55.2667","longitude":"-118.8"},{"name":"Claresholm","latitude":"50.0333","longitude":"-113.5833"},{"name":"Coaldale","latitude":"49.7189","longitude":"-112.6298"},{"name":"Cochrane","latitude":"51.1802","longitude":"-114.4698"},{"name":"Cold Lake","latitude":"54.4502","longitude":"-110.2017"},{"name":"Coleman","latitude":"49.6333","longitude":"-114.5"},{"name":"Condor","latitude":"52.3264","longitude":"-114.5553"},{"name":"Consort","latitude":"52.0167","longitude":"-110.8"},{"name":"Coronation","latitude":"52.0848","longitude":"-111.4482"},{"name":"Coutts","latitude":"49.0","longitude":"-111.95"},{"name":"Cowley","latitude":"49.5632","longitude":"-114.0639"},{"name":"Cremona","latitude":"51.55","longitude":"-114.4667"},{"name":"Crooked Creek","latitude":"55.1708","longitude":"-117.8897"},{"name":"Crossfield","latitude":"51.4333","longitude":"-114.0333"},{"name":"Crowsnest Pass","latitude":"49.6042","longitude":"-114.5214"},{"name":"Czar","latitude":"52.45","longitude":"-110.8333"},{"name":"Dapp","latitude":"54.35","longitude":"-113.9167"},{"name":"Daysland","latitude":"52.8667","longitude":"-112.25"},{"name":"DeBolt","latitude":"55.2228","longitude":"-118.0105"},{"name":"Del Bonita","latitude":"49.0325","longitude":"-112.7954"},{"name":"Delburne","latitude":"52.2","longitude":"-113.2333"},{"name":"Delia","latitude":"51.6334","longitude":"-112.3851"},{"name":"Devon","latitude":"53.3708","longitude":"-113.7351"},{"name":"Dewberry","latitude":"53.5826","longitude":"-110.7231"},{"name":"Didsbury","latitude":"51.6667","longitude":"-114.1333"},{"name":"Donnelly","latitude":"55.734","longitude":"-117.1221"},{"name":"Drayton Valley","latitude":"53.2168","longitude":"-114.9854"},{"name":"Driftpile","latitude":"55.35","longitude":"-115.7667"},{"name":"Drumheller","latitude":"51.4667","longitude":"-112.7"},{"name":"Duchess","latitude":"50.7333","longitude":"-111.9"},{"name":"Duffield","latitude":"53.5173","longitude":"-114.3356"},{"name":"Eagle Hill","latitude":"51.8167","longitude":"-114.3667"},{"name":"Eaglesham","latitude":"55.7833","longitude":"-117.9"},{"name":"Eckville","latitude":"52.3501","longitude":"-114.3687"},{"name":"Edgerton","latitude":"52.75","longitude":"-110.45"},{"name":"Edmonton","latitude":"53.5565","longitude":"-113.484"},{"name":"Edson","latitude":"53.5834","longitude":"-116.4356"},{"name":"Elk Point","latitude":"53.9","longitude":"-110.9"},{"name":"Elnora","latitude":"51.9834","longitude":"-113.2019"},{"name":"Entwistle","latitude":"53.5167","longitude":"-114.9667"},{"name":"Esther","latitude":"51.6833","longitude":"-110.25"},{"name":"Evansburg","latitude":"53.6001","longitude":"-115.0188"},{"name":"Fairview","latitude":"56.0667","longitude":"-118.4"},{"name":"Falher","latitude":"55.7334","longitude":"-117.2026"},{"name":"Falun","latitude":"52.9583","longitude":"-113.8425"},{"name":"Fawcett","latitude":"54.5333","longitude":"-114.0833"},{"name":"Foothills","latitude":"53.0667","longitude":"-116.7833"},{"name":"Foremost","latitude":"49.4833","longitude":"-111.4333"},{"name":"Forestburg","latitude":"52.582","longitude":"-112.0778"},{"name":"Fort Chipewyan","latitude":"58.7167","longitude":"-111.15"},{"name":"Fort MacKay","latitude":"57.1833","longitude":"-111.6167"},{"name":"Fort Macleod","latitude":"49.7333","longitude":"-113.4"},{"name":"Fort McMurray","latitude":"56.752","longitude":"-111.4398"},{"name":"Fort Saskatchewan","latitude":"53.7168","longitude":"-113.2187"},{"name":"Fort Vermilion","latitude":"58.4","longitude":"-116.0"},{"name":"Fox Creek","latitude":"54.4001","longitude":"-116.8024"},{"name":"Fox Lake","latitude":"58.4669","longitude":"-114.5191"},{"name":"Frog Lake","latitude":"53.8335","longitude":"-110.4183"},{"name":"Gem","latitude":"50.95","longitude":"-112.1833"},{"name":"Gibbons","latitude":"53.8334","longitude":"-113.3353"},{"name":"Gift Lake","latitude":"55.8825","longitude":"-115.8125"},{"name":"Girouxville","latitude":"55.75","longitude":"-117.3333"},{"name":"Gleichen","latitude":"50.8667","longitude":"-113.05"},{"name":"Goodfare","latitude":"55.2666","longitude":"-119.7195"},{"name":"Goodfish Lake","latitude":"54.2969","longitude":"-111.8039"},{"name":"Gordondale","latitude":"55.8332","longitude":"-119.5528"},{"name":"Grande Cache","latitude":"53.8834","longitude":"-119.1359"},{"name":"Grande Prairie","latitude":"55.1808","longitude":"-118.9103"},{"name":"Grassy Lake","latitude":"49.8333","longitude":"-111.7"},{"name":"Grimshaw","latitude":"56.1833","longitude":"-117.6"},{"name":"Guy","latitude":"55.5528","longitude":"-117.1192"},{"name":"Halkirk","latitude":"52.2833","longitude":"-112.15"},{"name":"Hanna","latitude":"51.6333","longitude":"-111.9167"},{"name":"Hay Lakes","latitude":"53.2","longitude":"-113.05"},{"name":"Hayter","latitude":"52.35","longitude":"-110.1167"},{"name":"Heinsburg","latitude":"53.7639","longitude":"-110.5205"},{"name":"High Level","latitude":"58.5167","longitude":"-117.1333"},{"name":"High Prairie","latitude":"55.4324","longitude":"-116.4829"},{"name":"High River","latitude":"50.5834","longitude":"-113.8687"},{"name":"Hillcrest","latitude":"49.5833","longitude":"-114.3853"},{"name":"Hines Creek","latitude":"56.2333","longitude":"-118.6"},{"name":"Hinton","latitude":"53.4001","longitude":"-117.5857"},{"name":"Hobbema","latitude":"52.8333","longitude":"-113.45"},{"name":"Holden","latitude":"53.2333","longitude":"-112.2333"},{"name":"Hughenden","latitude":"52.5168","longitude":"-110.9849"},{"name":"Hylo","latitude":"54.6822","longitude":"-112.2201"},{"name":"Hythe","latitude":"55.3167","longitude":"-119.5667"},{"name":"Innisfail","latitude":"52.0269","longitude":"-113.9507"},{"name":"Innisfree","latitude":"53.3668","longitude":"-111.535"},{"name":"Irma","latitude":"52.9167","longitude":"-111.2333"},{"name":"Irricana","latitude":"51.3167","longitude":"-113.6167"},{"name":"Jarvie","latitude":"54.45","longitude":"-113.9833"},{"name":"Jasper","latitude":"52.8822","longitude":"-118.0712"},{"name":"Jenner","latitude":"50.75","longitude":"-111.1833"},{"name":"Joussard","latitude":"55.3667","longitude":"-115.9333"},{"name":"Kananaskis","latitude":"51.0482","longitude":"-115.0222"},{"name":"Kikino","latitude":"54.4453","longitude":"-112.0981"},{"name":"Killam","latitude":"52.7833","longitude":"-111.85"},{"name":"Kinuso","latitude":"55.3333","longitude":"-115.4167"},{"name":"Kitscoty","latitude":"53.3333","longitude":"-110.3333"},{"name":"La Crete","latitude":"58.1835","longitude":"-116.4027"},{"name":"Lac La Biche","latitude":"54.7764","longitude":"-111.9709"},{"name":"Lacombe","latitude":"52.4668","longitude":"-113.7353"},{"name":"Lafond","latitude":"53.8831","longitude":"-111.4867"},{"name":"Lake Louise","latitude":"51.4333","longitude":"-116.1833"},{"name":"Lamont","latitude":"53.75","longitude":"-112.7833"},{"name":"Langdon","latitude":"50.974","longitude":"-113.6776"},{"name":"Leduc","latitude":"53.2659","longitude":"-113.5587"},{"name":"Legal","latitude":"53.95","longitude":"-113.6333"},{"name":"Leslieville","latitude":"52.3833","longitude":"-114.6"},{"name":"Lethbridge","latitude":"49.6506","longitude":"-112.8372"},{"name":"Little Smoky","latitude":"54.7425","longitude":"-117.1815"},{"name":"Lloydminster","latitude":"53.2779","longitude":"-110.0806"},{"name":"Longview","latitude":"50.5334","longitude":"-114.2353"},{"name":"Lundbreck","latitude":"49.5856","longitude":"-114.1619"},{"name":"Madden","latitude":"51.4334","longitude":"-114.2853"},{"name":"Magrath","latitude":"49.4167","longitude":"-112.8833"},{"name":"Mallaig","latitude":"54.2119","longitude":"-111.3661"},{"name":"Manning","latitude":"56.9168","longitude":"-117.6195"},{"name":"Mannville","latitude":"53.3333","longitude":"-111.1667"},{"name":"Marwayne","latitude":"53.5167","longitude":"-110.3333"},{"name":"Mayerthorpe","latitude":"53.9502","longitude":"-115.1355"},{"name":"McLennan","latitude":"55.7","longitude":"-116.9"},{"name":"Medicine Hat","latitude":"49.8375","longitude":"-110.5161"},{"name":"Milk River","latitude":"49.1333","longitude":"-112.0833"},{"name":"Millarville","latitude":"50.7512","longitude":"-114.3205"},{"name":"Millet","latitude":"53.0795","longitude":"-113.4676"},{"name":"Morinville","latitude":"53.7982","longitude":"-113.6649"},{"name":"Morley","latitude":"51.1667","longitude":"-114.85"},{"name":"Morrin","latitude":"51.6667","longitude":"-112.7667"},{"name":"Mountain View","latitude":"49.1332","longitude":"-113.6058"},{"name":"Mundare","latitude":"53.6","longitude":"-112.3333"},{"name":"Myrnam","latitude":"53.6667","longitude":"-111.2333"},{"name":"Nampa","latitude":"56.0333","longitude":"-117.1167"},{"name":"Nanton","latitude":"50.35","longitude":"-113.7667"},{"name":"New Norway","latitude":"52.8649","longitude":"-112.9495"},{"name":"Newbrook","latitude":"54.3294","longitude":"-112.9531"},{"name":"Nisku","latitude":"53.3333","longitude":"-113.5333"},{"name":"Nobleford","latitude":"49.8804","longitude":"-113.0478"},{"name":"Nordegg","latitude":"52.4667","longitude":"-116.0833"},{"name":"Okotoks","latitude":"50.7358","longitude":"-113.9659"},{"name":"Olds","latitude":"51.7816","longitude":"-114.0941"},{"name":"Onoway","latitude":"53.7006","longitude":"-114.1776"},{"name":"Oyen","latitude":"51.3668","longitude":"-110.4683"},{"name":"Paddle Prairie","latitude":"57.9501","longitude":"-117.4861"},{"name":"Paradise Valley","latitude":"53.0333","longitude":"-110.3333"},{"name":"Patricia","latitude":"50.7","longitude":"-111.6833"},{"name":"Peace River","latitude":"56.2501","longitude":"-117.286"},{"name":"Penhold","latitude":"52.1361","longitude":"-113.8607"},{"name":"Pickardville","latitude":"54.05","longitude":"-113.8833"},{"name":"Picture Butte","latitude":"49.8833","longitude":"-112.7852"},{"name":"Pincher Creek","latitude":"49.4833","longitude":"-113.95"},{"name":"Plamondon","latitude":"54.8486","longitude":"-112.3439"},{"name":"Ponoka","latitude":"52.6762","longitude":"-113.5736"},{"name":"Priddis","latitude":"50.8834","longitude":"-114.3353"},{"name":"Provost","latitude":"52.35","longitude":"-110.2667"},{"name":"Radway","latitude":"54.0594","longitude":"-112.9453"},{"name":"Rainbow Lake","latitude":"58.5001","longitude":"-119.3862"},{"name":"Rainier","latitude":"50.3668","longitude":"-112.0851"},{"name":"Raymond","latitude":"49.4667","longitude":"-112.6667"},{"name":"Red Deer","latitude":"52.2424","longitude":"-113.7775"},{"name":"Redcliff","latitude":"50.0833","longitude":"-110.7833"},{"name":"Redwater","latitude":"53.95","longitude":"-113.11"},{"name":"Redwood Meadows","latitude":"51.0691","longitude":"-114.4727"},{"name":"Rimbey","latitude":"52.6332","longitude":"-114.23"},{"name":"Rocky Mountain House","latitude":"52.3668","longitude":"-114.9188"},{"name":"Rocky View","latitude":"51.1834","longitude":"-113.9353"},{"name":"Rosemary","latitude":"50.7667","longitude":"-112.0833"},{"name":"Rumsey","latitude":"51.85","longitude":"-112.85"},{"name":"Rycroft","latitude":"55.7667","longitude":"-118.7167"},{"name":"Ryley","latitude":"53.2834","longitude":"-112.4352"},{"name":"Saddle Lake","latitude":"53.9683","longitude":"-111.6919"},{"name":"Scandia","latitude":"50.2667","longitude":"-112.0333"},{"name":"Sedalia","latitude":"51.6668","longitude":"-110.664"},{"name":"Sedgewick","latitude":"52.7668","longitude":"-111.685"},{"name":"Sexsmith","latitude":"55.35","longitude":"-118.7833"},{"name":"Sherwood Park","latitude":"53.5052","longitude":"-112.9529"},{"name":"Siksika","latitude":"50.7763","longitude":"-112.9397"},{"name":"Smith","latitude":"55.1696","longitude":"-114.0331"},{"name":"Smoky Lake","latitude":"54.117","longitude":"-112.4725"},{"name":"Spedden","latitude":"54.1448","longitude":"-111.7305"},{"name":"Spirit River","latitude":"55.7833","longitude":"-118.8333"},{"name":"Spring Lake","latitude":"53.5168","longitude":"-114.1188"},{"name":"Spruce Grove","latitude":"53.419","longitude":"-113.8118"},{"name":"Sputinow","latitude":"53.9157","longitude":"-110.2444"},{"name":"St. Albert","latitude":"53.632","longitude":"-113.6363"},{"name":"St. Isidore","latitude":"56.2001","longitude":"-117.1027"},{"name":"St. Paul","latitude":"53.9821","longitude":"-111.2826"},{"name":"Star","latitude":"53.8169","longitude":"-112.7686"},{"name":"Stavely","latitude":"50.1668","longitude":"-113.6352"},{"name":"Stettler","latitude":"52.3352","longitude":"-112.6953"},{"name":"Stirling","latitude":"49.5167","longitude":"-112.5167"},{"name":"Stony Plain","latitude":"53.5326","longitude":"-113.9955"},{"name":"Strathmore","latitude":"51.0501","longitude":"-113.3852"},{"name":"Strome","latitude":"52.8001","longitude":"-112.0685"},{"name":"Sundre","latitude":"51.8001","longitude":"-114.6353"},{"name":"Sunset House","latitude":"55.1133","longitude":"-116.87"},{"name":"Sylvan Lake","latitude":"52.3168","longitude":"-114.0853"},{"name":"Taber","latitude":"49.7883","longitude":"-112.1442"},{"name":"Tangent","latitude":"55.8","longitude":"-117.6833"},{"name":"Thorhild","latitude":"54.15","longitude":"-113.1167"},{"name":"Thorsby","latitude":"53.2334","longitude":"-114.052"},{"name":"Three Hills","latitude":"51.7","longitude":"-113.2667"},{"name":"Tilley","latitude":"50.45","longitude":"-111.65"},{"name":"Tofield","latitude":"53.3667","longitude":"-112.6667"},{"name":"Trochu","latitude":"51.8333","longitude":"-113.2333"},{"name":"Turner Valley","latitude":"50.6833","longitude":"-114.2667"},{"name":"Two Hills","latitude":"53.7167","longitude":"-111.75"},{"name":"Valleyview","latitude":"55.0667","longitude":"-117.2833"},{"name":"Vauxhall","latitude":"50.0667","longitude":"-112.1"},{"name":"Vegreville","latitude":"53.4972","longitude":"-112.0518"},{"name":"Vermilion","latitude":"53.3669","longitude":"-110.8517"},{"name":"Viking","latitude":"53.0833","longitude":"-111.7833"},{"name":"Vilna","latitude":"54.1161","longitude":"-111.9194"},{"name":"Vulcan","latitude":"50.4","longitude":"-113.25"},{"name":"Wabamun","latitude":"53.5552","longitude":"-114.4672"},{"name":"Wabasca-Desmarais","latitude":"55.6993","longitude":"-114.4529"},{"name":"Wainwright","latitude":"52.839","longitude":"-110.8572"},{"name":"Wandering River","latitude":"55.2014","longitude":"-112.4664"},{"name":"Warburg","latitude":"53.1834","longitude":"-114.3188"},{"name":"Warner","latitude":"49.2868","longitude":"-112.1969"},{"name":"Water Valley","latitude":"51.5001","longitude":"-114.602"},{"name":"Waterton","latitude":"49.05","longitude":"-113.9167"},{"name":"Welling","latitude":"49.4678","longitude":"-112.7879"},{"name":"Westerose","latitude":"52.9668","longitude":"-113.9853"},{"name":"Westlock","latitude":"54.1481","longitude":"-113.8737"},{"name":"Wetaskiwin","latitude":"52.9668","longitude":"-113.3687"},{"name":"Whitecourt","latitude":"54.1501","longitude":"-115.6855"},{"name":"Willingdon","latitude":"53.8361","longitude":"-112.1121"},{"name":"Worsley","latitude":"56.5167","longitude":"-119.0667"},{"name":"Youngstown","latitude":"51.5333","longitude":"-111.2"}]},{"name":"British Columbia","code":"BC","cities":[{"name":"100 Mile House","latitude":"51.6448","longitude":"-121.2805"},{"name":"150 Mile House","latitude":"52.1041","longitude":"-121.928"},{"name":"Abbotsford","latitude":"49.041","longitude":"-122.3423"},{"name":"Agassiz","latitude":"49.6346","longitude":"-122.038"},{"name":"Ahousat","latitude":"49.2833","longitude":"-126.05"},{"name":"Aldergrove","latitude":"49.0784","longitude":"-122.4983"},{"name":"Alert Bay","latitude":"50.5833","longitude":"-126.9167"},{"name":"Anglemont","latitude":"50.9641","longitude":"-119.164"},{"name":"Armstrong","latitude":"50.4508","longitude":"-119.1831"},{"name":"Ashcroft","latitude":"50.7167","longitude":"-121.2667"},{"name":"Atlin","latitude":"59.6378","longitude":"-133.5433"},{"name":"Bamfield","latitude":"48.8333","longitude":"-125.15"},{"name":"Barriere","latitude":"51.1833","longitude":"-120.1333"},{"name":"Baynes Lake","latitude":"49.2333","longitude":"-115.2167"},{"name":"Belcarra","latitude":"49.3194","longitude":"-122.9329"},{"name":"Bella Bella","latitude":"52.15","longitude":"-128.1333"},{"name":"Bella Coola","latitude":"52.3667","longitude":"-126.75"},{"name":"Big Lake Ranch","latitude":"52.4165","longitude":"-121.8528"},{"name":"Blind Bay","latitude":"50.8831","longitude":"-119.3857"},{"name":"Blue River","latitude":"52.1","longitude":"-119.3"},{"name":"Boston Bar","latitude":"49.87","longitude":"-121.444"},{"name":"Bowen Island","latitude":"49.3848","longitude":"-123.331"},{"name":"Bowser","latitude":"49.4312","longitude":"-124.6837"},{"name":"Brackendale","latitude":"49.7667","longitude":"-123.15"},{"name":"Brentwood Bay","latitude":"48.5759","longitude":"-123.4538"},{"name":"Brisco","latitude":"50.8167","longitude":"-116.2833"},{"name":"Burnaby","latitude":"49.203","longitude":"-122.9914"},{"name":"Burns Lake","latitude":"54.2167","longitude":"-125.7667"},{"name":"Burton","latitude":"49.9832","longitude":"-117.8856"},{"name":"Cache Creek","latitude":"50.8","longitude":"-121.3167"},{"name":"Campbell River","latitude":"50.0766","longitude":"-125.5903"},{"name":"Canal Flats","latitude":"50.15","longitude":"-115.8333"},{"name":"Canim Lake","latitude":"51.7667","longitude":"-120.9"},{"name":"Canoe","latitude":"50.75","longitude":"-119.2333"},{"name":"Castlegar","latitude":"49.2998","longitude":"-117.6689"},{"name":"Cawston","latitude":"49.1825","longitude":"-119.7596"},{"name":"Celista","latitude":"50.943","longitude":"-119.353"},{"name":"Central Saanich","latitude":"48.5663","longitude":"-123.4193"},{"name":"Charlie Lake","latitude":"56.2667","longitude":"-120.95"},{"name":"Chase","latitude":"50.8167","longitude":"-119.6833"},{"name":"Chemainus","latitude":"48.9236","longitude":"-123.7179"},{"name":"Chetwynd","latitude":"55.6984","longitude":"-121.6399"},{"name":"Chilliwack","latitude":"49.0745","longitude":"-121.9826"},{"name":"Christina Lake","latitude":"49.0397","longitude":"-118.2085"},{"name":"Clearwater","latitude":"51.65","longitude":"-120.0333"},{"name":"Clinton","latitude":"51.1","longitude":"-121.6"},{"name":"Cloverdale","latitude":"49.0972","longitude":"-122.7307"},{"name":"Coal Harbour","latitude":"50.6","longitude":"-127.5833"},{"name":"Cobble Hill","latitude":"48.6865","longitude":"-123.5959"},{"name":"Comox","latitude":"49.6829","longitude":"-124.9361"},{"name":"Coombs","latitude":"49.2996","longitude":"-124.4195"},{"name":"Coquitlam","latitude":"49.2663","longitude":"-122.7815"},{"name":"Courtenay","latitude":"49.6585","longitude":"-124.9835"},{"name":"Cowichan Bay","latitude":"48.736","longitude":"-123.62"},{"name":"Cranbrook","latitude":"49.5014","longitude":"-115.7734"},{"name":"Crawford Bay","latitude":"49.6721","longitude":"-116.8238"},{"name":"Crescent Valley","latitude":"49.4361","longitude":"-117.5456"},{"name":"Creston","latitude":"49.0998","longitude":"-116.5247"},{"name":"Cultus Lake","latitude":"49.0667","longitude":"-121.9667"},{"name":"Cumberland","latitude":"49.6167","longitude":"-125.0167"},{"name":"Dawson Creek","latitude":"55.7666","longitude":"-120.2362"},{"name":"Delta","latitude":"49.0318","longitude":"-123.0915"},{"name":"Denman Island","latitude":"49.5333","longitude":"-124.8167"},{"name":"Duncan","latitude":"48.7808","longitude":"-123.7037"},{"name":"Edgewood","latitude":"49.7833","longitude":"-118.1333"},{"name":"Enderby","latitude":"50.55","longitude":"-119.1333"},{"name":"Engen","latitude":"54.05","longitude":"-124.5333"},{"name":"Esquimalt","latitude":"48.4518","longitude":"-123.4206"},{"name":"Fairmont Hot Springs","latitude":"50.3185","longitude":"-115.8611"},{"name":"Fernie","latitude":"49.5","longitude":"-115.0667"},{"name":"Field","latitude":"51.4","longitude":"-116.4833"},{"name":"Fort Langley","latitude":"49.1667","longitude":"-122.5833"},{"name":"Fort Nelson","latitude":"58.8167","longitude":"-122.5333"},{"name":"Fort St. James","latitude":"54.4553","longitude":"-124.2671"},{"name":"Fort St. John","latitude":"56.2482","longitude":"-120.8579"},{"name":"Fort Steele","latitude":"49.6167","longitude":"-115.6333"},{"name":"Fraser Lake","latitude":"54.05","longitude":"-124.7833"},{"name":"Fruitvale","latitude":"49.1167","longitude":"-117.55"},{"name":"Gabriola","latitude":"49.1833","longitude":"-123.85"},{"name":"Galiano Island","latitude":"48.9363","longitude":"-123.4671"},{"name":"Garibaldi","latitude":"49.9667","longitude":"-123.15"},{"name":"Garibaldi Highlands","latitude":"49.734","longitude":"-123.1341"},{"name":"Genelle","latitude":"49.2128","longitude":"-117.6909"},{"name":"Gibsons","latitude":"49.4","longitude":"-123.5"},{"name":"Gillies Bay","latitude":"49.6776","longitude":"-124.4862"},{"name":"Gold Bridge","latitude":"50.85","longitude":"-122.85"},{"name":"Gold River","latitude":"49.6817","longitude":"-126.1224"},{"name":"Golden","latitude":"51.2994","longitude":"-116.939"},{"name":"Grand Forks","latitude":"49.0516","longitude":"-118.4595"},{"name":"Granisle","latitude":"54.8831","longitude":"-126.2201"},{"name":"Grasmere","latitude":"49.0999","longitude":"-115.0853"},{"name":"Greenwood","latitude":"49.1333","longitude":"-118.6833"},{"name":"Hagensborg","latitude":"52.3833","longitude":"-126.5667"},{"name":"Harrison Hot Springs","latitude":"49.2997","longitude":"-121.7859"},{"name":"Hartley Bay","latitude":"53.4333","longitude":"-129.2667"},{"name":"Hazelton","latitude":"55.25","longitude":"-127.6667"},{"name":"Heriot Bay","latitude":"50.1007","longitude":"-125.2135"},{"name":"Hixon","latitude":"53.4","longitude":"-122.5667"},{"name":"Hornby Island","latitude":"49.5345","longitude":"-124.6692"},{"name":"Horsefly","latitude":"52.3333","longitude":"-121.4167"},{"name":"Houston","latitude":"54.4","longitude":"-126.65"},{"name":"Hudson's Hope","latitude":"55.9999","longitude":"-122.0031"},{"name":"Invermere","latitude":"50.5","longitude":"-116.0333"},{"name":"Jaffray","latitude":"49.3832","longitude":"-115.302"},{"name":"Kaleden","latitude":"49.3984","longitude":"-119.6042"},{"name":"Kamloops","latitude":"50.5437","longitude":"-120.0937"},{"name":"Kaslo","latitude":"49.91","longitude":"-116.92"},{"name":"Kelowna","latitude":"49.9497","longitude":"-119.4339"},{"name":"Kimberley","latitude":"49.6788","longitude":"-115.9932"},{"name":"Kispiox","latitude":"55.35","longitude":"-127.6833"},{"name":"Kitimat","latitude":"54.0524","longitude":"-128.6534"},{"name":"Kitkatla","latitude":"53.795","longitude":"-130.431"},{"name":"Kitwanga","latitude":"55.0977","longitude":"-128.0691"},{"name":"Klemtu","latitude":"52.5833","longitude":"-128.5333"},{"name":"Knutsford","latitude":"50.6167","longitude":"-120.3333"},{"name":"Kootenay Bay","latitude":"49.6832","longitude":"-116.8689"},{"name":"Kyuquot","latitude":"50.0303","longitude":"-127.3779"},{"name":"Ladysmith","latitude":"48.9829","longitude":"-123.8194"},{"name":"Lake Country","latitude":"50.0243","longitude":"-119.4021"},{"name":"Lake Cowichan","latitude":"48.8221","longitude":"-124.0531"},{"name":"Langford","latitude":"48.4507","longitude":"-123.4857"},{"name":"Langley","latitude":"49.1024","longitude":"-122.6536"},{"name":"Lantzville","latitude":"49.2454","longitude":"-124.0755"},{"name":"Lax Kw'alaams","latitude":"54.55","longitude":"-130.4167"},{"name":"Likely","latitude":"52.6167","longitude":"-121.55"},{"name":"Lillooet","latitude":"50.6833","longitude":"-121.9333"},{"name":"Lindell Beach","latitude":"49.0353","longitude":"-122.0161"},{"name":"Lions Bay","latitude":"49.4498","longitude":"-123.2422"},{"name":"Logan Lake","latitude":"50.48","longitude":"-120.81"},{"name":"Louis Creek","latitude":"51.1333","longitude":"-120.1167"},{"name":"Lumby","latitude":"50.25","longitude":"-118.9667"},{"name":"Lund","latitude":"49.9833","longitude":"-124.7667"},{"name":"Lytton","latitude":"50.2333","longitude":"-121.5667"},{"name":"Mackenzie","latitude":"55.3326","longitude":"-123.0897"},{"name":"Madeira Park","latitude":"49.6137","longitude":"-124.0229"},{"name":"Mansons Landing","latitude":"50.0667","longitude":"-124.9833"},{"name":"Maple Ridge","latitude":"49.222","longitude":"-122.6181"},{"name":"Masset","latitude":"54.0101","longitude":"-132.1403"},{"name":"Mayne","latitude":"48.8471","longitude":"-123.2928"},{"name":"McBride","latitude":"53.3","longitude":"-120.1667"},{"name":"Merritt","latitude":"50.1098","longitude":"-120.801"},{"name":"Midway","latitude":"49.0167","longitude":"-118.7833"},{"name":"Mill Bay","latitude":"54.9949","longitude":"-129.8938"},{"name":"Mission","latitude":"49.2528","longitude":"-122.3574"},{"name":"Moberly Lake","latitude":"55.8333","longitude":"-121.7333"},{"name":"Mount Currie","latitude":"50.3167","longitude":"-122.7167"},{"name":"Moyie","latitude":"49.2833","longitude":"-115.8333"},{"name":"Muncho Lake","latitude":"58.9329","longitude":"-125.7698"},{"name":"Nakusp","latitude":"50.2333","longitude":"-117.8"},{"name":"Nanaimo","latitude":"49.1956","longitude":"-123.9581"},{"name":"Nanoose Bay","latitude":"49.25","longitude":"-124.1833"},{"name":"Naramata","latitude":"49.5916","longitude":"-119.5976"},{"name":"Nazko","latitude":"53.0","longitude":"-123.6167"},{"name":"Nelson","latitude":"49.5005","longitude":"-117.2864"},{"name":"New Aiyansh","latitude":"55.2042","longitude":"-129.0792"},{"name":"New Westminster","latitude":"49.2189","longitude":"-122.9011"},{"name":"North Delta","latitude":"49.1667","longitude":"-122.9167"},{"name":"North Saanich","latitude":"48.7015","longitude":"-123.45"},{"name":"North Vancouver","latitude":"49.3228","longitude":"-123.1189"},{"name":"Okanagan Falls","latitude":"49.35","longitude":"-119.5667"},{"name":"Oliver","latitude":"49.1833","longitude":"-119.55"},{"name":"Osoyoos","latitude":"49.0333","longitude":"-119.4667"},{"name":"Panorama","latitude":"50.4687","longitude":"-116.2226"},{"name":"Parksville","latitude":"49.4833","longitude":"-124.35"},{"name":"Peachland","latitude":"49.7667","longitude":"-119.75"},{"name":"Pemberton","latitude":"50.3123","longitude":"-122.8059"},{"name":"Pender Island","latitude":"48.7785","longitude":"-123.2729"},{"name":"Penticton","latitude":"49.4817","longitude":"-119.5818"},{"name":"Pinantan Lake","latitude":"50.7167","longitude":"-120.0333"},{"name":"Pitt Meadows","latitude":"49.2245","longitude":"-122.691"},{"name":"Port Alberni","latitude":"49.2403","longitude":"-124.8026"},{"name":"Port Alice","latitude":"50.3833","longitude":"-127.4333"},{"name":"Port Clements","latitude":"53.685","longitude":"-132.1762"},{"name":"Port Coquitlam","latitude":"49.2489","longitude":"-122.7954"},{"name":"Port Hardy","latitude":"50.7167","longitude":"-127.5"},{"name":"Port McNeill","latitude":"50.5833","longitude":"-127.1"},{"name":"Port Moody","latitude":"49.3249","longitude":"-122.8628"},{"name":"Port Renfrew","latitude":"48.5546","longitude":"-124.397"},{"name":"Powell River","latitude":"50.0163","longitude":"-124.3226"},{"name":"Prince George","latitude":"53.9127","longitude":"-122.8708"},{"name":"Prince Rupert","latitude":"54.3161","longitude":"-130.3201"},{"name":"Princeton","latitude":"49.4546","longitude":"-120.507"},{"name":"Pritchard","latitude":"50.6833","longitude":"-119.8167"},{"name":"Qualicum Beach","latitude":"49.3517","longitude":"-124.4319"},{"name":"Queen Charlotte","latitude":"53.2563","longitude":"-132.0757"},{"name":"Quesnel","latitude":"52.9784","longitude":"-122.4931"},{"name":"Radium Hot Springs","latitude":"50.6167","longitude":"-116.1"},{"name":"Revelstoke","latitude":"51.0","longitude":"-118.1833"},{"name":"Richmond","latitude":"49.1689","longitude":"-123.1442"},{"name":"Riondel","latitude":"49.7667","longitude":"-116.85"},{"name":"Roberts Creek","latitude":"49.4167","longitude":"-123.6167"},{"name":"Robson","latitude":"49.3344","longitude":"-117.6914"},{"name":"Rock Creek","latitude":"49.0667","longitude":"-118.9833"},{"name":"Rose Prairie","latitude":"56.5167","longitude":"-120.7833"},{"name":"Rosedale","latitude":"49.2","longitude":"-121.74"},{"name":"Rossland","latitude":"49.0833","longitude":"-117.8167"},{"name":"Royston","latitude":"49.6501","longitude":"-124.9428"},{"name":"Saanich","latitude":"48.4518","longitude":"-123.4206"},{"name":"Saanichton","latitude":"48.5663","longitude":"-123.4193"},{"name":"Salmo","latitude":"49.2","longitude":"-117.2833"},{"name":"Salmon Arm","latitude":"50.7033","longitude":"-119.2683"},{"name":"Salt Spring Island","latitude":"48.8138","longitude":"-123.4973"},{"name":"Sandspit","latitude":"53.2391","longitude":"-131.8188"},{"name":"Saturna","latitude":"48.7902","longitude":"-123.1874"},{"name":"Savona","latitude":"50.75","longitude":"-120.85"},{"name":"Sayward","latitude":"50.35","longitude":"-125.9167"},{"name":"Sechelt","latitude":"49.4667","longitude":"-123.7667"},{"name":"Shawnigan Lake","latitude":"48.6504","longitude":"-123.6145"},{"name":"Sicamous","latitude":"50.8333","longitude":"-119.0"},{"name":"Sidney","latitude":"48.6486","longitude":"-123.4044"},{"name":"Silverton","latitude":"49.9526","longitude":"-117.3605"},{"name":"Skidegate","latitude":"53.2502","longitude":"-132.0046"},{"name":"Skookumchuck","latitude":"49.9","longitude":"-115.7667"},{"name":"Slocan Park","latitude":"49.5167","longitude":"-117.6167"},{"name":"Smithers","latitude":"54.7684","longitude":"-127.1673"},{"name":"Sointula","latitude":"50.6333","longitude":"-127.0167"},{"name":"Sooke","latitude":"48.3717","longitude":"-123.7248"},{"name":"Sorrento","latitude":"50.8667","longitude":"-119.4667"},{"name":"Sparwood","latitude":"49.7333","longitude":"-114.8853"},{"name":"Squamish","latitude":"49.6979","longitude":"-123.1552"},{"name":"Stewart","latitude":"55.9333","longitude":"-130.0"},{"name":"Summerland","latitude":"49.5961","longitude":"-119.6746"},{"name":"Surrey","latitude":"49.1372","longitude":"-122.8248"},{"name":"Tahsis","latitude":"49.9167","longitude":"-126.6667"},{"name":"Takla Landing","latitude":"55.4833","longitude":"-125.9833"},{"name":"Tappen","latitude":"50.7833","longitude":"-119.3333"},{"name":"Tatla Lake","latitude":"51.8997","longitude":"-124.6032"},{"name":"Taylor","latitude":"56.15","longitude":"-120.6667"},{"name":"Telkwa","latitude":"54.697","longitude":"-127.0535"},{"name":"Terrace","latitude":"54.5154","longitude":"-128.6042"},{"name":"Thetis Island","latitude":"48.9802","longitude":"-123.6828"},{"name":"Tlell","latitude":"53.5649","longitude":"-131.9253"},{"name":"Tofino","latitude":"49.1304","longitude":"-125.9079"},{"name":"Topley","latitude":"54.5183","longitude":"-126.301"},{"name":"Topley Landing","latitude":"54.8031","longitude":"-126.1287"},{"name":"Trail","latitude":"49.0982","longitude":"-117.7057"},{"name":"Tsawwassen","latitude":"49.0167","longitude":"-123.0788"},{"name":"Tumbler Ridge","latitude":"55.1303","longitude":"-120.9942"},{"name":"Ucluelet","latitude":"48.9333","longitude":"-125.5167"},{"name":"Valemount","latitude":"52.8333","longitude":"-119.25"},{"name":"Van Anda","latitude":"49.7587","longitude":"-124.5575"},{"name":"Vancouver","latitude":"49.2884","longitude":"-123.1146"},{"name":"Vanderhoof","latitude":"54.0204","longitude":"-124.0181"},{"name":"Vernon","latitude":"50.084","longitude":"-118.938"},{"name":"Victoria","latitude":"48.4583","longitude":"-123.3325"},{"name":"Ware","latitude":"57.4167","longitude":"-125.6167"},{"name":"West Kelowna","latitude":"49.8625","longitude":"-119.5833"},{"name":"Westbank","latitude":"49.866","longitude":"-119.7387"},{"name":"Westbridge","latitude":"49.1665","longitude":"-118.969"},{"name":"Whistler","latitude":"50.1182","longitude":"-122.954"},{"name":"White Rock","latitude":"49.0278","longitude":"-122.803"},{"name":"Williams Lake","latitude":"52.1415","longitude":"-122.1445"},{"name":"Winlaw","latitude":"49.6107","longitude":"-117.5635"},{"name":"Woss","latitude":"50.2167","longitude":"-126.6"},{"name":"Wynndel","latitude":"49.18","longitude":"-116.5525"},{"name":"Zeballos","latitude":"49.9833","longitude":"-126.85"}]},{"name":"Manitoba","code":"MB","cities":[{"name":"Alexander","latitude":"49.8175","longitude":"-100.2999"},{"name":"Altona","latitude":"49.1","longitude":"-97.5667"},{"name":"Amaranth","latitude":"50.6","longitude":"-98.7333"},{"name":"Arborg","latitude":"50.8968","longitude":"-97.218"},{"name":"Ashern","latitude":"51.1833","longitude":"-98.3333"},{"name":"Ashville","latitude":"51.1675","longitude":"-100.2808"},{"name":"Austin","latitude":"49.95","longitude":"-98.9333"},{"name":"Beausejour","latitude":"50.0667","longitude":"-96.5167"},{"name":"Bellsite","latitude":"52.6167","longitude":"-100.7333"},{"name":"Binscarth","latitude":"50.6167","longitude":"-101.2833"},{"name":"Birtle","latitude":"50.4333","longitude":"-101.05"},{"name":"Blumenort","latitude":"49.6012","longitude":"-96.6922"},{"name":"Boissevain","latitude":"49.2333","longitude":"-100.05"},{"name":"Bowsman","latitude":"52.2358","longitude":"-101.2081"},{"name":"Brandon","latitude":"49.842","longitude":"-99.9831"},{"name":"Brunkild","latitude":"49.5928","longitude":"-97.5751"},{"name":"Camp Morton","latitude":"50.7169","longitude":"-96.9836"},{"name":"Camperville","latitude":"52.0097","longitude":"-100.2849"},{"name":"Carberry","latitude":"49.8667","longitude":"-99.35"},{"name":"Carman","latitude":"49.5","longitude":"-98.0"},{"name":"Cartwright","latitude":"49.0833","longitude":"-99.3333"},{"name":"Churchill","latitude":"58.7667","longitude":"-94.1667"},{"name":"Clandeboye","latitude":"50.2488","longitude":"-96.9664"},{"name":"Cooks Creek","latitude":"50.0208","longitude":"-96.7755"},{"name":"Cranberry Portage","latitude":"54.5833","longitude":"-101.3833"},{"name":"Cross Lake","latitude":"54.6167","longitude":"-97.7833"},{"name":"Crystal City","latitude":"49.1333","longitude":"-98.95"},{"name":"Dauphin","latitude":"51.1538","longitude":"-100.0541"},{"name":"Deloraine","latitude":"49.1833","longitude":"-100.5"},{"name":"Dominion City","latitude":"49.1333","longitude":"-97.15"},{"name":"Dufresne","latitude":"49.7167","longitude":"-96.7333"},{"name":"Dugald","latitude":"49.8861","longitude":"-96.8387"},{"name":"Ebb and Flow","latitude":"51.0381","longitude":"-99.0686"},{"name":"Elie","latitude":"49.9045","longitude":"-97.7614"},{"name":"Elkhorn","latitude":"49.9666","longitude":"-101.2514"},{"name":"Elm Creek","latitude":"49.6667","longitude":"-98.0"},{"name":"Erickson","latitude":"50.4981","longitude":"-99.9122"},{"name":"Ethelbert","latitude":"51.5167","longitude":"-100.4"},{"name":"Fisher Branch","latitude":"51.0831","longitude":"-97.6207"},{"name":"Flin Flon","latitude":"54.7682","longitude":"-101.865"},{"name":"Gilbert Plains","latitude":"51.1344","longitude":"-100.4792"},{"name":"Gillam","latitude":"56.35","longitude":"-94.7"},{"name":"Gimli","latitude":"50.6349","longitude":"-97.0116"},{"name":"Gladstone","latitude":"50.2333","longitude":"-98.95"},{"name":"Glenboro","latitude":"49.55","longitude":"-99.2833"},{"name":"Grand Rapids","latitude":"53.1667","longitude":"-99.2833"},{"name":"Grande Pointe","latitude":"49.7667","longitude":"-97.0506"},{"name":"Grandview","latitude":"51.1742","longitude":"-100.6987"},{"name":"Great Falls","latitude":"50.45","longitude":"-96.0167"},{"name":"Griswold","latitude":"49.7667","longitude":"-100.4667"},{"name":"Grunthal","latitude":"49.4067","longitude":"-96.8587"},{"name":"Hamiota","latitude":"50.1833","longitude":"-100.6"},{"name":"Hartney","latitude":"49.4833","longitude":"-100.5167"},{"name":"Headingley","latitude":"49.8753","longitude":"-97.409"},{"name":"Hodgson","latitude":"51.2","longitude":"-97.5667"},{"name":"Ile des Chenes","latitude":"49.7106","longitude":"-96.9889"},{"name":"Killarney","latitude":"49.1833","longitude":"-99.6667"},{"name":"La Broquerie","latitude":"49.5169","longitude":"-96.5003"},{"name":"La Salle","latitude":"49.6833","longitude":"-97.2667"},{"name":"Lac du Bonnet","latitude":"50.268","longitude":"-96.0522"},{"name":"Landmark","latitude":"49.6696","longitude":"-96.8193"},{"name":"Lockport","latitude":"50.0831","longitude":"-96.945"},{"name":"Lorette","latitude":"49.7392","longitude":"-96.8723"},{"name":"Lynn Lake","latitude":"56.85","longitude":"-101.0573"},{"name":"Manitou","latitude":"49.2333","longitude":"-98.5333"},{"name":"Marchand","latitude":"49.4333","longitude":"-96.3833"},{"name":"Matawak","latitude":"54.6667","longitude":"-94.1333"},{"name":"Melita","latitude":"49.2667","longitude":"-100.9833"},{"name":"Miniota","latitude":"50.1331","longitude":"-101.0397"},{"name":"Minitonas","latitude":"52.0833","longitude":"-101.05"},{"name":"Minnedosa","latitude":"50.2491","longitude":"-99.8358"},{"name":"Minto","latitude":"49.4017","longitude":"-100.012"},{"name":"Moose Lake","latitude":"53.701","longitude":"-100.2994"},{"name":"Morden","latitude":"49.1919","longitude":"-98.1014"},{"name":"Morris","latitude":"49.35","longitude":"-97.3667"},{"name":"Narol","latitude":"50.055","longitude":"-96.9781"},{"name":"New Bothwell","latitude":"49.5848","longitude":"-96.8981"},{"name":"Newdale","latitude":"50.3467","longitude":"-100.2006"},{"name":"Niverville","latitude":"49.6056","longitude":"-97.0423"},{"name":"Norway House","latitude":"53.9667","longitude":"-97.8333"},{"name":"Notre Dame de Lourdes","latitude":"49.5333","longitude":"-98.55"},{"name":"Oak Bluff","latitude":"49.7736","longitude":"-97.3221"},{"name":"Oak Lake","latitude":"49.7667","longitude":"-100.6333"},{"name":"Oakbank","latitude":"49.9436","longitude":"-96.8434"},{"name":"Oakburn","latitude":"50.5667","longitude":"-100.5833"},{"name":"Onanole","latitude":"50.6225","longitude":"-99.9689"},{"name":"Otterburne","latitude":"49.5","longitude":"-97.05"},{"name":"Peguis","latitude":"50.2222","longitude":"-96.8387"},{"name":"Petersfield","latitude":"50.3044","longitude":"-96.9692"},{"name":"Pilot Mound","latitude":"49.2","longitude":"-98.9"},{"name":"Pinawa","latitude":"50.15","longitude":"-95.8833"},{"name":"Pine Falls","latitude":"50.55","longitude":"-96.2333"},{"name":"Pipestone","latitude":"49.55","longitude":"-100.95"},{"name":"Plum Coulee","latitude":"49.1864","longitude":"-97.763"},{"name":"Plumas","latitude":"50.382","longitude":"-99.0829"},{"name":"Portage la Prairie","latitude":"49.9728","longitude":"-98.2926"},{"name":"Powerview","latitude":"50.5661","longitude":"-96.1987"},{"name":"Reston","latitude":"49.55","longitude":"-101.0833"},{"name":"Richer","latitude":"49.65","longitude":"-96.45"},{"name":"Rivers","latitude":"50.0333","longitude":"-100.2167"},{"name":"Riverton","latitude":"51.0","longitude":"-97.0"},{"name":"Roblin","latitude":"51.2333","longitude":"-101.35"},{"name":"Roland","latitude":"49.3667","longitude":"-97.95"},{"name":"Rosenfeld","latitude":"49.2026","longitude":"-97.5542"},{"name":"Rosenort","latitude":"49.4586","longitude":"-97.4349"},{"name":"Rossburn","latitude":"50.6667","longitude":"-100.8167"},{"name":"Rosser","latitude":"49.9906","longitude":"-97.4526"},{"name":"Russell","latitude":"50.7833","longitude":"-101.2833"},{"name":"Sandy Lake","latitude":"50.5864","longitude":"-100.1325"},{"name":"Sanford","latitude":"49.6825","longitude":"-97.4449"},{"name":"Selkirk","latitude":"50.1436","longitude":"-96.8845"},{"name":"Shamattawa","latitude":"55.8481","longitude":"-92.0897"},{"name":"Shilo","latitude":"49.8051","longitude":"-99.6317"},{"name":"Shoal Lake","latitude":"50.4333","longitude":"-100.5833"},{"name":"Snow Lake","latitude":"54.8773","longitude":"-100.0251"},{"name":"Souris","latitude":"49.6167","longitude":"-100.25"},{"name":"Split Lake","latitude":"56.25","longitude":"-96.1"},{"name":"St-Lazare","latitude":"50.4534","longitude":"-101.299"},{"name":"St-Pierre-Jolys","latitude":"49.4373","longitude":"-96.9817"},{"name":"St. Adolphe","latitude":"49.712","longitude":"-97.0836"},{"name":"St. Francois Xavier","latitude":"49.9356","longitude":"-97.5589"},{"name":"St. Laurent","latitude":"50.4136","longitude":"-97.9443"},{"name":"St. Theresa Point","latitude":"53.9667","longitude":"-94.7667"},{"name":"Ste. Anne","latitude":"49.6697","longitude":"-96.65"},{"name":"Ste. Rose du Lac","latitude":"51.0594","longitude":"-99.5241"},{"name":"Steinbach","latitude":"49.5291","longitude":"-96.6852"},{"name":"Stonewall","latitude":"50.1333","longitude":"-97.3167"},{"name":"Stony Mountain","latitude":"50.0667","longitude":"-97.2167"},{"name":"Tadoule Lake","latitude":"58.7141","longitude":"-98.4829"},{"name":"Teulon","latitude":"50.3833","longitude":"-97.2667"},{"name":"The Pas","latitude":"53.704","longitude":"-101.2933"},{"name":"Thompson","latitude":"55.7435","longitude":"-97.8558"},{"name":"Treherne","latitude":"49.6333","longitude":"-98.7"},{"name":"Tyndall","latitude":"50.0833","longitude":"-96.6667"},{"name":"Virden","latitude":"49.711","longitude":"-100.9263"},{"name":"Vita","latitude":"49.1339","longitude":"-96.562"},{"name":"Wapawsik","latitude":"55.8","longitude":"-98.85"},{"name":"Wawanesa","latitude":"49.5167","longitude":"-99.6833"},{"name":"West Hawk Lake","latitude":"49.7329","longitude":"-95.2016"},{"name":"Winkler","latitude":"49.1788","longitude":"-97.9404"},{"name":"Winnipeg","latitude":"49.7834","longitude":"-97.1036"},{"name":"Winnipeg Beach","latitude":"50.4997","longitude":"-96.9754"},{"name":"Winnipegosis","latitude":"51.65","longitude":"-99.9167"},{"name":"Woodlands","latitude":"50.2","longitude":"-97.6667"},{"name":"Woodmore","latitude":"49.1381","longitude":"-96.8896"},{"name":"Woodridge","latitude":"49.2833","longitude":"-96.15"}]},{"name":"New Brunswick","code":"NB","cities":[{"name":"Alainville","latitude":"47.2299","longitude":"-65.2692"},{"name":"Apohaqui","latitude":"45.7599","longitude":"-65.6704"},{"name":"Arthurette","latitude":"46.7876","longitude":"-67.4979"},{"name":"Balmoral","latitude":"47.679","longitude":"-66.4342"},{"name":"Barnettville","latitude":"46.7653","longitude":"-65.8055"},{"name":"Bas-Caraquet","latitude":"47.7953","longitude":"-64.8393"},{"name":"Bath","latitude":"46.5807","longitude":"-67.5911"},{"name":"Bathurst","latitude":"47.6164","longitude":"-65.6544"},{"name":"Bayside","latitude":"46.059","longitude":"-64.0242"},{"name":"Beaver Dam","latitude":"45.7891","longitude":"-66.6952"},{"name":"Beechwood","latitude":"46.5399","longitude":"-67.6607"},{"name":"Belledune","latitude":"47.8023","longitude":"-66.1243"},{"name":"Belleisle Creek","latitude":"45.719","longitude":"-65.7506"},{"name":"Beresford","latitude":"47.6913","longitude":"-65.6989"},{"name":"Berry Mills","latitude":"46.1169","longitude":"-64.9492"},{"name":"Bertrand","latitude":"47.7584","longitude":"-65.071"},{"name":"Blackville","latitude":"46.7398","longitude":"-65.8319"},{"name":"Boom Road","latitude":"46.9538","longitude":"-65.7813"},{"name":"Bouctouche","latitude":"46.4692","longitude":"-64.7448"},{"name":"Bouctouche Sud","latitude":"46.4444","longitude":"-64.6843"},{"name":"Boundary Creek","latitude":"46.0502","longitude":"-64.9973"},{"name":"Brantville","latitude":"47.3536","longitude":"-65.0515"},{"name":"Burnt Church","latitude":"47.1982","longitude":"-65.1443"},{"name":"Burton","latitude":"45.8615","longitude":"-66.4485"},{"name":"Campbellton","latitude":"48.0109","longitude":"-66.6755"},{"name":"Cap-Pele","latitude":"46.2129","longitude":"-64.2784"},{"name":"Caraquet","latitude":"47.7941","longitude":"-64.9386"},{"name":"Chamberlain Settlement","latitude":"47.5719","longitude":"-65.6287"},{"name":"Chaplin Island Road","latitude":"47.0704","longitude":"-65.6795"},{"name":"Charters Settlement","latitude":"45.8438","longitude":"-66.7411"},{"name":"Clifton Royal","latitude":"45.4495","longitude":"-66.0023"},{"name":"Cocagne","latitude":"46.3324","longitude":"-64.6187"},{"name":"Connors","latitude":"47.2117","longitude":"-68.83"},{"name":"Crombie Settlement","latitude":"46.9431","longitude":"-67.4948"},{"name":"Cumberland Bay","latitude":"45.9817","longitude":"-65.8711"},{"name":"Dalhousie","latitude":"48.0532","longitude":"-66.3874"},{"name":"Darlings Island","latitude":"45.5112","longitude":"-65.8724"},{"name":"Dieppe","latitude":"46.098","longitude":"-64.7506"},{"name":"Doaktown","latitude":"46.557","longitude":"-66.1257"},{"name":"Drummond","latitude":"47.0355","longitude":"-67.6826"},{"name":"Durham Bridge","latitude":"46.1168","longitude":"-66.5989"},{"name":"East Centreville","latitude":"46.3982","longitude":"-67.7174"},{"name":"East Coldstream","latitude":"46.4078","longitude":"-67.4449"},{"name":"East Knowlesville","latitude":"46.4588","longitude":"-67.3754"},{"name":"Edmundston","latitude":"47.6583","longitude":"-68.0684"},{"name":"Elgin","latitude":"45.7966","longitude":"-65.111"},{"name":"Escuminac","latitude":"47.0786","longitude":"-64.9113"},{"name":"Fairisle","latitude":"47.2728","longitude":"-65.1323"},{"name":"Florenceville-Bristol","latitude":"46.4435","longitude":"-67.6154"},{"name":"Fredericton","latitude":"45.902","longitude":"-66.7057"},{"name":"Glenvale","latitude":"45.9426","longitude":"-65.2287"},{"name":"Grafton","latitude":"46.1474","longitude":"-67.5637"},{"name":"Grand Bayâ€“Westfield","latitude":"45.3407","longitude":"-66.2528"},{"name":"Grand Falls","latitude":"47.1683","longitude":"-67.6207"},{"name":"Grand Lake Road","latitude":"46.5333","longitude":"-66.1004"},{"name":"Grand Manan","latitude":"44.6976","longitude":"-66.8065"},{"name":"Grande-Digue","latitude":"46.3001","longitude":"-64.5655"},{"name":"Hampton","latitude":"45.5342","longitude":"-65.8552"},{"name":"Hartland","latitude":"46.2999","longitude":"-67.5167"},{"name":"Hatfield Point","latitude":"45.6507","longitude":"-65.8598"},{"name":"Havelock","latitude":"45.9976","longitude":"-65.3086"},{"name":"Head of Millstream","latitude":"45.8894","longitude":"-65.5275"},{"name":"Hillsborough","latitude":"45.9212","longitude":"-64.6562"},{"name":"Holmesville","latitude":"46.5417","longitude":"-67.5828"},{"name":"Hoyt","latitude":"45.5864","longitude":"-66.5532"},{"name":"Inkerman","latitude":"47.6824","longitude":"-64.8162"},{"name":"Irishtown","latitude":"46.1879","longitude":"-64.7921"},{"name":"Jacksonville","latitude":"46.1998","longitude":"-67.616"},{"name":"Kedgwick","latitude":"47.6446","longitude":"-67.3434"},{"name":"Keswick Ridge","latitude":"46.0001","longitude":"-66.8822"},{"name":"Killarney Road","latitude":"46.0136","longitude":"-66.6307"},{"name":"Kingsclear","latitude":"45.8834","longitude":"-66.9156"},{"name":"Kingsley","latitude":"46.0554","longitude":"-66.7503"},{"name":"Lameque","latitude":"47.8266","longitude":"-64.6827"},{"name":"Laplante","latitude":"47.7666","longitude":"-65.7704"},{"name":"Le Goulet","latitude":"47.7057","longitude":"-64.7128"},{"name":"Lincoln","latitude":"45.9001","longitude":"-66.5822"},{"name":"Little Lepreau","latitude":"45.1343","longitude":"-66.457"},{"name":"Lorne","latitude":"47.869","longitude":"-66.1251"},{"name":"Lower Coverdale","latitude":"46.0407","longitude":"-64.7277"},{"name":"Lower Derby","latitude":"46.9299","longitude":"-65.6139"},{"name":"Lower Northampton","latitude":"46.0686","longitude":"-67.5549"},{"name":"Lower Queensbury","latitude":"45.888","longitude":"-66.967"},{"name":"Lyttleton","latitude":"46.9387","longitude":"-65.9114"},{"name":"Maces Bay","latitude":"45.0991","longitude":"-66.4707"},{"name":"Madran","latitude":"47.8163","longitude":"-65.7665"},{"name":"Mazerolle Settlement","latitude":"45.8794","longitude":"-66.8482"},{"name":"McAdam","latitude":"45.5923","longitude":"-67.307"},{"name":"McKees Mills","latitude":"46.4199","longitude":"-64.7256"},{"name":"McQuade","latitude":"46.2216","longitude":"-64.8289"},{"name":"Meductic","latitude":"45.9976","longitude":"-67.4914"},{"name":"Memramcook","latitude":"45.9016","longitude":"-64.508"},{"name":"Minto","latitude":"46.0848","longitude":"-66.0622"},{"name":"Miramichi","latitude":"46.9464","longitude":"-65.3251"},{"name":"Miscou Centre","latitude":"47.9427","longitude":"-64.5761"},{"name":"Mohannes","latitude":"45.1559","longitude":"-67.3482"},{"name":"Moncton","latitude":"46.0965","longitude":"-64.8007"},{"name":"Nackawic","latitude":"45.9987","longitude":"-67.2353"},{"name":"Nashwaak Bridge","latitude":"46.1955","longitude":"-66.6124"},{"name":"Nasonworth","latitude":"45.84","longitude":"-66.6762"},{"name":"Neguac","latitude":"47.2459","longitude":"-65.0698"},{"name":"Nerepis","latitude":"45.3412","longitude":"-66.3069"},{"name":"New Mills","latitude":"47.9734","longitude":"-66.1907"},{"name":"North Tetagouche","latitude":"47.6354","longitude":"-65.7586"},{"name":"Norton","latitude":"45.6508","longitude":"-65.7302"},{"name":"Notre-Dame","latitude":"46.3132","longitude":"-64.7342"},{"name":"Oak Bay","latitude":"45.1983","longitude":"-67.2319"},{"name":"Oromocto","latitude":"45.834","longitude":"-66.4808"},{"name":"Paquetville","latitude":"47.6383","longitude":"-65.1709"},{"name":"Pennfield","latitude":"45.1168","longitude":"-66.6822"},{"name":"Penniac","latitude":"45.9896","longitude":"-66.5788"},{"name":"Penobsquis","latitude":"45.7787","longitude":"-65.3854"},{"name":"Perth","latitude":"46.7363","longitude":"-67.7055"},{"name":"Perth-Andover","latitude":"46.7363","longitude":"-67.7055"},{"name":"Petitcodiac","latitude":"45.9394","longitude":"-65.1802"},{"name":"Plaster Rock","latitude":"46.9061","longitude":"-67.3937"},{"name":"Pointe-Sapin-Centre","latitude":"46.9695","longitude":"-64.8323"},{"name":"Pointe-Verte","latitude":"47.7941","longitude":"-65.8219"},{"name":"Pokemouche","latitude":"47.6683","longitude":"-64.8765"},{"name":"Port Elgin","latitude":"46.0919","longitude":"-64.0173"},{"name":"Prince of Wales","latitude":"45.1562","longitude":"-66.2936"},{"name":"Quarryville","latitude":"46.7803","longitude":"-65.7787"},{"name":"Quispamsis","latitude":"45.4558","longitude":"-65.9306"},{"name":"Ratter Corner","latitude":"45.6427","longitude":"-65.5928"},{"name":"Red Bank","latitude":"46.9394","longitude":"-65.8191"},{"name":"Rexton","latitude":"46.6434","longitude":"-64.8722"},{"name":"Richibucto","latitude":"46.6807","longitude":"-64.8804"},{"name":"Richibucto Road","latitude":"45.9476","longitude":"-66.6275"},{"name":"Riverview","latitude":"46.0506","longitude":"-64.8177"},{"name":"Rogersville","latitude":"46.7345","longitude":"-65.427"},{"name":"Rothesay","latitude":"45.3483","longitude":"-66.0014"},{"name":"Rowley","latitude":"45.3303","longitude":"-65.7576"},{"name":"Rusagonis","latitude":"45.8028","longitude":"-66.6204"},{"name":"Sackville","latitude":"45.9204","longitude":"-64.3744"},{"name":"Saint Andrews","latitude":"45.0845","longitude":"-67.0617"},{"name":"Saint John","latitude":"45.2347","longitude":"-66.1749"},{"name":"Saint-Antoine","latitude":"46.3629","longitude":"-64.7499"},{"name":"Saint-Jacques","latitude":"47.5655","longitude":"-68.3127"},{"name":"Saint-Louis de Kent","latitude":"46.6839","longitude":"-64.8693"},{"name":"Saint-LÃ©onard","latitude":"47.173","longitude":"-67.9247"},{"name":"Saint-Quentin","latitude":"47.51","longitude":"-67.4013"},{"name":"Salisbury","latitude":"46.0391","longitude":"-65.0463"},{"name":"Salt Springs","latitude":"45.5446","longitude":"-65.6514"},{"name":"Shediac","latitude":"46.2198","longitude":"-64.5411"},{"name":"Sheffield","latitude":"45.8833","longitude":"-66.3"},{"name":"Shippagan","latitude":"47.7287","longitude":"-64.7247"},{"name":"Smithtown","latitude":"45.4706","longitude":"-65.8057"},{"name":"South Esk","latitude":"46.9533","longitude":"-65.6843"},{"name":"South Tetagouche","latitude":"47.5994","longitude":"-65.8202"},{"name":"St. Stephen","latitude":"45.1804","longitude":"-67.2953"},{"name":"Strathadam","latitude":"46.9672","longitude":"-65.6678"},{"name":"Sussex","latitude":"45.7239","longitude":"-65.5042"},{"name":"Sussex Corner","latitude":"45.7102","longitude":"-65.4833"},{"name":"Tabusintac","latitude":"47.3304","longitude":"-65.007"},{"name":"Temperance Vale","latitude":"46.0088","longitude":"-67.2512"},{"name":"Tide Head","latitude":"47.9881","longitude":"-66.7776"},{"name":"Tobique Narrows","latitude":"46.7936","longitude":"-67.6854"},{"name":"Tracadieâ€“Sheila","latitude":"47.5144","longitude":"-64.9181"},{"name":"Tremblay","latitude":"47.7479","longitude":"-65.7578"},{"name":"Upper Coverdale","latitude":"46.0492","longitude":"-64.9637"},{"name":"Upper Golden Grove","latitude":"45.3891","longitude":"-65.8941"},{"name":"Upper Tracy","latitude":"45.6708","longitude":"-66.7208"},{"name":"Victoria Corner","latitude":"46.2745","longitude":"-67.5065"},{"name":"Waasis","latitude":"45.829","longitude":"-66.5787"},{"name":"Wards Creek","latitude":"45.6809","longitude":"-65.5114"},{"name":"Welshpool","latitude":"44.8846","longitude":"-66.9552"},{"name":"West Collette","latitude":"46.7799","longitude":"-65.4578"},{"name":"Whites Cove","latitude":"45.8632","longitude":"-66.0595"},{"name":"Wicklow","latitude":"46.4832","longitude":"-67.6"},{"name":"Willow Grove","latitude":"45.3366","longitude":"-65.8138"},{"name":"Wilsons Beach","latitude":"44.9331","longitude":"-66.934"},{"name":"Woodstock","latitude":"46.158","longitude":"-67.5838"},{"name":"Yoho","latitude":"45.7926","longitude":"-66.8679"},{"name":"Zealand","latitude":"46.018","longitude":"-66.9417"}]},{"name":"Newfoundland and Labrador","code":"NL","cities":[{"name":"Anchor Point","latitude":"51.2304","longitude":"-56.8021"},{"name":"Argentia","latitude":"47.2833","longitude":"-53.8833"},{"name":"Avondale","latitude":"47.4166","longitude":"-53.1981"},{"name":"Badger","latitude":"48.9656","longitude":"-56.0275"},{"name":"Baie Verte","latitude":"49.9167","longitude":"-56.1833"},{"name":"Bay Bulls","latitude":"47.3333","longitude":"-52.8333"},{"name":"Bay Roberts","latitude":"47.59","longitude":"-53.2968"},{"name":"Bay de Verde","latitude":"48.0667","longitude":"-52.9333"},{"name":"Bell Island","latitude":"47.65","longitude":"-52.9333"},{"name":"Bellevue","latitude":"47.6328","longitude":"-53.7513"},{"name":"Birchy Bay","latitude":"49.3333","longitude":"-54.7333"},{"name":"Bishop's Falls","latitude":"49.0167","longitude":"-55.5167"},{"name":"Blaketown","latitude":"47.4832","longitude":"-53.5648"},{"name":"Bloomfield","latitude":"48.3843","longitude":"-53.9081"},{"name":"Bonne Bay","latitude":"49.5","longitude":"-57.9333"},{"name":"Botwood","latitude":"49.15","longitude":"-55.3667"},{"name":"Brig Bay","latitude":"51.05","longitude":"-56.9167"},{"name":"Buchans","latitude":"48.8167","longitude":"-56.8667"},{"name":"Buchans Junction","latitude":"48.85","longitude":"-56.4667"},{"name":"Burgeo","latitude":"47.6","longitude":"-57.6333"},{"name":"Burgoynes Cove","latitude":"48.1646","longitude":"-53.7211"},{"name":"Carbonear","latitude":"47.7113","longitude":"-53.2953"},{"name":"Cartyville","latitude":"48.2359","longitude":"-58.8133"},{"name":"Centreville-Wareham-Trinity","latitude":"48.9832","longitude":"-53.9814"},{"name":"Change Islands","latitude":"49.65","longitude":"-54.3833"},{"name":"Channel-Port aux Basques","latitude":"47.5667","longitude":"-59.15"},{"name":"Charlottetown","latitude":"48.4333","longitude":"-54.0167"},{"name":"Clarenville","latitude":"48.1666","longitude":"-53.9648"},{"name":"Clarke's Beach","latitude":"47.5333","longitude":"-53.3"},{"name":"Colinet","latitude":"47.2167","longitude":"-53.5667"},{"name":"Colliers","latitude":"47.45","longitude":"-53.2333"},{"name":"Conception Bay South","latitude":"47.4999","longitude":"-52.9981"},{"name":"Conception Harbour","latitude":"47.4333","longitude":"-53.2167"},{"name":"Conche","latitude":"50.8966","longitude":"-55.9028"},{"name":"Corner Brook","latitude":"48.9171","longitude":"-57.7979"},{"name":"Deer Lake","latitude":"49.186","longitude":"-57.438"},{"name":"Dildo","latitude":"47.55","longitude":"-53.55"},{"name":"Embree","latitude":"49.3027","longitude":"-55.0426"},{"name":"Englee","latitude":"50.7333","longitude":"-56.1"},{"name":"Ferryland","latitude":"47.0167","longitude":"-52.9167"},{"name":"Fogo","latitude":"49.7","longitude":"-54.2833"},{"name":"Forteau","latitude":"51.47","longitude":"-56.9634"},{"name":"Fortune","latitude":"47.0667","longitude":"-55.8667"},{"name":"Gander","latitude":"48.9682","longitude":"-54.5906"},{"name":"Glenwood","latitude":"49.0","longitude":"-54.8833"},{"name":"Glovertown","latitude":"48.6667","longitude":"-54.05"},{"name":"Goulds","latitude":"47.419","longitude":"-52.799"},{"name":"Grand Bank","latitude":"47.1","longitude":"-55.7833"},{"name":"Grand Falls-Windsor","latitude":"48.9332","longitude":"-55.6649"},{"name":"Grand Le Pierre","latitude":"47.6832","longitude":"-54.7815"},{"name":"Green's Harbour","latitude":"47.6333","longitude":"-53.5"},{"name":"Hampden","latitude":"49.5333","longitude":"-56.8667"},{"name":"Hant's Harbour","latitude":"48.0166","longitude":"-53.2648"},{"name":"Happy Valley-Goose Bay","latitude":"53.3038","longitude":"-60.3258"},{"name":"Harbour Breton","latitude":"47.4833","longitude":"-55.8333"},{"name":"Harbour Grace","latitude":"47.6833","longitude":"-53.25"},{"name":"Harbour Main","latitude":"47.4366","longitude":"-53.1699"},{"name":"Hermitage","latitude":"47.55","longitude":"-55.9333"},{"name":"Holyrood","latitude":"47.3833","longitude":"-53.1333"},{"name":"Hopedale","latitude":"55.45","longitude":"-60.2167"},{"name":"Joe Batt's Arm-Barr'd Islands-Shoal Bay","latitude":"49.7333","longitude":"-54.1667"},{"name":"King's Point","latitude":"49.58","longitude":"-56.1803"},{"name":"Kippens","latitude":"48.5467","longitude":"-58.6353"},{"name":"La Poile","latitude":"47.8067","longitude":"-58.3899"},{"name":"La Scie","latitude":"49.9667","longitude":"-55.5833"},{"name":"Labrador City","latitude":"52.9517","longitude":"-66.9328"},{"name":"Lethbridge","latitude":"48.3695","longitude":"-53.8686"},{"name":"Lewisporte","latitude":"49.2331","longitude":"-55.0693"},{"name":"Little Bay East","latitude":"47.5607","longitude":"-54.7801"},{"name":"Little Burnt Bay","latitude":"49.3333","longitude":"-55.0833"},{"name":"Little St. Lawrence","latitude":"46.9","longitude":"-55.4"},{"name":"Long Harbour","latitude":"47.4333","longitude":"-53.8"},{"name":"Loon Bay","latitude":"49.2667","longitude":"-54.8333"},{"name":"Massey Drive","latitude":"48.9333","longitude":"-57.8984"},{"name":"Middle Arm","latitude":"49.7","longitude":"-56.15"},{"name":"Ming's Bight","latitude":"49.9833","longitude":"-56.0482"},{"name":"Mobile","latitude":"47.2167","longitude":"-52.8546"},{"name":"Morrisville","latitude":"47.8666","longitude":"-55.765"},{"name":"Mount Pearl","latitude":"47.5196","longitude":"-52.8117"},{"name":"Musgravetown","latitude":"48.4169","longitude":"-53.8875"},{"name":"Nain","latitude":"56.55","longitude":"-61.6833"},{"name":"New Harbour","latitude":"47.5833","longitude":"-53.55"},{"name":"Norris Arm","latitude":"49.0833","longitude":"-55.2667"},{"name":"North West River","latitude":"53.5333","longitude":"-60.15"},{"name":"Northern Arm","latitude":"49.1666","longitude":"-55.3815"},{"name":"Old Perlican","latitude":"48.0833","longitude":"-53.0167"},{"name":"Paradise Cove","latitude":"49.3667","longitude":"-55.3333"},{"name":"Pasadena","latitude":"48.9445","longitude":"-58.0645"},{"name":"Petty Harbour","latitude":"47.45","longitude":"-52.7167"},{"name":"Placentia","latitude":"47.2333","longitude":"-53.9667"},{"name":"Pool's Cove","latitude":"47.6836","longitude":"-55.4256"},{"name":"Port Hope Simpson","latitude":"52.5333","longitude":"-56.3"},{"name":"Port Rexton","latitude":"48.3843","longitude":"-53.9081"},{"name":"Port Saunders","latitude":"50.65","longitude":"-57.2667"},{"name":"Port au Choix","latitude":"50.7187","longitude":"-57.3674"},{"name":"Port au Port","latitude":"48.55","longitude":"-58.7333"},{"name":"Portugal Cove","latitude":"47.6207","longitude":"-52.8318"},{"name":"Raleigh","latitude":"51.55","longitude":"-55.7333"},{"name":"Ramea","latitude":"47.5167","longitude":"-57.4167"},{"name":"Roddickton","latitude":"50.85","longitude":"-56.1167"},{"name":"Salmon Cove","latitude":"47.7808","longitude":"-53.1628"},{"name":"Salt Harbour","latitude":"49.6167","longitude":"-54.5833"},{"name":"Southern Harbour","latitude":"47.7147","longitude":"-53.9604"},{"name":"Southport","latitude":"48.05","longitude":"-53.6333"},{"name":"Spaniard's Bay","latitude":"47.6167","longitude":"-53.3"},{"name":"Springdale","latitude":"49.5082","longitude":"-56.2678"},{"name":"St. Alban's","latitude":"47.8701","longitude":"-55.8461"},{"name":"St. Anthony","latitude":"51.3856","longitude":"-55.5974"},{"name":"St. Bernard's-Jacques Fontaine","latitude":"47.5333","longitude":"-54.9667"},{"name":"St. John's","latitude":"47.483","longitude":"-52.8415"},{"name":"St. Pauls","latitude":"49.8667","longitude":"-57.815"},{"name":"Stephenville","latitude":"48.55","longitude":"-58.5818"},{"name":"Stephenville Crossing","latitude":"48.5167","longitude":"-58.4167"},{"name":"Summerford","latitude":"49.4833","longitude":"-54.8333"},{"name":"Swift Current","latitude":"47.8833","longitude":"-54.25"},{"name":"Terrenceville","latitude":"47.6833","longitude":"-54.7167"},{"name":"Tilting","latitude":"49.6833","longitude":"-54.05"},{"name":"Tompkins","latitude":"47.85","longitude":"-59.15"},{"name":"Torbay","latitude":"47.6666","longitude":"-52.7313"},{"name":"Trinity","latitude":"48.3659","longitude":"-53.3816"},{"name":"Twillingate","latitude":"49.65","longitude":"-54.75"},{"name":"Upper Island Cove","latitude":"47.65","longitude":"-53.2167"},{"name":"Victoria","latitude":"47.7667","longitude":"-53.2167"},{"name":"Virgin Arm-Carter's Cove","latitude":"49.5667","longitude":"-54.85"},{"name":"Wabush","latitude":"52.9167","longitude":"-66.8667"},{"name":"Western Bay","latitude":"47.9012","longitude":"-53.0776"},{"name":"Whitbourne","latitude":"47.4167","longitude":"-53.5333"},{"name":"Witless Bay","latitude":"47.2833","longitude":"-52.8333"}]},{"name":"Northwest Territories","code":"NT","cities":[{"name":"Aklavik","latitude":"68.2167","longitude":"-135.0"},{"name":"BehchokÇ«Ì€","latitude":"62.8025","longitude":"-116.0464"},{"name":"Colville Lake","latitude":"67.0333","longitude":"-126.1167"},{"name":"Fort Providence","latitude":"61.3667","longitude":"-117.65"},{"name":"Fort Simpson","latitude":"61.85","longitude":"-121.3333"},{"name":"Fort Smith","latitude":"60.0","longitude":"-111.8833"},{"name":"GamÃ¨ti","latitude":"64.112","longitude":"-117.353"},{"name":"Hay River","latitude":"60.853","longitude":"-115.6943"},{"name":"Inuvik","latitude":"68.35","longitude":"-133.7"},{"name":"Norman Wells","latitude":"65.2833","longitude":"-126.85"},{"name":"Paulatuk","latitude":"69.3833","longitude":"-123.9833"},{"name":"Tuktoyaktuk","latitude":"69.45","longitude":"-133.0667"},{"name":"Ulukhaktok","latitude":"70.7364","longitude":"-117.7716"},{"name":"Yellowknife","latitude":"62.456","longitude":"-114.3525"}]},{"name":"Nova Scotia","code":"NS","cities":[{"name":"Admiral Rock","latitude":"45.1733","longitude":"-63.4046"},{"name":"Afton","latitude":"45.6125","longitude":"-61.6893"},{"name":"Alder Point","latitude":"46.2538","longitude":"-60.3566"},{"name":"Amherst","latitude":"45.8367","longitude":"-64.1879"},{"name":"Annapolis Royal","latitude":"44.7333","longitude":"-65.5167"},{"name":"Antigonish","latitude":"45.6168","longitude":"-61.9986"},{"name":"Arichat","latitude":"45.5411","longitude":"-60.9718"},{"name":"Arisaig","latitude":"45.7637","longitude":"-62.1653"},{"name":"Auburndale","latitude":"44.4013","longitude":"-64.5918"},{"name":"Aylesford","latitude":"44.9874","longitude":"-64.835"},{"name":"Baddeck","latitude":"46.0983","longitude":"-60.7467"},{"name":"Barrington","latitude":"43.5699","longitude":"-65.576"},{"name":"Barrington Passage","latitude":"43.5284","longitude":"-65.6113"},{"name":"Bass River","latitude":"45.374","longitude":"-63.7672"},{"name":"Bayside","latitude":"44.5276","longitude":"-63.8093"},{"name":"Beaver Bank","latitude":"44.8814","longitude":"-63.6798"},{"name":"Bedford","latitude":"44.7232","longitude":"-63.656"},{"name":"Beechville","latitude":"44.6089","longitude":"-63.6548"},{"name":"Berwick","latitude":"44.9988","longitude":"-64.7312"},{"name":"Bible Hill","latitude":"45.3668","longitude":"-63.282"},{"name":"Big Bras d'Or","latitude":"46.2904","longitude":"-60.47"},{"name":"Black Point","latitude":"44.6515","longitude":"-63.9814"},{"name":"Blockhouse","latitude":"44.4475","longitude":"-64.4129"},{"name":"Braeshore","latitude":"45.7085","longitude":"-62.6512"},{"name":"Bridgetown","latitude":"44.799","longitude":"-65.2961"},{"name":"Bridgeville","latitude":"45.4312","longitude":"-62.6097"},{"name":"Bridgewater","latitude":"44.3794","longitude":"-64.5197"},{"name":"Brookfield","latitude":"45.25","longitude":"-63.2833"},{"name":"Brookside","latitude":"44.554","longitude":"-63.7239"},{"name":"Caledonia","latitude":"44.3661","longitude":"-65.1075"},{"name":"Cambridge","latitude":"45.2","longitude":"-64.1167"},{"name":"Camperdown","latitude":"44.2667","longitude":"-64.6"},{"name":"Canning","latitude":"45.1171","longitude":"-64.4146"},{"name":"Carters Cove","latitude":"45.6913","longitude":"-60.8386"},{"name":"Central North River","latitude":"45.456","longitude":"-63.2126"},{"name":"Centreville","latitude":"44.5049","longitude":"-66.0427"},{"name":"Chelsea","latitude":"44.3706","longitude":"-64.752"},{"name":"Chester","latitude":"44.5032","longitude":"-64.2221"},{"name":"Chester Basin","latitude":"44.5295","longitude":"-64.2909"},{"name":"Cheticamp","latitude":"46.6495","longitude":"-61.0394"},{"name":"Christmas Island","latitude":"45.9743","longitude":"-60.7448"},{"name":"Church Point","latitude":"44.3002","longitude":"-66.1532"},{"name":"Clark's Harbour","latitude":"43.4493","longitude":"-65.6324"},{"name":"Cleveland","latitude":"45.6895","longitude":"-61.1981"},{"name":"Clyde River","latitude":"43.6366","longitude":"-65.4807"},{"name":"Coalburn","latitude":"45.5701","longitude":"-62.5892"},{"name":"Coldbrook","latitude":"45.0668","longitude":"-64.5821"},{"name":"Cole Harbour","latitude":"44.6724","longitude":"-63.4751"},{"name":"Cornwallis","latitude":"44.609","longitude":"-65.6467"},{"name":"Creignish","latitude":"45.7324","longitude":"-61.4644"},{"name":"D'Escousse","latitude":"45.6165","longitude":"-60.9178"},{"name":"Dartmouth","latitude":"44.6676","longitude":"-63.5487"},{"name":"Debert","latitude":"45.435","longitude":"-63.4667"},{"name":"Deep Brook","latitude":"44.6333","longitude":"-65.65"},{"name":"Digby","latitude":"44.5342","longitude":"-65.7783"},{"name":"Dingwall","latitude":"46.9","longitude":"-60.4667"},{"name":"Dominion","latitude":"46.217","longitude":"-60.0154"},{"name":"East Dover","latitude":"44.4965","longitude":"-63.8509"},{"name":"East Gore","latitude":"45.1138","longitude":"-63.6877"},{"name":"East Mountain","latitude":"45.4312","longitude":"-63.171"},{"name":"East Pennant","latitude":"44.4687","longitude":"-63.6345"},{"name":"East River Point","latitude":"44.5497","longitude":"-64.1444"},{"name":"Eastern Passage","latitude":"44.617","longitude":"-63.4871"},{"name":"Economy","latitude":"45.344","longitude":"-63.9024"},{"name":"Ellershouse","latitude":"44.9447","longitude":"-64.007"},{"name":"Elmsdale","latitude":"45.0209","longitude":"-63.5344"},{"name":"Enfield","latitude":"44.8748","longitude":"-63.4702"},{"name":"Eskasoni","latitude":"45.9328","longitude":"-60.6438"},{"name":"Eureka","latitude":"45.4972","longitude":"-62.69"},{"name":"Evanston","latitude":"45.6167","longitude":"-61.2333"},{"name":"Fall River","latitude":"44.8169","longitude":"-63.6154"},{"name":"Falmouth","latitude":"45.0001","longitude":"-64.1654"},{"name":"Fletchers Lake","latitude":"44.8364","longitude":"-63.6078"},{"name":"Fort Ellis","latitude":"45.1106","longitude":"-63.3204"},{"name":"Garlands Crossing","latitude":"44.9744","longitude":"-64.1097"},{"name":"Glace Bay","latitude":"46.197","longitude":"-59.957"},{"name":"Glen Haven","latitude":"44.6414","longitude":"-63.911"},{"name":"Glenholme","latitude":"45.3609","longitude":"-63.5174"},{"name":"Grafton","latitude":"45.0972","longitude":"-64.6898"},{"name":"Grand River","latitude":"45.6333","longitude":"-60.6667"},{"name":"Granville Ferry","latitude":"44.75","longitude":"-65.5167"},{"name":"Great Village","latitude":"45.4167","longitude":"-63.6"},{"name":"Greenwood","latitude":"44.9833","longitude":"-64.9"},{"name":"Guysborough","latitude":"45.405","longitude":"-61.4579"},{"name":"Halifax","latitude":"44.6533","longitude":"-63.6675"},{"name":"Hammonds Plains","latitude":"44.7339","longitude":"-63.7755"},{"name":"Hantsport","latitude":"45.0667","longitude":"-64.1833"},{"name":"Hatchet Lake","latitude":"44.57","longitude":"-63.7138"},{"name":"Havre Boucher","latitude":"45.6907","longitude":"-61.5039"},{"name":"Head of Chezzetcook","latitude":"44.7424","longitude":"-63.2485"},{"name":"Hebbs Cross","latitude":"44.3045","longitude":"-64.5639"},{"name":"Hebron","latitude":"43.8833","longitude":"-66.0833"},{"name":"Hilden","latitude":"45.2784","longitude":"-63.2657"},{"name":"Hillside Boularderie","latitude":"46.2416","longitude":"-60.3788"},{"name":"Hillsvale","latitude":"44.9511","longitude":"-63.8814"},{"name":"Hopewell","latitude":"45.4783","longitude":"-62.7022"},{"name":"Hubbards","latitude":"44.6333","longitude":"-64.05"},{"name":"Hubley","latitude":"44.6734","longitude":"-63.8222"},{"name":"Huntington","latitude":"45.9365","longitude":"-60.2986"},{"name":"Hunts Point","latitude":"43.9579","longitude":"-64.7575"},{"name":"Ingonish Beach","latitude":"46.636","longitude":"-60.405"},{"name":"Inverness","latitude":"46.2327","longitude":"-61.3047"},{"name":"Iron Mines","latitude":"45.9387","longitude":"-61.1495"},{"name":"Italy Cross","latitude":"44.25","longitude":"-64.55"},{"name":"Jeddore Oyster Ponds","latitude":"44.7748","longitude":"-63.0053"},{"name":"Jersey Cove","latitude":"46.3147","longitude":"-60.5459"},{"name":"Joggins","latitude":"45.6943","longitude":"-64.4449"},{"name":"Kennetcook","latitude":"45.1416","longitude":"-63.7034"},{"name":"Kentville","latitude":"45.0834","longitude":"-64.4988"},{"name":"Ketch Harbour","latitude":"44.4893","longitude":"-63.549"},{"name":"Kingston","latitude":"44.99","longitude":"-64.95"},{"name":"Lake Charlotte","latitude":"44.7678","longitude":"-62.9501"},{"name":"Lake Echo","latitude":"44.7076","longitude":"-63.3523"},{"name":"Lakeville","latitude":"45.0636","longitude":"-64.6053"},{"name":"Lantz","latitude":"45.0209","longitude":"-63.5344"},{"name":"Lapland","latitude":"44.2907","longitude":"-64.6775"},{"name":"Larrys River","latitude":"45.2373","longitude":"-61.3192"},{"name":"Lawrencetown","latitude":"44.7227","longitude":"-63.4223"},{"name":"Little River","latitude":"44.406","longitude":"-66.179"},{"name":"Liverpool","latitude":"44.0384","longitude":"-64.7184"},{"name":"Lockeport","latitude":"43.7002","longitude":"-65.1168"},{"name":"Londonderry","latitude":"45.4385","longitude":"-63.5846"},{"name":"Louisbourg","latitude":"45.9167","longitude":"-59.9833"},{"name":"Louisdale","latitude":"45.6069","longitude":"-61.0664"},{"name":"Lower Sackville","latitude":"44.7607","longitude":"-63.637"},{"name":"Lunenburg","latitude":"44.341","longitude":"-64.2938"},{"name":"Mabou","latitude":"46.0872","longitude":"-61.371"},{"name":"Maccan","latitude":"45.7268","longitude":"-64.2545"},{"name":"Mahone Bay","latitude":"44.41","longitude":"-64.3632"},{"name":"Margaree Centre","latitude":"46.3486","longitude":"-60.9933"},{"name":"Margaree Valley","latitude":"46.3807","longitude":"-60.984"},{"name":"Marion Bridge","latitude":"45.9668","longitude":"-60.2318"},{"name":"Martins Brook","latitude":"44.4097","longitude":"-64.3343"},{"name":"McCallum Settlement","latitude":"45.4611","longitude":"-63.2362"},{"name":"Merigomish","latitude":"45.6332","longitude":"-62.4293"},{"name":"Meteghan","latitude":"44.1597","longitude":"-66.1711"},{"name":"Micmac","latitude":"45.0959","longitude":"-63.4902"},{"name":"Middle Musquodoboit","latitude":"45.05","longitude":"-63.1333"},{"name":"Middle Sackville","latitude":"44.7764","longitude":"-63.696"},{"name":"Middle West Pubnico","latitude":"43.655","longitude":"-65.7966"},{"name":"Middleton","latitude":"44.95","longitude":"-65.2689"},{"name":"Middlewood","latitude":"44.1949","longitude":"-64.5617"},{"name":"Mill Creek","latitude":"45.7657","longitude":"-64.382"},{"name":"Mill Village","latitude":"44.1084","longitude":"-64.6438"},{"name":"Milton","latitude":"44.0622","longitude":"-64.7521"},{"name":"Mira Road","latitude":"46.1038","longitude":"-60.1607"},{"name":"Moser River","latitude":"44.9697","longitude":"-62.2565"},{"name":"Mount Uniacke","latitude":"44.8833","longitude":"-63.8333"},{"name":"Mulgrave","latitude":"45.6167","longitude":"-61.4"},{"name":"Mushaboom","latitude":"44.8537","longitude":"-62.5309"},{"name":"Musquodoboit Harbour","latitude":"44.7642","longitude":"-63.1049"},{"name":"Nappan","latitude":"45.7711","longitude":"-64.2443"},{"name":"Neils Harbour","latitude":"46.8086","longitude":"-60.3228"},{"name":"New Germany","latitude":"44.6003","longitude":"-64.7443"},{"name":"New Glasgow","latitude":"45.5834","longitude":"-62.6486"},{"name":"New Minas","latitude":"45.0691","longitude":"-64.4696"},{"name":"New Waterford","latitude":"46.2553","longitude":"-60.079"},{"name":"Nine Mile River","latitude":"45.0071","longitude":"-63.5496"},{"name":"North Alton","latitude":"45.0508","longitude":"-64.5232"},{"name":"North East Point","latitude":"43.5117","longitude":"-65.6136"},{"name":"North Sydney","latitude":"46.1169","longitude":"-60.3769"},{"name":"Northside East Bay","latitude":"46.0017","longitude":"-60.4405"},{"name":"Oakfield","latitude":"44.8979","longitude":"-63.5743"},{"name":"Onslow Mountain","latitude":"45.4535","longitude":"-63.3175"},{"name":"Orangedale","latitude":"45.9279","longitude":"-61.078"},{"name":"Overton","latitude":"43.841","longitude":"-66.143"},{"name":"Oxford","latitude":"45.7348","longitude":"-63.8637"},{"name":"Parrsboro","latitude":"45.3603","longitude":"-64.3192"},{"name":"Pictou","latitude":"45.6787","longitude":"-62.7137"},{"name":"Pine Grove","latitude":"45.0401","longitude":"-63.374"},{"name":"Port Hawkesbury","latitude":"45.6176","longitude":"-61.3492"},{"name":"Port Hood","latitude":"46.0234","longitude":"-61.52"},{"name":"Port Howe","latitude":"45.8513","longitude":"-63.7551"},{"name":"Port Morien","latitude":"46.1174","longitude":"-59.9144"},{"name":"Port Mouton","latitude":"43.9283","longitude":"-64.8511"},{"name":"Porters Lake","latitude":"44.7707","longitude":"-63.3377"},{"name":"Pubnico","latitude":"43.7027","longitude":"-65.7883"},{"name":"Pugwash","latitude":"45.8475","longitude":"-63.6609"},{"name":"Pugwash Junction","latitude":"45.7895","longitude":"-63.6282"},{"name":"Reserve Mines","latitude":"46.1845","longitude":"-60.0166"},{"name":"River Bourgeois","latitude":"45.631","longitude":"-60.9427"},{"name":"River Denys","latitude":"45.8352","longitude":"-61.1798"},{"name":"River John","latitude":"45.7543","longitude":"-63.069"},{"name":"River Ryan","latitude":"46.2233","longitude":"-60.0864"},{"name":"Riverport","latitude":"44.249","longitude":"-64.3138"},{"name":"Salt Springs","latitude":"45.5435","longitude":"-62.882"},{"name":"Sandy Cove","latitude":"44.4693","longitude":"-63.5575"},{"name":"Saulnierville","latitude":"44.2297","longitude":"-66.1694"},{"name":"Scotch Village","latitude":"45.0571","longitude":"-64.002"},{"name":"Scotsburn","latitude":"45.65","longitude":"-62.85"},{"name":"Seabright","latitude":"44.6146","longitude":"-63.9256"},{"name":"Shad Bay","latitude":"44.5229","longitude":"-63.7874"},{"name":"Shag Harbour","latitude":"43.4941","longitude":"-65.718"},{"name":"Shelburne","latitude":"44.0802","longitude":"-65.1175"},{"name":"Shubenacadie","latitude":"45.0546","longitude":"-63.3805"},{"name":"Shubenacadie East","latitude":"45.1013","longitude":"-63.3942"},{"name":"Somerset","latitude":"45.074","longitude":"-64.7495"},{"name":"South Alton","latitude":"44.9785","longitude":"-64.5374"},{"name":"South Maitland","latitude":"45.2237","longitude":"-63.4436"},{"name":"South Ohio","latitude":"43.9234","longitude":"-66.0691"},{"name":"South Waterville","latitude":"45.0299","longitude":"-64.6492"},{"name":"Springhill","latitude":"45.5354","longitude":"-64.0393"},{"name":"Springville","latitude":"45.452","longitude":"-62.6281"},{"name":"Stellarton","latitude":"45.5667","longitude":"-62.65"},{"name":"Stewiacke","latitude":"45.1334","longitude":"-63.3465"},{"name":"Stillwater Lake","latitude":"44.699","longitude":"-63.8352"},{"name":"Sydney","latitude":"46.1144","longitude":"-60.2186"},{"name":"Sydney Forks","latitude":"46.0604","longitude":"-60.3038"},{"name":"Sydney Mines","latitude":"46.2437","longitude":"-60.2313"},{"name":"Tangier","latitude":"44.7892","longitude":"-62.6446"},{"name":"Tantallon","latitude":"44.6386","longitude":"-63.8687"},{"name":"Tatamagouche","latitude":"45.7116","longitude":"-63.2926"},{"name":"Thorburn","latitude":"45.5647","longitude":"-62.5472"},{"name":"Timberlea","latitude":"44.6258","longitude":"-63.707"},{"name":"Torbrook West","latitude":"44.9068","longitude":"-64.9991"},{"name":"Tremont","latitude":"44.9501","longitude":"-64.936"},{"name":"Trenton","latitude":"45.6167","longitude":"-62.6167"},{"name":"Truro","latitude":"45.4093","longitude":"-63.2114"},{"name":"Truro Heights","latitude":"45.3474","longitude":"-63.315"},{"name":"Tusket","latitude":"43.8583","longitude":"-65.974"},{"name":"Tyndal Road","latitude":"45.8988","longitude":"-64.1131"},{"name":"Upper Brookside","latitude":"45.4136","longitude":"-63.2194"},{"name":"Upper Chelsea","latitude":"44.348","longitude":"-64.7606"},{"name":"Upper Kennetcook","latitude":"45.1674","longitude":"-63.6308"},{"name":"Upper North River","latitude":"45.489","longitude":"-63.2136"},{"name":"Upper Onslow","latitude":"45.3922","longitude":"-63.2909"},{"name":"Upper Port La Tour","latitude":"43.5122","longitude":"-65.4699"},{"name":"Upper Tantallon","latitude":"44.6878","longitude":"-63.8778"},{"name":"Upper Wedgeport","latitude":"43.7552","longitude":"-65.9888"},{"name":"Valley","latitude":"45.3525","longitude":"-63.167"},{"name":"Victoria Mines","latitude":"46.239","longitude":"-60.1776"},{"name":"Walton","latitude":"45.1831","longitude":"-63.9917"},{"name":"Waverley","latitude":"44.7599","longitude":"-63.5525"},{"name":"Wentworth","latitude":"45.6051","longitude":"-63.5637"},{"name":"West Arichat","latitude":"45.5127","longitude":"-61.0784"},{"name":"West Bay","latitude":"45.7317","longitude":"-61.1418"},{"name":"West Northfield","latitude":"44.4537","longitude":"-64.594"},{"name":"West St. Andrews","latitude":"45.0988","longitude":"-63.3019"},{"name":"Westville","latitude":"45.5579","longitude":"-62.7129"},{"name":"Whites Lake","latitude":"44.4972","longitude":"-63.7199"},{"name":"Whycocomagh","latitude":"45.995","longitude":"-61.1101"},{"name":"Williamswood","latitude":"44.5167","longitude":"-63.6416"},{"name":"Wilmot","latitude":"44.9567","longitude":"-65.0223"},{"name":"Windsor Junction","latitude":"45.0963","longitude":"-63.4701"},{"name":"Wolfville","latitude":"45.0834","longitude":"-64.3655"},{"name":"Woodburn","latitude":"45.6149","longitude":"-62.5193"},{"name":"Yarmouth","latitude":"43.8335","longitude":"-66.1156"}]},{"name":"Nunavut","code":"NU","cities":[{"name":"Arctic Bay","latitude":"73.0333","longitude":"-85.1667"},{"name":"Arviat","latitude":"61.1167","longitude":"-94.05"},{"name":"Baker Lake","latitude":"64.3167","longitude":"-96.0167"},{"name":"Cambridge Bay","latitude":"69.1167","longitude":"-105.0333"},{"name":"Cape Dorset","latitude":"64.2333","longitude":"-76.55"},{"name":"Chesterfield Inlet","latitude":"63.3333","longitude":"-90.7"},{"name":"Clyde River","latitude":"70.45","longitude":"-68.5667"},{"name":"Coral Harbour","latitude":"64.13","longitude":"-83.1614"},{"name":"Gjoa Haven","latitude":"68.6333","longitude":"-95.9167"},{"name":"Grise Fiord","latitude":"76.4167","longitude":"-82.95"},{"name":"Hall Beach","latitude":"68.7667","longitude":"-81.2"},{"name":"Igloolik","latitude":"69.4","longitude":"-81.8"},{"name":"Iqaluit","latitude":"63.7333","longitude":"-68.5"},{"name":"Kugaaruk","latitude":"68.5336","longitude":"-89.8075"},{"name":"Kugluktuk","latitude":"67.8333","longitude":"-115.0833"},{"name":"Naujaat","latitude":"66.5264","longitude":"-86.2509"},{"name":"Pond Inlet","latitude":"72.7","longitude":"-78.0"},{"name":"Qikiqtarjuaq","latitude":"67.55","longitude":"-64.0333"},{"name":"Rankin Inlet","latitude":"62.8167","longitude":"-92.0833"},{"name":"Taloyoak","latitude":"69.5333","longitude":"-93.5333"},{"name":"Whale Cove","latitude":"62.1833","longitude":"-92.6"}]},{"name":"Ontario","code":"ON","cities":[{"name":"Acton","latitude":"43.6297","longitude":"-80.0415"},{"name":"Ailsa Craig","latitude":"43.1528","longitude":"-81.5329"},{"name":"Ajax","latitude":"43.8386","longitude":"-79.023"},{"name":"Alexandria","latitude":"45.3132","longitude":"-74.6338"},{"name":"Alfred","latitude":"45.5616","longitude":"-74.8787"},{"name":"Allenford","latitude":"44.5333","longitude":"-81.1667"},{"name":"Alliston","latitude":"44.1492","longitude":"-79.8685"},{"name":"Alma","latitude":"43.7314","longitude":"-80.502"},{"name":"Almonte","latitude":"45.2283","longitude":"-76.1984"},{"name":"Alvinston","latitude":"42.8209","longitude":"-81.8659"},{"name":"Amherstview","latitude":"44.2224","longitude":"-76.65"},{"name":"Amhertsburg","latitude":"42.1168","longitude":"-83.0498"},{"name":"Ancaster","latitude":"43.1842","longitude":"-79.9904"},{"name":"Angling Lake","latitude":"53.8448","longitude":"-89.53"},{"name":"Angus","latitude":"44.3269","longitude":"-80.0333"},{"name":"Apple Hill","latitude":"45.2194","longitude":"-74.7646"},{"name":"Apsley","latitude":"44.75","longitude":"-78.0833"},{"name":"Ardendale","latitude":"44.7238","longitude":"-76.9179"},{"name":"Ariss","latitude":"43.5753","longitude":"-80.365"},{"name":"Arkona","latitude":"43.075","longitude":"-81.8337"},{"name":"Arnprior","latitude":"45.4334","longitude":"-76.3494"},{"name":"Arthur","latitude":"43.8359","longitude":"-80.5302"},{"name":"Arva","latitude":"43.05","longitude":"-81.2936"},{"name":"Ashton","latitude":"45.1599","longitude":"-76.032"},{"name":"Astorville","latitude":"46.1834","longitude":"-79.2829"},{"name":"Athens","latitude":"44.628","longitude":"-75.9489"},{"name":"Atikokan","latitude":"48.75","longitude":"-91.6167"},{"name":"Attawapiskat","latitude":"52.9167","longitude":"-82.4333"},{"name":"Atwood","latitude":"43.6688","longitude":"-81.0154"},{"name":"Auburn","latitude":"43.7697","longitude":"-81.5326"},{"name":"Aurora","latitude":"43.9982","longitude":"-79.4625"},{"name":"Avonmore","latitude":"45.1767","longitude":"-74.964"},{"name":"Aylmer","latitude":"42.767","longitude":"-80.9779"},{"name":"Ayr","latitude":"43.2833","longitude":"-80.45"},{"name":"Ayton","latitude":"44.055","longitude":"-80.9268"},{"name":"Azilda","latitude":"46.5501","longitude":"-81.0998"},{"name":"Baden","latitude":"43.4001","longitude":"-80.6497"},{"name":"Bala","latitude":"45.0167","longitude":"-79.6167"},{"name":"Baldwin","latitude":"44.2626","longitude":"-79.3423"},{"name":"Ballinafad","latitude":"43.696","longitude":"-80.0138"},{"name":"Baltimore","latitude":"44.0223","longitude":"-78.1483"},{"name":"Bancroft","latitude":"45.05","longitude":"-77.85"},{"name":"Barrhaven","latitude":"45.2749","longitude":"-75.7492"},{"name":"Barrie","latitude":"44.4006","longitude":"-79.6676"},{"name":"Barry's Bay","latitude":"45.4833","longitude":"-77.6833"},{"name":"Bath","latitude":"44.1829","longitude":"-76.7754"},{"name":"Battersea","latitude":"44.4278","longitude":"-76.3796"},{"name":"Bayfield","latitude":"43.5683","longitude":"-81.7031"},{"name":"Beachburg","latitude":"45.7333","longitude":"-76.85"},{"name":"Beamsville","latitude":"43.171","longitude":"-79.4767"},{"name":"Bear Island","latitude":"46.9722","longitude":"-80.0742"},{"name":"Bearskin Lake","latitude":"53.9333","longitude":"-90.9833"},{"name":"Beaverton","latitude":"44.4333","longitude":"-79.15"},{"name":"Beech Corners","latitude":"44.9645","longitude":"-76.9802"},{"name":"Beeton","latitude":"44.0793","longitude":"-79.7763"},{"name":"Belfountain","latitude":"43.7938","longitude":"-80.0115"},{"name":"Belle River","latitude":"42.1783","longitude":"-82.7715"},{"name":"Belleville","latitude":"44.1665","longitude":"-77.4037"},{"name":"Belmont","latitude":"42.8858","longitude":"-81.0878"},{"name":"Belwood","latitude":"43.7948","longitude":"-80.3229"},{"name":"Bethany","latitude":"44.1833","longitude":"-78.5667"},{"name":"Bewdley","latitude":"44.0838","longitude":"-78.3253"},{"name":"Big Trout Lake","latitude":"53.8173","longitude":"-89.6611"},{"name":"Binbrook","latitude":"43.122","longitude":"-79.805"},{"name":"Birch Island","latitude":"46.05","longitude":"-81.7833"},{"name":"Blackstock","latitude":"44.1001","longitude":"-78.8163"},{"name":"Blenheim","latitude":"42.3317","longitude":"-81.9926"},{"name":"Blind River","latitude":"46.5984","longitude":"-83.0385"},{"name":"Bloomfield","latitude":"43.9883","longitude":"-77.235"},{"name":"Bluewater","latitude":"43.5269","longitude":"-81.5179"},{"name":"Blyth","latitude":"43.7359","longitude":"-81.432"},{"name":"Bobcaygeon","latitude":"44.5316","longitude":"-78.549"},{"name":"Bolton","latitude":"43.8818","longitude":"-79.7385"},{"name":"Bond Head","latitude":"44.0879","longitude":"-79.6777"},{"name":"Bonfield","latitude":"46.2309","longitude":"-79.1469"},{"name":"Borden","latitude":"44.2833","longitude":"-79.9167"},{"name":"Bornholm","latitude":"43.5312","longitude":"-81.1446"},{"name":"Bourget","latitude":"45.4365","longitude":"-75.1575"},{"name":"Bowmanville","latitude":"43.9724","longitude":"-78.708"},{"name":"Box Alder","latitude":"48.6002","longitude":"-93.6823"},{"name":"Bracebridge","latitude":"45.0346","longitude":"-79.3146"},{"name":"Bradford","latitude":"44.1168","longitude":"-79.5663"},{"name":"Braeside","latitude":"45.4657","longitude":"-76.4066"},{"name":"Brampton","latitude":"43.6249","longitude":"-79.7876"},{"name":"Brant","latitude":"43.1334","longitude":"-80.3497"},{"name":"Brantford","latitude":"43.1684","longitude":"-80.268"},{"name":"Brechin","latitude":"44.55","longitude":"-79.1833"},{"name":"Breslau","latitude":"43.4668","longitude":"-80.4164"},{"name":"Bridgenorth","latitude":"44.3829","longitude":"-78.3849"},{"name":"Brier Hill","latitude":"44.5534","longitude":"-76.1193"},{"name":"Brighton","latitude":"44.0473","longitude":"-77.7473"},{"name":"Brockville","latitude":"44.5946","longitude":"-75.6824"},{"name":"Brodhagen","latitude":"43.5649","longitude":"-81.2108"},{"name":"Brooklin","latitude":"43.953","longitude":"-78.9577"},{"name":"Bruce Mines","latitude":"46.2833","longitude":"-83.7833"},{"name":"Brussels","latitude":"43.7502","longitude":"-81.252"},{"name":"Buckhorn","latitude":"44.55","longitude":"-78.3333"},{"name":"Burford","latitude":"43.1061","longitude":"-80.4289"},{"name":"Burgessville","latitude":"43.025","longitude":"-80.654"},{"name":"Burk's Falls","latitude":"45.6183","longitude":"-79.4123"},{"name":"Burlington","latitude":"43.3806","longitude":"-79.886"},{"name":"Caesarea","latitude":"44.1501","longitude":"-78.8329"},{"name":"Caistor Centre","latitude":"43.0707","longitude":"-79.6515"},{"name":"Caistorville","latitude":"43.0587","longitude":"-79.7135"},{"name":"Calabogie","latitude":"45.3044","longitude":"-76.7189"},{"name":"Caledon","latitude":"43.8753","longitude":"-79.8558"},{"name":"Caledon East","latitude":"43.8702","longitude":"-79.8651"},{"name":"Caledon Village","latitude":"43.8611","longitude":"-80.0006"},{"name":"Caledonia","latitude":"43.0668","longitude":"-79.9329"},{"name":"Callander","latitude":"46.2167","longitude":"-79.3667"},{"name":"Cambridge","latitude":"43.3592","longitude":"-80.3347"},{"name":"Cameron","latitude":"44.3258","longitude":"-78.0944"},{"name":"Camlachie","latitude":"43.0406","longitude":"-82.1667"},{"name":"Campbellcroft","latitude":"44.0667","longitude":"-78.3667"},{"name":"Campbellford","latitude":"44.3","longitude":"-77.8"},{"name":"Campbellville","latitude":"43.4834","longitude":"-79.983"},{"name":"Canfield","latitude":"42.9776","longitude":"-79.7444"},{"name":"Cannington","latitude":"44.35","longitude":"-79.0333"},{"name":"Capreol","latitude":"46.7259","longitude":"-81.0166"},{"name":"Cardinal","latitude":"44.793","longitude":"-75.3794"},{"name":"Cargill","latitude":"44.2","longitude":"-81.2333"},{"name":"Carleton Place","latitude":"45.1334","longitude":"-76.1494"},{"name":"Carlisle","latitude":"43.396","longitude":"-79.9781"},{"name":"Carlsbad Springs","latitude":"45.3726","longitude":"-75.4556"},{"name":"Carp","latitude":"45.2557","longitude":"-76.2754"},{"name":"Carrying Place","latitude":"44.0469","longitude":"-77.5757"},{"name":"Cartier","latitude":"46.7","longitude":"-81.55"},{"name":"Casimir","latitude":"46.35","longitude":"-80.4167"},{"name":"Casselman","latitude":"45.2194","longitude":"-75.1484"},{"name":"Cat Lake","latitude":"51.7167","longitude":"-91.8"},{"name":"Cathcart","latitude":"42.6618","longitude":"-80.5572"},{"name":"Cavan","latitude":"44.2022","longitude":"-78.4667"},{"name":"Cayuga","latitude":"42.9519","longitude":"-79.8538"},{"name":"Cedar Valley","latitude":"44.1764","longitude":"-78.4081"},{"name":"Chalk River","latitude":"46.0167","longitude":"-77.45"},{"name":"Chapleau","latitude":"47.8333","longitude":"-83.4"},{"name":"Chaput Hughes","latitude":"48.1411","longitude":"-80.0605"},{"name":"Charlemont","latitude":"42.5891","longitude":"-82.2647"},{"name":"Chartrand Corner","latitude":"46.1333","longitude":"-80.4333"},{"name":"Chatham","latitude":"42.4238","longitude":"-82.1183"},{"name":"Cheapside","latitude":"42.8343","longitude":"-79.9293"},{"name":"Chelmsford","latitude":"46.5833","longitude":"-81.2"},{"name":"Chesley","latitude":"44.2978","longitude":"-81.1031"},{"name":"Chesterville","latitude":"45.1084","longitude":"-75.2323"},{"name":"Christian Island","latitude":"44.8168","longitude":"-80.183"},{"name":"Churchill","latitude":"44.25","longitude":"-79.5833"},{"name":"Claremont","latitude":"43.9734","longitude":"-79.1284"},{"name":"Clarence-Rockland","latitude":"45.45","longitude":"-75.25"},{"name":"Clarington","latitude":"43.8969","longitude":"-78.7683"},{"name":"Clarksburg","latitude":"44.5501","longitude":"-80.4497"},{"name":"Clifford","latitude":"43.9666","longitude":"-80.9757"},{"name":"Clinton","latitude":"43.6181","longitude":"-81.5414"},{"name":"Cloyne","latitude":"44.8168","longitude":"-77.1827"},{"name":"Cobden","latitude":"45.6263","longitude":"-76.882"},{"name":"Coboconk","latitude":"44.6667","longitude":"-78.8"},{"name":"Cobourg","latitude":"43.6197","longitude":"-77.9407"},{"name":"Cochrane","latitude":"49.0667","longitude":"-81.0167"},{"name":"Coe Hill","latitude":"44.85","longitude":"-77.8333"},{"name":"Colborne","latitude":"44.0167","longitude":"-77.8833"},{"name":"Coldwater","latitude":"44.7167","longitude":"-79.8167"},{"name":"Collingwood","latitude":"44.4799","longitude":"-80.2168"},{"name":"Comber","latitude":"42.2333","longitude":"-82.55"},{"name":"Combermere","latitude":"45.3667","longitude":"-77.6167"},{"name":"Concord","latitude":"43.7987","longitude":"-79.4816"},{"name":"Conestogo","latitude":"43.5425","longitude":"-80.5077"},{"name":"Coniston","latitude":"46.4833","longitude":"-80.85"},{"name":"Connaught","latitude":"48.6167","longitude":"-80.9333"},{"name":"Cookstown","latitude":"44.1911","longitude":"-79.7032"},{"name":"Copper Cliff","latitude":"46.4667","longitude":"-81.0667"},{"name":"Corbeil","latitude":"46.2596","longitude":"-79.2789"},{"name":"Corbyville","latitude":"44.2167","longitude":"-77.3667"},{"name":"Cornwall","latitude":"45.0223","longitude":"-74.7569"},{"name":"Corunna","latitude":"42.8881","longitude":"-82.448"},{"name":"Cottam","latitude":"42.1333","longitude":"-82.75"},{"name":"Courtice","latitude":"43.8969","longitude":"-78.7683"},{"name":"Courtright","latitude":"42.8167","longitude":"-82.4667"},{"name":"Creemore","latitude":"44.3167","longitude":"-80.1"},{"name":"Cumberland","latitude":"45.498","longitude":"-75.3916"},{"name":"Curve Lake","latitude":"44.4607","longitude":"-78.3711"},{"name":"Dacre","latitude":"45.3673","longitude":"-76.9682"},{"name":"Dalhousie Lake","latitude":"44.9589","longitude":"-76.5198"},{"name":"Dashwood","latitude":"43.3471","longitude":"-81.6356"},{"name":"Deep River","latitude":"45.6609","longitude":"-77.577"},{"name":"Deer Lake","latitude":"52.6167","longitude":"-94.0667"},{"name":"Delaware","latitude":"42.9078","longitude":"-81.4199"},{"name":"Delhi","latitude":"42.858","longitude":"-80.5019"},{"name":"Delta","latitude":"44.6087","longitude":"-76.1193"},{"name":"Denbigh","latitude":"45.15","longitude":"-77.25"},{"name":"Denfield","latitude":"43.1308","longitude":"-81.4341"},{"name":"Desbarats","latitude":"46.3333","longitude":"-83.9333"},{"name":"Deseronto","latitude":"44.2","longitude":"-77.0333"},{"name":"Dinorwic","latitude":"49.7","longitude":"-92.5"},{"name":"Dixon","latitude":"45.1176","longitude":"-75.0059"},{"name":"Don Mills","latitude":"43.7338","longitude":"-79.3325"},{"name":"Dorchester","latitude":"42.989","longitude":"-81.058"},{"name":"Dorset","latitude":"45.2333","longitude":"-78.8833"},{"name":"Downsview","latitude":"43.7167","longitude":"-79.4833"},{"name":"Drayton","latitude":"43.7563","longitude":"-80.67"},{"name":"Dresden","latitude":"42.5956","longitude":"-82.1844"},{"name":"Drumbo","latitude":"43.2381","longitude":"-80.5507"},{"name":"Dryden","latitude":"49.7833","longitude":"-92.7503"},{"name":"Dublin","latitude":"43.507","longitude":"-81.2849"},{"name":"Dundalk","latitude":"44.2561","longitude":"-80.5029"},{"name":"Dundas","latitude":"43.266","longitude":"-79.9441"},{"name":"Dunnville","latitude":"42.9001","longitude":"-79.6163"},{"name":"Dunrobin","latitude":"45.4211","longitude":"-76.0268"},{"name":"Dunsford","latitude":"44.4491","longitude":"-78.6294"},{"name":"Durham","latitude":"44.1833","longitude":"-80.8167"},{"name":"Dutton","latitude":"42.7557","longitude":"-81.4533"},{"name":"Dwight","latitude":"45.3268","longitude":"-79.0129"},{"name":"Eagle River","latitude":"49.7833","longitude":"-93.1833"},{"name":"Ear Falls","latitude":"50.6395","longitude":"-93.2353"},{"name":"Earlton","latitude":"47.7167","longitude":"-79.8167"},{"name":"East Gwillimbury","latitude":"44.1009","longitude":"-79.4378"},{"name":"East York","latitude":"43.7124","longitude":"-79.3644"},{"name":"Echo Bay","latitude":"46.4833","longitude":"-84.0667"},{"name":"Eden Mills","latitude":"43.5743","longitude":"-80.1468"},{"name":"Eganville","latitude":"45.5339","longitude":"-77.1009"},{"name":"Egbert","latitude":"44.2338","longitude":"-79.761"},{"name":"Elgin","latitude":"44.61","longitude":"-76.2182"},{"name":"Elk Lake","latitude":"47.7167","longitude":"-80.3333"},{"name":"Elliot Lake","latitude":"46.3834","longitude":"-82.6332"},{"name":"Elmira","latitude":"43.6001","longitude":"-80.5497"},{"name":"Elmvale","latitude":"44.5833","longitude":"-79.8667"},{"name":"Elora","latitude":"43.6844","longitude":"-80.4301"},{"name":"Embro","latitude":"43.1597","longitude":"-80.8965"},{"name":"Embrun","latitude":"45.2754","longitude":"-75.2889"},{"name":"Emo","latitude":"48.8766","longitude":"-93.7514"},{"name":"Emsdale","latitude":"45.5333","longitude":"-79.3167"},{"name":"Englehart","latitude":"47.8167","longitude":"-79.8667"},{"name":"Ennismore","latitude":"44.4103","longitude":"-78.4365"},{"name":"Enterprise","latitude":"44.4604","longitude":"-76.8761"},{"name":"Erin","latitude":"43.7712","longitude":"-80.0721"},{"name":"Espanola","latitude":"46.261","longitude":"-81.756"},{"name":"Essex","latitude":"42.1768","longitude":"-82.8236"},{"name":"Etobicoke","latitude":"43.7137","longitude":"-79.5964"},{"name":"Everett","latitude":"44.1915","longitude":"-79.94"},{"name":"Exeter","latitude":"43.35","longitude":"-81.4833"},{"name":"Falconbridge","latitude":"46.5667","longitude":"-80.8167"},{"name":"Fenelon Falls","latitude":"44.534","longitude":"-78.7493"},{"name":"Fergus","latitude":"43.7001","longitude":"-80.3664"},{"name":"Finch","latitude":"45.1446","longitude":"-75.0846"},{"name":"Fingal","latitude":"42.7114","longitude":"-81.3104"},{"name":"Flesherton","latitude":"44.25","longitude":"-80.55"},{"name":"Floradale","latitude":"43.6167","longitude":"-80.5833"},{"name":"Foleyet","latitude":"48.25","longitude":"-82.4333"},{"name":"Fonthill","latitude":"43.0333","longitude":"-79.2833"},{"name":"Forest","latitude":"43.1","longitude":"-82.0"},{"name":"Fort Erie","latitude":"42.9","longitude":"-78.9435"},{"name":"Fort Frances","latitude":"48.6393","longitude":"-93.4469"},