{"name":"Ivory Coast","code":"CI","regions":[{"name":"Abidjan","code":"AB","cities":[{"name":"Abidjan","latitude":"5.3072","longitude":"-4.0124"},{"name":"Anyama","latitude":"5.5022","longitude":"-4.0529"},{"name":"Bingerville","latitude":"5.3558","longitude":"-3.8854"},{"name":"Marcory","latitude":"5.312","longitude":"-3.9936"},{"name":"Yopougon","latitude":"5.3748","longitude":"-4.0867"}]},{"name":"Bas-Sassandra","code":"BS","cities":[{"name":"San-Pedro","latitude":"4.7485","longitude":"-6.6363"},{"name":"Sassandra","latitude":"4.95","longitude":"-6.0833"},{"name":"Yeh","latitude":"4.6448","longitude":"-6.914"}]},{"name":"Comoe","code":"CM","cities":[{"name":"Abengourou","latitude":"6.7297","longitude":"-3.4964"},{"name":"Aboisso","latitude":"5.4681","longitude":"-3.2042"},{"name":"Agnibilekrou","latitude":"7.1311","longitude":"-3.2041"},{"name":"Bonoua","latitude":"5.2725","longitude":"-3.5962"},{"name":"Grand-Bassam","latitude":"5.2124","longitude":"-3.7306"}]},{"name":"Denguele","code":"DN","cities":[{"name":"Koroumba","latitude":"9.8195","longitude":"-7.1059"},{"name":"Odienne-Sienso","latitude":"9.4145","longitude":"-7.5078"},{"name":"Odienné","latitude":"9.5011","longitude":"-7.5591"}]},{"name":"Goh-Djiboua","code":"GD","cities":[{"name":"Gagnoa","latitude":"6.1319","longitude":"-5.9506"},{"name":"Lakota","latitude":"5.8485","longitude":"-5.6869"},{"name":"Oume","latitude":"6.3831","longitude":"-5.4176"}]},{"name":"Lacs","code":"LC","cities":[{"name":"Dimbokro","latitude":"6.6477","longitude":"-4.7057"},{"name":"Yamoussoukro","latitude":"6.8205","longitude":"-5.2767"}]},{"name":"Lagunes","code":"LG","cities":[{"name":"Agboville","latitude":"5.9261","longitude":"-4.2121"},{"name":"Dabou","latitude":"5.3256","longitude":"-4.3769"}]},{"name":"Montagnes","code":"MG","cities":[{"name":"Man","latitude":"7.4162","longitude":"-7.5549"}]},{"name":"Sassandra-Marahoue","code":"SM","cities":[{"name":"Daloa","latitude":"6.8774","longitude":"-6.4502"}]},{"name":"Savanes","code":"SV","cities":[{"name":"Korhogo","latitude":"9.458","longitude":"-5.6296"}]},{"name":"Vallee du Bandama","code":"VB","cities":[{"name":"Beoumi","latitude":"7.674","longitude":"-5.5809"},{"name":"Dabakala","latitude":"8.3651","longitude":"-4.4322"}]},{"name":"Woroba","code":"WR","cities":[{"name":"Mankono","latitude":"8.062","longitude":"-6.1855"},{"name":"Séguéla","latitude":"7.9611","longitude":"-6.6731"}]},{"name":"Yamoussoukro Autonomous District","code":"YM","cities":[{"name":"Abokouamikro","latitude":"6.8288","longitude":"-5.0551"},{"name":"Duonfla","latitude":"6.8429","longitude":"-5.503"},{"name":"Zambakro","latitude":"6.7332","longitude":"-5.4112"},{"name":"Zata","latitude":"6.8762","longitude":"-5.4066"}]},{"name":"Zanzan","code":"ZZ","cities":[{"name":"Bouna","latitude":"9.2731","longitude":"-2.9892"},{"name":"Ledi","latitude":"8.247","longitude":"-3.122"},{"name":"Sinfra","latitude":"6.6245","longitude":"-5.9153"}]}]}