{"name":"Cameroon","code":"CM","regions":[{"name":"Adamaoua Region","code":"10","cities":[{"name":"Meiganga","latitude":"6.5167","longitude":"14.3"},{"name":"Ngaoundéré","latitude":"7.3167","longitude":"13.5833"},{"name":"Tibati","latitude":"6.4691","longitude":"12.634"}]},{"name":"Centre","code":"11","cities":[{"name":"Ayos","latitude":"3.8333","longitude":"11.85"},{"name":"Bafia","latitude":"4.75","longitude":"11.2333"},{"name":"Yaoundé","latitude":"3.8661","longitude":"11.5154"}]},{"name":"Littoral","code":"05","cities":[{"name":"Douala","latitude":"4.0505","longitude":"9.7023"}]},{"name":"North-West Region","code":"07","cities":[{"name":"Bamenda","latitude":"5.9359","longitude":"10.1677"}]},{"name":"South","code":"14","cities":[{"name":"Fifinda","latitude":"3.25","longitude":"10.05"},{"name":"Kribi","latitude":"2.9541","longitude":"9.9096"},{"name":"Lolodorf","latitude":"3.2333","longitude":"10.7333"},{"name":"Sangmelima","latitude":"2.9333","longitude":"11.9833"}]},{"name":"South-West Region","code":"09","cities":[{"name":"Buea","latitude":"4.1594","longitude":"9.2367"},{"name":"Kumba","latitude":"4.6439","longitude":"9.4386"},{"name":"Limbe","latitude":"4.0128","longitude":"9.2203"},{"name":"Tiko","latitude":"4.0786","longitude":"9.3681"}]},{"name":"West Region","code":"08","cities":[{"name":"Bafoussam","latitude":"5.4667","longitude":"10.4167"}]}]}