{"name":"Costa Rica","code":"CR","regions":[{"name":"Provincia de Alajuela","code":"01","cities":[{"name":"Acequia Grande","latitude":"10.0043","longitude":"-84.2193"},{"name":"Aguas Zarcas","latitude":"10.3724","longitude":"-84.3444"},{"name":"Alajuela","latitude":"10.0215","longitude":"-84.205"},{"name":"Altamira","latitude":"10.4667","longitude":"-84.35"},{"name":"Atenas","latitude":"9.9867","longitude":"-84.3994"},{"name":"Desamparados","latitude":"10.0241","longitude":"-84.1864"},{"name":"El Coco","latitude":"9.9859","longitude":"-84.2201"},{"name":"Florida","latitude":"10.3299","longitude":"-84.4154"},{"name":"Grecia","latitude":"10.0726","longitude":"-84.3119"},{"name":"Guacima","latitude":"9.9628","longitude":"-84.2545"},{"name":"Hacienda Coronado","latitude":"10.4","longitude":"-84.5"},{"name":"La Fortuna","latitude":"10.4666","longitude":"-84.6639"},{"name":"La Garita","latitude":"9.9918","longitude":"-84.3208"},{"name":"Los Chiles","latitude":"10.9627","longitude":"-84.6042"},{"name":"Monterrey","latitude":"10.5647","longitude":"-84.6325"},{"name":"Naranjo","latitude":"10.0987","longitude":"-84.3782"},{"name":"Orotina","latitude":"9.912","longitude":"-84.5234"},{"name":"Palmares","latitude":"10.0541","longitude":"-84.4329"},{"name":"Pital","latitude":"10.5832","longitude":"-84.2413"},{"name":"Poasito","latitude":"10.164","longitude":"-84.193"},{"name":"Pocosol","latitude":"10.3667","longitude":"-84.6167"},{"name":"Quesada","latitude":"10.3262","longitude":"-84.4126"},{"name":"Rio Segundo","latitude":"10.0006","longitude":"-84.1923"},{"name":"San Jose","latitude":"10.952","longitude":"-85.1375"},{"name":"San Pedro","latitude":"10.0753","longitude":"-84.2364"},{"name":"San Rafael","latitude":"10.0964","longitude":"-84.2576"},{"name":"San Rafael de Guatuso","latitude":"10.6722","longitude":"-84.8214"},{"name":"San Ramon","latitude":"10.0859","longitude":"-84.5054"},{"name":"Sarchi","latitude":"10.0899","longitude":"-84.3477"},{"name":"Upala","latitude":"10.8443","longitude":"-85.0197"},{"name":"Venecia","latitude":"10.3323","longitude":"-84.2891"},{"name":"Zarcero","latitude":"10.1896","longitude":"-84.3796"}]},{"name":"Provincia de Cartago","code":"02","cities":[{"name":"Cartago","latitude":"9.8619","longitude":"-83.9275"},{"name":"Corralillo","latitude":"9.7866","longitude":"-84.0534"},{"name":"El Tejar","latitude":"9.8423","longitude":"-83.9391"},{"name":"Guadalupe","latitude":"9.861","longitude":"-83.9354"},{"name":"Juan Vinas","latitude":"9.9017","longitude":"-83.7465"},{"name":"Llano Grande","latitude":"9.9396","longitude":"-83.9185"},{"name":"Moravia","latitude":"9.8264","longitude":"-83.4406"},{"name":"Ochomogo","latitude":"9.898","longitude":"-83.9443"},{"name":"Pacayas","latitude":"9.8071","longitude":"-84.0476"},{"name":"Paraiso","latitude":"9.8421","longitude":"-83.8504"},{"name":"Playa Hermosa","latitude":"9.9589","longitude":"-83.3405"},{"name":"San Isidro","latitude":"9.8328","longitude":"-83.9565"},{"name":"San Rafael","latitude":"9.767","longitude":"-83.8256"},{"name":"Tres Rios","latitude":"9.9064","longitude":"-83.9876"},{"name":"Turrialba","latitude":"9.8872","longitude":"-83.6861"}]},{"name":"Provincia de Guanacaste","code":"03","cities":[{"name":"Arenal","latitude":"10.3833","longitude":"-85.7"},{"name":"Artola","latitude":"10.5095","longitude":"-85.6835"},{"name":"Bagaces","latitude":"10.4655","longitude":"-85.2828"},{"name":"Belen","latitude":"10.3974","longitude":"-85.5921"},{"name":"Bernabela","latitude":"10.329","longitude":"-85.5627"},{"name":"Canas","latitude":"10.4502","longitude":"-85.0903"},{"name":"Carana","latitude":"10.6077","longitude":"-85.4093"},{"name":"Carrillo","latitude":"9.8379","longitude":"-85.322"},{"name":"Filadelfia","latitude":"10.4075","longitude":"-85.4681"},{"name":"Fortuna","latitude":"10.6614","longitude":"-85.1688"},{"name":"Guanacaste","latitude":"10.7672","longitude":"-85.6469"},{"name":"Hacienda Tamarindo","latitude":"10.4335","longitude":"-85.2634"},{"name":"Hojancha","latitude":"10.0452","longitude":"-85.4257"},{"name":"La Cruz","latitude":"11.0704","longitude":"-85.6213"},{"name":"Las Juntas","latitude":"10.15","longitude":"-85.3"},{"name":"Liberia","latitude":"10.5866","longitude":"-85.4504"},{"name":"Mora","latitude":"9.8833","longitude":"-85.4167"},{"name":"Nandayure","latitude":"9.9889","longitude":"-85.2599"},{"name":"Nicoya","latitude":"10.1208","longitude":"-85.5037"},{"name":"Nosara","latitude":"9.9756","longitude":"-85.6254"},{"name":"Playas del Coco","latitude":"10.543","longitude":"-85.6982"},{"name":"Santa Cecilia","latitude":"11.0489","longitude":"-85.372"},{"name":"Santa Cruz","latitude":"10.2388","longitude":"-85.5991"},{"name":"Santo Domingo","latitude":"10.4141","longitude":"-85.6036"},{"name":"Sardinal","latitude":"10.5179","longitude":"-85.6751"},{"name":"Sámara","latitude":"9.8793","longitude":"-85.5261"},{"name":"Tilaran","latitude":"10.4528","longitude":"-84.9643"},{"name":"Turin","latitude":"10.3484","longitude":"-84.8669"}]},{"name":"Provincia de Heredia","code":"04","cities":[{"name":"Angeles","latitude":"10.0377","longitude":"-84.0886"},{"name":"Barva","latitude":"10.0237","longitude":"-84.1129"},{"name":"Heredia","latitude":"9.9983","longitude":"-84.1171"},{"name":"Llorente","latitude":"10.0053","longitude":"-84.1626"},{"name":"Pavas","latitude":"10.6667","longitude":"-84.0"},{"name":"San Antonio","latitude":"9.9833","longitude":"-84.1833"},{"name":"San Francisco","latitude":"9.9904","longitude":"-84.1244"},{"name":"San Jose de la Montana","latitude":"10.055","longitude":"-84.1146"},{"name":"San Pablo","latitude":"9.9998","longitude":"-84.0927"},{"name":"San Rafael","latitude":"10.0161","longitude":"-84.0994"},{"name":"Santa Cruz","latitude":"10.0135","longitude":"-84.0449"},{"name":"Santo Domingo","latitude":"10.0618","longitude":"-84.1581"},{"name":"Sarapiqui","latitude":"10.4833","longitude":"-84.0167"}]},{"name":"Provincia de Limon","code":"06","cities":[{"name":"Cahuita","latitude":"9.669","longitude":"-82.8046"},{"name":"Cariari","latitude":"10.4292","longitude":"-83.6777"},{"name":"Griega","latitude":"9.795","longitude":"-82.9203"},{"name":"Guacimo","latitude":"10.2104","longitude":"-83.6807"},{"name":"Guapiles","latitude":"10.2159","longitude":"-83.7866"},{"name":"Limón","latitude":"9.9803","longitude":"-83.0708"},{"name":"Penshurst","latitude":"9.7806","longitude":"-82.9131"},{"name":"Siquirres","latitude":"10.1589","longitude":"-83.4546"},{"name":"Tortuguero","latitude":"10.5414","longitude":"-83.5021"}]},{"name":"Provincia de Puntarenas","code":"07","cities":[{"name":"Abangaritos","latitude":"10.1599","longitude":"-85.0373"},{"name":"Angeles","latitude":"8.787","longitude":"-82.9426"},{"name":"Barranca","latitude":"10.0071","longitude":"-84.7079"},{"name":"Buenos Aires","latitude":"8.8596","longitude":"-83.5022"},{"name":"Chacarita","latitude":"9.9829","longitude":"-84.7723"},{"name":"Ciudad Cortes","latitude":"9.0226","longitude":"-83.5767"},{"name":"Cobano","latitude":"9.6993","longitude":"-85.1284"},{"name":"Coronado","latitude":"9.0461","longitude":"-83.6192"},{"name":"Coto Brus","latitude":"8.9518","longitude":"-83.071"},{"name":"Esparza","latitude":"9.9945","longitude":"-84.6647"},{"name":"Golfito","latitude":"8.6542","longitude":"-83.1755"},{"name":"Guacimo","latitude":"8.9484","longitude":"-83.1096"},{"name":"Jaco","latitude":"9.6275","longitude":"-84.601"},{"name":"Jicaral","latitude":"9.9023","longitude":"-85.1297"},{"name":"Laurel","latitude":"8.4445","longitude":"-82.9037"},{"name":"Manuel Antonio","latitude":"9.4057","longitude":"-84.1536"},{"name":"Miramar","latitude":"10.1124","longitude":"-84.7394"},{"name":"Naranjo","latitude":"9.9361","longitude":"-84.9486"},{"name":"Neily","latitude":"8.6483","longitude":"-82.941"},{"name":"Palmar Norte","latitude":"8.95","longitude":"-83.43"},{"name":"Parrita","latitude":"9.5621","longitude":"-84.321"},{"name":"Puerto Jimenez","latitude":"8.5182","longitude":"-83.4477"},{"name":"Puntarenas","latitude":"9.9827","longitude":"-84.7419"},{"name":"Quepos","latitude":"9.4596","longitude":"-84.1376"},{"name":"San Vito","latitude":"8.8653","longitude":"-82.95"},{"name":"Tambor","latitude":"9.7171","longitude":"-85.0408"},{"name":"Uvita","latitude":"9.1755","longitude":"-83.7266"}]},{"name":"Provincia de San Jose","code":"08","cities":[{"name":"Alajuelita","latitude":"9.8856","longitude":"-84.0935"},{"name":"Angeles","latitude":"9.4791","longitude":"-83.7918"},{"name":"Aserri","latitude":"9.855","longitude":"-84.1084"},{"name":"Brasil","latitude":"9.9403","longitude":"-84.226"},{"name":"California","latitude":"9.9346","longitude":"-84.0705"},{"name":"Colon","latitude":"9.9009","longitude":"-84.256"},{"name":"Concepcion","latitude":"9.7057","longitude":"-84.3531"},{"name":"Curridabat","latitude":"9.9145","longitude":"-84.0379"},{"name":"Desamparados","latitude":"9.9004","longitude":"-84.0726"},{"name":"Escazu","latitude":"9.894","longitude":"-84.14"},{"name":"Granadilla","latitude":"9.9311","longitude":"-84.0212"},{"name":"Guachipelin","latitude":"9.9443","longitude":"-84.1596"},{"name":"Guadalupe","latitude":"9.6529","longitude":"-84.008"},{"name":"Guatuso","latitude":"9.8377","longitude":"-84.3694"},{"name":"Isla de Tibas","latitude":"9.9465","longitude":"-84.0823"},{"name":"Limon","latitude":"9.7349","longitude":"-84.3537"},{"name":"Mata de Platano","latitude":"9.9534","longitude":"-84.0136"},{"name":"Mercedes Norte","latitude":"9.8363","longitude":"-84.3262"},{"name":"Mercedes Sur","latitude":"9.7739","longitude":"-84.4098"},{"name":"Palmares","latitude":"9.3225","longitude":"-83.6629"},{"name":"Pavas","latitude":"9.9499","longitude":"-84.1366"},{"name":"Perez","latitude":"9.7215","longitude":"-84.3143"},{"name":"Poas","latitude":"9.8722","longitude":"-84.0996"},{"name":"Purral","latitude":"9.9593","longitude":"-84.0181"},{"name":"Rancho Redondo","latitude":"9.961","longitude":"-83.9484"},{"name":"Rivas","latitude":"9.4842","longitude":"-83.6045"},{"name":"San Carlos","latitude":"9.234","longitude":"-83.5931"},{"name":"San Francisco de Dos Rios","latitude":"9.95","longitude":"-84.0667"},{"name":"San Isidro","latitude":"9.3215","longitude":"-83.7195"},{"name":"San José","latitude":"9.9214","longitude":"-84.0598"},{"name":"San Juan de Dios","latitude":"9.878","longitude":"-84.0886"},{"name":"San Pedro","latitude":"9.9375","longitude":"-84.0451"},{"name":"San Rafael","latitude":"9.8747","longitude":"-84.0759"},{"name":"San Sebastian","latitude":"9.9072","longitude":"-84.0825"},{"name":"Santa Ana","latitude":"9.931","longitude":"-84.1759"},{"name":"Santiago","latitude":"9.8202","longitude":"-84.3063"},{"name":"Uruca","latitude":"9.7627","longitude":"-84.1332"},{"name":"Vuelta de Jorco","latitude":"9.7768","longitude":"-84.135"},{"name":"Zapote","latitude":"9.1276","longitude":"-83.5591"}]}]}