{"name":"Cabo Verde","code":"CV","regions":[{"name":"Boa Vista","code":"01","cities":[{"name":"Sal Rei","latitude":"16.184","longitude":"-22.9206"}]},{"name":"Brava","code":"02","cities":[{"name":"Nova Sintra","latitude":"14.8702","longitude":"-24.7187"},{"name":"Vinagre","latitude":"14.8641","longitude":"-24.7008"}]},{"name":"Maio","code":"04","cities":[{"name":"Vila do Maio","latitude":"15.1333","longitude":"-23.2167"}]},{"name":"Mosteiros","code":"13","cities":[{"name":"Igreja","latitude":"15.0333","longitude":"-24.3333"}]},{"name":"Paul","code":"05","cities":[{"name":"Pombas","latitude":"17.15","longitude":"-25.0167"}]},{"name":"Porto Novo","code":"21","cities":[{"name":"Porto Novo","latitude":"17.0333","longitude":"-25.0667"}]},{"name":"Praia","code":"14","cities":[{"name":"Praia","latitude":"14.9167","longitude":"-23.5167"}]},{"name":"Ribeira Brava","code":"22","cities":[{"name":"Queimadas","latitude":"16.6334","longitude":"-24.3193"},{"name":"Ribeira Brava","latitude":"16.6167","longitude":"-24.3"}]},{"name":"Ribeira Grande","code":"07","cities":[{"name":"Ribeira Grande","latitude":"17.1833","longitude":"-25.0667"}]},{"name":"Ribeira Grande de Santiago","code":"23","cities":[{"name":"Cidade Velha","latitude":"14.9167","longitude":"-23.6167"}]},{"name":"Sal","code":"08","cities":[{"name":"Santa Maria","latitude":"16.6","longitude":"-22.9"}]},{"name":"Santa Catarina","code":"15","cities":[{"name":"Assomada","latitude":"15.1","longitude":"-23.6833"}]},{"name":"Santa Catarina do Fogo","code":"24","cities":[{"name":"Cova Figueira","latitude":"14.8833","longitude":"-24.3"}]},{"name":"São Domingos","code":"17","cities":[{"name":"Sao Domingos","latitude":"15.0167","longitude":"-23.5667"}]},{"name":"São Filipe","code":"18","cities":[{"name":"Serrado","latitude":"14.9167","longitude":"-24.4667"}]},{"name":"São Lourenço dos Órgãos","code":"SO","cities":[{"name":"Joao Teves","latitude":"15.064","longitude":"-23.5874"},{"name":"Montanha","latitude":"15.0833","longitude":"-23.6"}]},{"name":"São Miguel","code":"19","cities":[{"name":"Achada Monte","latitude":"15.2341","longitude":"-23.6529"},{"name":"Chacha","latitude":"15.2","longitude":"-23.6667"}]},{"name":"São Salvador do Mundo","code":"26","cities":[{"name":"Picos","latitude":"15.0833","longitude":"-23.65"}]},{"name":"São Vicente","code":"11","cities":[{"name":"Mindelo","latitude":"16.8833","longitude":"-25.0"}]},{"name":"Tarrafal","code":"20","cities":[{"name":"Toril","latitude":"15.3","longitude":"-23.7167"}]},{"name":"Tarrafal de São Nicolau","code":"10","cities":[{"name":"Tarrafal de Sao Nicolau","latitude":"16.5662","longitude":"-24.3579"}]}]}