{"name":"Cyprus","code":"CY","regions":[{"name":"Ammochostos","code":"01","cities":[{"name":"Achna","latitude":"35.0583","longitude":"33.7833"},{"name":"Avgorou","latitude":"35.0369","longitude":"33.8403"},{"name":"Ayia Napa","latitude":"34.9884","longitude":"33.9998"},{"name":"Deryneia","latitude":"35.0667","longitude":"33.9583"},{"name":"Famagusta","latitude":"35.125","longitude":"33.95"},{"name":"Frenaros","latitude":"35.0417","longitude":"33.925"},{"name":"Liopetri","latitude":"35.0083","longitude":"33.8917"},{"name":"Paralimni","latitude":"35.0375","longitude":"33.9833"},{"name":"Protaras","latitude":"35.0146","longitude":"34.0607"},{"name":"Sotira","latitude":"35.0292","longitude":"33.95"}]},{"name":"Larnaka","code":"03","cities":[{"name":"Agios Tychon","latitude":"34.738","longitude":"33.1808"},{"name":"Anafotida","latitude":"34.825","longitude":"33.4625"},{"name":"Aradhippou","latitude":"34.95","longitude":"33.5917"},{"name":"Athienou","latitude":"35.0667","longitude":"33.5417"},{"name":"Dromolaxia","latitude":"34.8792","longitude":"33.5833"},{"name":"Kiti, Cyprus","latitude":"34.85","longitude":"33.575"},{"name":"Larnaca","latitude":"34.9165","longitude":"33.6272"},{"name":"Livadia","latitude":"34.9519","longitude":"33.6327"},{"name":"Pano Lefkara","latitude":"34.8638","longitude":"33.3011"},{"name":"Pyla","latitude":"35.0292","longitude":"33.6917"},{"name":"Tersefanou","latitude":"34.8521","longitude":"33.543"},{"name":"Xylofagou","latitude":"34.9792","longitude":"33.8552"},{"name":"Xylotymvou","latitude":"35.0186","longitude":"33.7489"},{"name":"Zygi","latitude":"34.7285","longitude":"33.341"}]},{"name":"Limassol","code":"05","cities":[{"name":"Agros","latitude":"34.9167","longitude":"33.0133"},{"name":"Episkopi","latitude":"34.6706","longitude":"32.9018"},{"name":"Erimi","latitude":"34.6778","longitude":"32.9217"},{"name":"Germasogeia","latitude":"34.7207","longitude":"33.0845"},{"name":"Kato Polemidia","latitude":"34.6972","longitude":"32.9932"},{"name":"Limassol","latitude":"34.6874","longitude":"33.0366"},{"name":"Moni","latitude":"34.735","longitude":"33.1996"},{"name":"Mouttagiaka","latitude":"34.7202","longitude":"33.1007"},{"name":"Pissouri","latitude":"34.6708","longitude":"32.7083"},{"name":"Saint Athanasios","latitude":"34.7093","longitude":"33.05"},{"name":"Ypsonas","latitude":"34.6942","longitude":"32.9563"}]},{"name":"Nicosia","code":"04","cities":[{"name":"Aglantzia","latitude":"35.1525","longitude":"33.3993"},{"name":"Anageia","latitude":"35.0756","longitude":"33.2543"},{"name":"Arediou","latitude":"35.0521","longitude":"33.1945"},{"name":"Dali","latitude":"35.025","longitude":"33.4208"},{"name":"Egkomi","latitude":"35.1667","longitude":"33.3458"},{"name":"Episkopeio","latitude":"35.0446","longitude":"33.244"},{"name":"Kaimakli","latitude":"35.1833","longitude":"33.3833"},{"name":"Kato Lakatameia","latitude":"35.1208","longitude":"33.3167"},{"name":"Kokkinotrimithia","latitude":"35.1624","longitude":"33.2004"},{"name":"Latsia","latitude":"35.1","longitude":"33.3667"},{"name":"Mammari","latitude":"35.1667","longitude":"33.2"},{"name":"Nicosia","latitude":"35.1638","longitude":"33.3639"},{"name":"Nisou","latitude":"35.0185","longitude":"33.3961"},{"name":"Pedoulas","latitude":"34.9667","longitude":"32.8292"},{"name":"Strovolos","latitude":"35.15","longitude":"33.3417"}]},{"name":"Pafos","code":"06","cities":[{"name":"Anarita","latitude":"34.7417","longitude":"32.5333"},{"name":"Chloraka","latitude":"34.8084","longitude":"32.4047"},{"name":"Empa","latitude":"34.8083","longitude":"32.425"},{"name":"Geroskipou Municipality","latitude":"34.7667","longitude":"32.4667"},{"name":"Kathikas","latitude":"34.9188","longitude":"32.4291"},{"name":"Kyrenia","latitude":"35.3417","longitude":"33.3167"},{"name":"Lapta","latitude":"35.3375","longitude":"33.1792"},{"name":"Mandria, Paphos","latitude":"34.715","longitude":"32.5284"},{"name":"Mesogi","latitude":"34.8143","longitude":"32.4617"},{"name":"Paphos","latitude":"34.7554","longitude":"32.4093"},{"name":"Peyia","latitude":"34.8833","longitude":"32.3833"},{"name":"Polis","latitude":"35.0353","longitude":"32.4258"},{"name":"Prodromi","latitude":"35.0273","longitude":"32.4178"},{"name":"Tsada","latitude":"34.845","longitude":"32.4758"}]}]}