{"name":"Algeria","code":"DZ","regions":[{"name":"Adrar","code":"34","cities":[{"name":"Adrar","latitude":"27.9","longitude":"-0.2833"},{"name":"Aoulef","latitude":"26.95","longitude":"1.0833"},{"name":"Reggane","latitude":"26.7034","longitude":"0.1643"},{"name":"Timimoun","latitude":"29.2538","longitude":"0.2496"}]},{"name":"Algiers","code":"01","cities":[{"name":"Ain Taya","latitude":"36.7933","longitude":"3.2869"},{"name":"Algiers","latitude":"36.7631","longitude":"3.0506"},{"name":"Bab Ezzouar","latitude":"36.7113","longitude":"3.1865"},{"name":"Belcourt","latitude":"36.75","longitude":"3.05"},{"name":"Birkhadem","latitude":"36.7128","longitude":"3.0617"},{"name":"Bordj el Kiffan","latitude":"36.7475","longitude":"3.1931"},{"name":"Bāb al-Wādī","latitude":"36.7447","longitude":"3.114"},{"name":"Dar el Beida","latitude":"36.7133","longitude":"3.2125"},{"name":"El Harrach","latitude":"36.7203","longitude":"3.145"},{"name":"Hussein Dey","latitude":"36.7344","longitude":"3.1061"},{"name":"Kouba","latitude":"36.731","longitude":"3.0847"},{"name":"Rouiba","latitude":"36.7392","longitude":"3.2853"},{"name":"Tixeraine","latitude":"36.7167","longitude":"3.0333"}]},{"name":"Annaba","code":"37","cities":[{"name":"Annaba","latitude":"36.9","longitude":"7.7667"},{"name":"Berrahal","latitude":"36.8353","longitude":"7.4533"},{"name":"Sidi Moussa","latitude":"36.7333","longitude":"7.6167"}]},{"name":"Aïn Defla","code":"35","cities":[{"name":"Ain Defla","latitude":"36.264","longitude":"1.9679"},{"name":"Arib","latitude":"36.2879","longitude":"2.0694"},{"name":"Djendel","latitude":"36.221","longitude":"2.4137"},{"name":"El Abadia","latitude":"36.2695","longitude":"1.6861"},{"name":"El Attaf","latitude":"36.2279","longitude":"1.677"},{"name":"Khemis Miliana","latitude":"36.261","longitude":"2.2201"},{"name":"Miliana","latitude":"36.31","longitude":"2.1622"},{"name":"Ouamri","latitude":"36.2333","longitude":"2.5667"}]},{"name":"Aïn Témouchent","code":"36","cities":[{"name":"Ain Temouchent","latitude":"35.295","longitude":"-1.1375"},{"name":"El Amria","latitude":"35.5244","longitude":"-1.0158"},{"name":"El Malah","latitude":"35.3919","longitude":"-1.0953"},{"name":"Hammam Bou Hadjar","latitude":"35.3789","longitude":"-0.9678"}]},{"name":"Batna","code":"03","cities":[{"name":"Ain Touta","latitude":"35.3767","longitude":"5.9"},{"name":"Arris","latitude":"35.2575","longitude":"6.3511"},{"name":"Barika","latitude":"35.389","longitude":"5.3658"},{"name":"Batna City","latitude":"35.559","longitude":"6.1702"},{"name":"Merouana","latitude":"35.6255","longitude":"5.9148"},{"name":"N'Gaous","latitude":"35.5547","longitude":"5.6138"},{"name":"Tazoult-Lambese","latitude":"35.4864","longitude":"6.2553"},{"name":"Teniet el Abed","latitude":"35.2453","longitude":"6.1941"}]},{"name":"Biskra","code":"19","cities":[{"name":"Biskra","latitude":"34.85","longitude":"5.7333"},{"name":"Chetma","latitude":"34.8533","longitude":"5.8194"},{"name":"Sidi Okba","latitude":"34.7427","longitude":"5.8953"},{"name":"Tolga","latitude":"34.7222","longitude":"5.3785"},{"name":"Zeribet el Oued","latitude":"34.6833","longitude":"6.5167"}]},{"name":"Blida","code":"20","cities":[{"name":"Beni Mered","latitude":"36.5231","longitude":"2.8625"},{"name":"Blida","latitude":"36.4656","longitude":"2.8265"},{"name":"Bou Arfa","latitude":"36.4667","longitude":"2.8167"},{"name":"Boufarik","latitude":"36.5746","longitude":"2.9073"},{"name":"Bougara","latitude":"36.5406","longitude":"3.0853"},{"name":"Chebli","latitude":"36.5802","longitude":"3.008"},{"name":"Chiffa","latitude":"36.4619","longitude":"2.7419"},{"name":"Larbaâ","latitude":"36.4993","longitude":"3.269"},{"name":"Meftah","latitude":"36.6204","longitude":"3.2225"},{"name":"Souma","latitude":"36.5204","longitude":"2.9047"}]},{"name":"Bordj Bou Arréridj","code":"39","cities":[{"name":"Bordj Bou Arreridj","latitude":"36.075","longitude":"4.775"},{"name":"Bordj Ghdir","latitude":"35.9011","longitude":"4.8981"},{"name":"Bordj Zemoura","latitude":"36.2692","longitude":"4.858"},{"name":"Mansourah","latitude":"36.0736","longitude":"4.4618"},{"name":"Melouza","latitude":"35.9792","longitude":"4.1917"},{"name":"Ras el Oued","latitude":"35.945","longitude":"5.036"},{"name":"Sedrata","latitude":"36.0641","longitude":"5.0141"},{"name":"Toumella","latitude":"35.9333","longitude":"5.0333"}]},{"name":"Bouira","code":"21","cities":[{"name":"Ain Bessem","latitude":"36.2933","longitude":"3.6732"},{"name":"Bouïra","latitude":"36.38","longitude":"3.9014"},{"name":"Chorfa","latitude":"36.3699","longitude":"4.334"},{"name":"Draa el Mizan","latitude":"36.535","longitude":"3.8336"},{"name":"El Adjiba","latitude":"36.3249","longitude":"4.1603"},{"name":"El Oued","latitude":"35.9833","longitude":"4.1667"},{"name":"Lakhdaria","latitude":"36.5622","longitude":"3.5944"},{"name":"M'Chedallah","latitude":"36.3655","longitude":"4.2751"},{"name":"Sour el Ghozlane","latitude":"36.1532","longitude":"3.6926"},{"name":"Tazmalt","latitude":"36.3872","longitude":"4.4017"}]},{"name":"Boumerdes","code":"40","cities":[{"name":"Arbatache","latitude":"36.6536","longitude":"3.3631"},{"name":"Baghlia","latitude":"36.8151","longitude":"3.8527"},{"name":"Beni Amrane","latitude":"36.6693","longitude":"3.5944"},{"name":"Bordj Menaïel","latitude":"36.7428","longitude":"3.7193"},{"name":"Boudouaou","latitude":"36.7306","longitude":"3.4103"},{"name":"Boumerdas","latitude":"36.7667","longitude":"3.4772"},{"name":"Chabet el Ameur","latitude":"36.641","longitude":"3.6944"},{"name":"Dellys","latitude":"36.9186","longitude":"3.8878"},{"name":"Makouda","latitude":"36.7917","longitude":"4.0672"},{"name":"Naciria","latitude":"36.7462","longitude":"3.8316"},{"name":"Reghaia","latitude":"36.7422","longitude":"3.3414"},{"name":"Sidi Daoud","latitude":"36.8558","longitude":"3.8567"},{"name":"Tadmait","latitude":"36.7441","longitude":"3.9005"},{"name":"Thenia","latitude":"36.7241","longitude":"3.5585"},{"name":"Tizi Gheniff","latitude":"36.5875","longitude":"3.7678"}]},{"name":"Béchar","code":"38","cities":[{"name":"Béchar","latitude":"31.6167","longitude":"-2.2167"}]},{"name":"Béjaïa","code":"18","cities":[{"name":"Adekar Kebouche","latitude":"36.6917","longitude":"4.675"},{"name":"Akbou","latitude":"36.4611","longitude":"4.5333"},{"name":"Amizour","latitude":"36.6417","longitude":"4.9208"},{"name":"Barbacha","latitude":"36.5667","longitude":"4.9667"},{"name":"Béjaïa","latitude":"36.7462","longitude":"5.0838"},{"name":"El-Kseur","latitude":"36.6794","longitude":"4.8555"},{"name":"Feraoun","latitude":"36.5403","longitude":"4.8721"},{"name":"Seddouk","latitude":"36.5472","longitude":"4.6861"},{"name":"Sidi Aich","latitude":"36.6085","longitude":"4.6836"}]},{"name":"Chlef","code":"41","cities":[{"name":"Abou el Hassan","latitude":"36.4166","longitude":"1.1962"},{"name":"Boukadir","latitude":"36.1608","longitude":"0.9706"},{"name":"Ech Chettia","latitude":"36.194","longitude":"1.2575"},{"name":"El Karimia","latitude":"36.1105","longitude":"1.5488"},{"name":"Ouled Fares","latitude":"36.2336","longitude":"1.2381"},{"name":"Sidi Akkacha","latitude":"36.4647","longitude":"1.3067"},{"name":"Taougrite","latitude":"36.2474","longitude":"0.9237"},{"name":"Zeboudja","latitude":"36.3508","longitude":"1.431"},{"name":"ash-Shalif","latitude":"36.1647","longitude":"1.3347"}]},{"name":"Constantine","code":"04","cities":[{"name":"Ain Kerma","latitude":"36.4244","longitude":"6.4725"},{"name":"Constantine","latitude":"36.3617","longitude":"6.6119"},{"name":"Didouche Mourad","latitude":"36.4525","longitude":"6.6364"},{"name":"Hamma Bouziane","latitude":"36.4121","longitude":"6.596"},{"name":"Zighout Youcef","latitude":"36.5322","longitude":"6.7119"}]},{"name":"Djelfa","code":"22","cities":[{"name":"Ain Oussera","latitude":"35.4514","longitude":"2.9058"},{"name":"Birine","latitude":"35.6327","longitude":"3.2162"},{"name":"Charef","latitude":"34.6206","longitude":"2.7956"},{"name":"Dar Chioukh","latitude":"34.8975","longitude":"3.4847"},{"name":"Djelfa","latitude":"34.6667","longitude":"3.25"},{"name":"El Idrissia","latitude":"34.4454","longitude":"2.5275"},{"name":"Hassi Bahbah","latitude":"35.0711","longitude":"3.0299"},{"name":"Sidi Ladjel","latitude":"35.4333","longitude":"2.5"}]},{"name":"El Bayadh","code":"42","cities":[{"name":"Brezina","latitude":"33.0997","longitude":"1.2569"},{"name":"El Abiodh Sidi Cheikh","latitude":"32.893","longitude":"0.5484"},{"name":"El Bayadh","latitude":"33.6861","longitude":"1.0139"}]},{"name":"El Oued","code":"43","cities":[{"name":"Debila","latitude":"33.5167","longitude":"6.95"},{"name":"El Meghaier","latitude":"33.9515","longitude":"5.9379"},{"name":"El Oued","latitude":"33.3333","longitude":"6.8833"},{"name":"Guemar","latitude":"33.4833","longitude":"6.8"},{"name":"Reguiba","latitude":"33.5667","longitude":"6.7167"}]},{"name":"El Tarf","code":"44","cities":[{"name":"Ain Khiar","latitude":"36.7989","longitude":"8.3333"},{"name":"Besbes","latitude":"36.7022","longitude":"7.8472"},{"name":"El Kala","latitude":"36.8956","longitude":"8.4433"},{"name":"El Tarf","latitude":"36.7686","longitude":"8.3167"}]},{"name":"Ghardaia","code":"45","cities":[{"name":"Berriane","latitude":"32.8392","longitude":"3.7642"},{"name":"Ghardaïa","latitude":"32.4835","longitude":"3.6627"}]},{"name":"Guelma","code":"23","cities":[{"name":"Belkheir","latitude":"36.46","longitude":"7.4723"},{"name":"Bouchegouf","latitude":"36.4717","longitude":"7.7297"},{"name":"Boumahra Ahmed","latitude":"36.4583","longitude":"7.5139"},{"name":"Guelma","latitude":"36.4661","longitude":"7.4339"},{"name":"Heliopolis","latitude":"36.5036","longitude":"7.4428"},{"name":"Oued Zenati","latitude":"36.3161","longitude":"7.1636"}]},{"name":"Illizi","code":"46","cities":[{"name":"Adjahil","latitude":"24.5306","longitude":"9.4783"},{"name":"Azelouaz","latitude":"24.5667","longitude":"9.4833"},{"name":"Bordj Omar Driss","latitude":"28.15","longitude":"6.8167"},{"name":"Djanet","latitude":"24.5515","longitude":"9.4782"},{"name":"Edjeleh","latitude":"27.7","longitude":"9.8833"},{"name":"El Mihan","latitude":"24.55","longitude":"9.4833"},{"name":"Hassi Bel Guebbour","latitude":"28.5","longitude":"6.6833"},{"name":"Iherir","latitude":"25.4","longitude":"8.4167"},{"name":"Illizi","latitude":"26.4833","longitude":"8.4667"},{"name":"Maison Rouge","latitude":"27.8167","longitude":"9.9167"},{"name":"Ohanet","latitude":"28.6667","longitude":"8.8333"},{"name":"Tamadjert","latitude":"25.6167","longitude":"7.3167"},{"name":"Tin Alkoum","latitude":"24.6192","longitude":"10.2125"},{"name":"Zarzaitine","latitude":"28.0833","longitude":"9.75"}]},{"name":"Jijel","code":"24","cities":[{"name":"Boudoukha","latitude":"36.7403","longitude":"6.4008"},{"name":"Jijelli","latitude":"36.7967","longitude":"5.7664"},{"name":"Taher","latitude":"36.768","longitude":"5.8971"}]},{"name":"Khenchela","code":"47","cities":[{"name":"Khenchela","latitude":"35.4344","longitude":"7.1373"}]},{"name":"Laghouat","code":"25","cities":[{"name":"Aflou","latitude":"34.1089","longitude":"2.1019"},{"name":"Ksar el Hirane","latitude":"33.7926","longitude":"3.1483"},{"name":"Laghouat","latitude":"33.8","longitude":"2.8833"}]},{"name":"M'Sila","code":"27","cities":[{"name":"'Ain el Melh","latitude":"34.85","longitude":"4.1667"},{"name":"Bou Saada","latitude":"35.211","longitude":"4.1855"},{"name":"M'Sila","latitude":"35.7058","longitude":"4.5419"},{"name":"Sidi Aissa","latitude":"35.8914","longitude":"3.7711"}]},{"name":"Mascara","code":"26","cities":[{"name":"Mascara","latitude":"35.3921","longitude":"0.1391"},{"name":"Mohammadia","latitude":"35.5886","longitude":"0.0686"},{"name":"Oued el Abtal","latitude":"35.4547","longitude":"0.6861"},{"name":"Sig","latitude":"35.5283","longitude":"-0.1937"}]},{"name":"Medea","code":"06","cities":[{"name":"Berrouaghia","latitude":"36.1352","longitude":"2.9108"},{"name":"El Omaria","latitude":"36.268","longitude":"3.0366"},{"name":"Ksar el Boukhari","latitude":"35.8889","longitude":"2.749"},{"name":"Medea","latitude":"36.2675","longitude":"2.75"},{"name":"Ouzera","latitude":"36.2542","longitude":"2.8472"}]},{"name":"Mila","code":"48","cities":[{"name":"Ain Tinn","latitude":"36.398","longitude":"6.3181"},{"name":"Chelghoum el Aid","latitude":"36.1594","longitude":"6.165"},{"name":"Mila","latitude":"36.4503","longitude":"6.2644"},{"name":"Rouached","latitude":"36.4577","longitude":"6.0427"},{"name":"Tadjenanet","latitude":"36.1213","longitude":"5.9867"},{"name":"Telerghma","latitude":"36.1165","longitude":"6.3543"}]},{"name":"Mostaganem","code":"07","cities":[{"name":"Abane Ramdane","latitude":"35.9276","longitude":"0.0996"},{"name":"Mostaganem","latitude":"35.9333","longitude":"0.0903"},{"name":"Oued el Kheir","latitude":"35.9482","longitude":"0.3817"},{"name":"Sidi Ali","latitude":"36.0942","longitude":"0.4202"},{"name":"Sour","latitude":"35.9991","longitude":"0.3426"}]},{"name":"Naama","code":"49","cities":[{"name":"Ain Sefra","latitude":"32.75","longitude":"-0.5833"},{"name":"Naama","latitude":"33.2667","longitude":"-0.3167"}]},{"name":"Oran","code":"09","cities":[{"name":"Ain el Bya","latitude":"35.8039","longitude":"-0.3018"},{"name":"Arzew","latitude":"35.8504","longitude":"-0.3147"},{"name":"Bir el Djir","latitude":"35.72","longitude":"-0.545"},{"name":"Bou Tlelis","latitude":"35.5717","longitude":"-0.9028"},{"name":"Douar Rouached","latitude":"35.5444","longitude":"-0.5536"},{"name":"Es Senia","latitude":"35.6511","longitude":"-0.6342"},{"name":"Mers el Kebir","latitude":"35.7287","longitude":"-0.7016"},{"name":"Monte-Christo","latitude":"35.7205","longitude":"-0.6652"},{"name":"Oran","latitude":"35.6892","longitude":"-0.6447"},{"name":"Sidi ech Chahmi","latitude":"35.6581","longitude":"-0.5203"}]},{"name":"Ouargla","code":"50","cities":[{"name":"Chott","latitude":"31.9544","longitude":"5.3892"},{"name":"Djamaa","latitude":"33.5333","longitude":"6.0"},{"name":"El Hadjira","latitude":"32.6161","longitude":"5.5081"},{"name":"Hassi Messaoud","latitude":"31.6804","longitude":"6.0729"},{"name":"Ouargla","latitude":"31.9575","longitude":"5.3278"},{"name":"Rouissat","latitude":"31.9267","longitude":"5.3582"},{"name":"Sidi Amrane","latitude":"33.5","longitude":"6.0167"},{"name":"Tebesbest","latitude":"33.119","longitude":"6.0864"},{"name":"Touggourt","latitude":"33.1053","longitude":"6.058"}]},{"name":"Oum el Bouaghi","code":"29","cities":[{"name":"Ain Beida","latitude":"35.7964","longitude":"7.3928"},{"name":"Ain Fakroun","latitude":"35.9711","longitude":"6.8737"},{"name":"Ain Kercha","latitude":"36.0369","longitude":"6.5758"},{"name":"El Aouinet","latitude":"35.8667","longitude":"7.8944"},{"name":"Meskiana","latitude":"35.6306","longitude":"7.6661"},{"name":"Oum el Bouaghi","latitude":"35.8775","longitude":"7.1136"},{"name":"Sigus","latitude":"36.1236","longitude":"6.7858"}]},{"name":"Relizane","code":"51","cities":[{"name":"Ammi Moussa","latitude":"35.8689","longitude":"1.1158"},{"name":"Mazouna","latitude":"36.1223","longitude":"0.8986"},{"name":"Oued Rhiou","latitude":"35.9612","longitude":"0.919"},{"name":"Oued el Djemaa","latitude":"35.7956","longitude":"0.6794"},{"name":"Ouled Aiche","latitude":"35.8266","longitude":"0.9641"},{"name":"Relizane","latitude":"35.7425","longitude":"0.5592"},{"name":"Tamda","latitude":"36.1","longitude":"0.8833"}]},{"name":"Saida","code":"10","cities":[{"name":"Saida","latitude":"34.8333","longitude":"0.15"}]},{"name":"Sidi Bel Abbès","code":"30","cities":[{"name":"'Ain el Berd","latitude":"35.3649","longitude":"-0.5134"},{"name":"Chetouane","latitude":"34.9464","longitude":"-0.8371"},{"name":"Sfizef","latitude":"35.2327","longitude":"-0.2407"},{"name":"Sidi Bel Abbes","latitude":"35.1939","longitude":"-0.6414"},{"name":"Telagh","latitude":"34.7842","longitude":"-0.581"}]},{"name":"Skikda","code":"31","cities":[{"name":"Azzaba","latitude":"36.7394","longitude":"7.1053"},{"name":"Collo","latitude":"37.0072","longitude":"6.561"},{"name":"Skikda","latitude":"36.8792","longitude":"6.9067"},{"name":"Tamalous","latitude":"36.8376","longitude":"6.6402"}]},{"name":"Souk Ahras","code":"52","cities":[{"name":"Drea","latitude":"36.1214","longitude":"7.88"},{"name":"Sedrata","latitude":"36.1289","longitude":"7.5281"},{"name":"Souk Ahras","latitude":"36.2864","longitude":"7.9511"},{"name":"Taoura","latitude":"36.1675","longitude":"8.0403"}]},{"name":"Sétif","code":"12","cities":[{"name":"Bougaa","latitude":"36.3333","longitude":"5.0833"},{"name":"El Eulma","latitude":"36.1528","longitude":"5.6902"},{"name":"Fermatou","latitude":"36.2261","longitude":"5.3939"},{"name":"Guellal","latitude":"36.0335","longitude":"5.336"},{"name":"Salah Bey","latitude":"35.8545","longitude":"5.2905"},{"name":"Sétif","latitude":"36.1914","longitude":"5.4094"}]},{"name":"Tamanrasset","code":"53","cities":[{"name":"Tamanghasset","latitude":"22.785","longitude":"5.5228"}]},{"name":"Tiaret","code":"13","cities":[{"name":"Dahmouni","latitude":"35.4169","longitude":"1.4754"},{"name":"Frenda","latitude":"35.0654","longitude":"1.0494"},{"name":"Hassi Fedoul","latitude":"35.4383","longitude":"2.2142"},{"name":"Ksar Chellala","latitude":"35.2122","longitude":"2.3189"},{"name":"Sougueur","latitude":"35.1857","longitude":"1.4961"},{"name":"Tiaret","latitude":"35.3758","longitude":"1.3131"}]},{"name":"Tindouf","code":"54","cities":[{"name":"Tindouf","latitude":"27.6742","longitude":"-8.1478"}]},{"name":"Tipaza","code":"55","cities":[{"name":"Baba Hassen","latitude":"36.6956","longitude":"2.9725"},{"name":"Baraki","latitude":"36.7151","longitude":"3.1146"},{"name":"Bir Mourad Rais","latitude":"36.7445","longitude":"3.04"},{"name":"Bou Ismail","latitude":"36.6426","longitude":"2.6901"},{"name":"Bourkika","latitude":"36.4928","longitude":"2.4736"},{"name":"Bouzarea","latitude":"36.7833","longitude":"3.0167"},{"name":"Cheraga","latitude":"36.7669","longitude":"2.9611"},{"name":"Djisr Ksentina","latitude":"36.7997","longitude":"3.2472"},{"name":"Douéra","latitude":"36.6688","longitude":"2.9475"},{"name":"Draria","latitude":"36.7333","longitude":"3.0"},{"name":"El Biar","latitude":"36.7447","longitude":"3.114"},{"name":"Fouka","latitude":"36.6611","longitude":"2.7422"},{"name":"Hadjout","latitude":"36.5126","longitude":"2.4138"},{"name":"Kolea","latitude":"36.6389","longitude":"2.7684"},{"name":"La Trappe","latitude":"36.7333","longitude":"2.9167"},{"name":"Menaceur","latitude":"36.4939","longitude":"2.2478"},{"name":"Mouzaia","latitude":"36.465","longitude":"2.6883"},{"name":"Oued el Alleug","latitude":"36.5553","longitude":"2.7903"},{"name":"Ouled Beni Messous","latitude":"36.7829","longitude":"2.9782"},{"name":"Ouled Fayet","latitude":"36.7358","longitude":"2.9522"},{"name":"Saoula","latitude":"36.7022","longitude":"3.0218"},{"name":"Staoueli","latitude":"36.7545","longitude":"2.8856"},{"name":"Tipasa","latitude":"36.5897","longitude":"2.4475"},{"name":"Zeralda","latitude":"36.7147","longitude":"2.8433"}]},{"name":"Tissemsilt","code":"56","cities":[{"name":"Tissemsilt","latitude":"35.6078","longitude":"1.8111"}]},{"name":"Tizi Ouzou","code":"14","cities":[{"name":"Ait Hessane","latitude":"36.6667","longitude":"4.0667"},{"name":"Azazga","latitude":"36.7447","longitude":"4.3722"},{"name":"Beni Douala","latitude":"36.6195","longitude":"4.0828"},{"name":"Boghni","latitude":"36.5422","longitude":"3.9531"},{"name":"Boudjima","latitude":"36.8167","longitude":"4.15"},{"name":"Chemini","latitude":"36.6","longitude":"4.6167"},{"name":"Ighram","latitude":"36.4659","longitude":"4.5128"},{"name":"Mekla","latitude":"36.6869","longitude":"4.2669"},{"name":"Tigzirt","latitude":"36.8974","longitude":"4.1241"},{"name":"Timizart","latitude":"36.8","longitude":"4.2667"},{"name":"Tirmitine","latitude":"36.6583","longitude":"3.9858"},{"name":"Tizi Ouzou","latitude":"36.7169","longitude":"4.0497"},{"name":"Tizi Rached","latitude":"36.6688","longitude":"4.1941"},{"name":"Tizi-n-Tleta","latitude":"36.55","longitude":"4.05"}]},{"name":"Tlemcen","code":"15","cities":[{"name":"Bab el Assa","latitude":"34.961","longitude":"-2.0275"},{"name":"Beni Mester","latitude":"34.8714","longitude":"-1.4277"},{"name":"Bensekrane","latitude":"35.0667","longitude":"-1.2167"},{"name":"Ghazaouet","latitude":"35.1023","longitude":"-1.8568"},{"name":"Hennaya","latitude":"34.9514","longitude":"-1.3681"},{"name":"Maghnia","latitude":"34.8459","longitude":"-1.7287"},{"name":"Nedroma","latitude":"35.0136","longitude":"-1.748"},{"name":"Ouled Mimoun","latitude":"34.9084","longitude":"-1.0414"},{"name":"Remchi","latitude":"35.0671","longitude":"-1.4299"},{"name":"Sabra","latitude":"34.8303","longitude":"-1.524"},{"name":"Sebdou","latitude":"34.6405","longitude":"-1.3374"},{"name":"Tlemcen","latitude":"34.8783","longitude":"-1.315"}]},{"name":"Tébessa","code":"33","cities":[{"name":"Bir el Ater","latitude":"34.7327","longitude":"8.0531"},{"name":"Cheria","latitude":"35.2731","longitude":"7.7519"},{"name":"Hammamet","latitude":"35.4489","longitude":"7.9564"},{"name":"Ouenza","latitude":"35.9533","longitude":"8.1292"},{"name":"Tébessa","latitude":"35.4042","longitude":"8.1242"}]}]}