{"name":"Gabon","code":"GA","regions":[{"name":"Estuaire","code":"01","cities":[{"name":"Libreville","latitude":"0.381","longitude":"9.4487"}]},{"name":"Haut-Ogooué","code":"02","cities":[{"name":"Franceville","latitude":"-1.6333","longitude":"13.5833"}]},{"name":"Moyen-Ogooué","code":"03","cities":[{"name":"Anonebere","latitude":"-0.2667","longitude":"10.5167"},{"name":"Lambaréné","latitude":"-0.6961","longitude":"10.2173"},{"name":"Oyam","latitude":"-0.2","longitude":"10.6833"}]},{"name":"Ngouni","code":"04","cities":[{"name":"Mamagnia","latitude":"-1.1333","longitude":"11.85"},{"name":"Ndinghi","latitude":"-1.1667","longitude":"11.85"}]},{"name":"Nyanga","code":"05","cities":[{"name":"Mayumba","latitude":"-3.4167","longitude":"10.65"}]},{"name":"Ogooué-Ivindo","code":"06","cities":[{"name":"Makokou","latitude":"0.5667","longitude":"12.8667"}]},{"name":"Ogooué-Lolo","code":"07","cities":[{"name":"Dingui","latitude":"-1.1667","longitude":"11.85"},{"name":"Koulamoutou","latitude":"-1.1333","longitude":"12.4833"}]},{"name":"Ogooué-Maritime","code":"08","cities":[{"name":"Port-Gentil","latitude":"-0.7167","longitude":"8.7833"}]},{"name":"Woleu-Ntem","code":"09","cities":[{"name":"Oyem","latitude":"1.6202","longitude":"11.5826"}]}]}