{"name":"Georgia","code":"GE","regions":[{"name":"Abkhazia","code":"02","cities":[{"name":"Gagra","latitude":"43.3026","longitude":"40.2509"},{"name":"Gali","latitude":"42.6266","longitude":"41.7381"},{"name":"Sukhumi","latitude":"43.0026","longitude":"41.0185"}]},{"name":"Ajaria","code":"04","cities":[{"name":"Batumi","latitude":"41.6423","longitude":"41.6339"}]},{"name":"Guria","code":"65","cities":[{"name":"Gogolesubani","latitude":"42.0274","longitude":"42.2239"}]},{"name":"Imereti","code":"66","cities":[{"name":"Kutaisi","latitude":"42.2639","longitude":"42.6999"}]},{"name":"K'alak'i T'bilisi","code":"51","cities":[{"name":"Tbilisi","latitude":"41.6959","longitude":"44.832"}]},{"name":"Kakheti","code":"67","cities":[{"name":"Telavi","latitude":"41.9198","longitude":"45.4732"}]},{"name":"Kvemo Kartli","code":"68","cities":[{"name":"Marneuli","latitude":"41.4759","longitude":"44.8089"},{"name":"Vak'e","latitude":"41.3079","longitude":"44.2177"}]},{"name":"Mtskheta-Mtianeti","code":"69","cities":[{"name":"Mtskheta","latitude":"41.8407","longitude":"44.7185"},{"name":"Stepantsminda","latitude":"42.657","longitude":"44.6391"}]},{"name":"Racha-Lechkhumi and Kvemo Svaneti","code":"70","cities":[{"name":"Lentekhi","latitude":"42.7851","longitude":"42.7214"}]},{"name":"Samegrelo and Zemo Svaneti","code":"71","cities":[{"name":"Zugdidi","latitude":"42.5088","longitude":"41.8709"}]},{"name":"Samtskhe-Javakheti","code":"72","cities":[{"name":"Akhalts'ikhe","latitude":"41.639","longitude":"42.9826"}]},{"name":"Shida Kartli","code":"73","cities":[{"name":"Gori","latitude":"41.9842","longitude":"44.1158"},{"name":"Ts'khinvali","latitude":"42.2897","longitude":"43.8543"},{"name":"Velistsikhe","latitude":"41.8993","longitude":"43.8545"}]}]}