{"name":"Honduras","code":"HN","regions":[{"name":"Bay Islands","code":"11","cities":[{"name":"Utila","latitude":"16.0833","longitude":"-86.9"}]},{"name":"Departamento de Atlantida","code":"01","cities":[{"name":"Arizona","latitude":"15.6333","longitude":"-87.3167"},{"name":"El Porvenir","latitude":"15.75","longitude":"-86.9333"},{"name":"Jutiapa","latitude":"15.7667","longitude":"-86.5167"},{"name":"La Ceiba","latitude":"15.7833","longitude":"-86.8"},{"name":"Tela","latitude":"15.7833","longitude":"-87.45"}]},{"name":"Departamento de Choluteca","code":"02","cities":[{"name":"Ciudad Choluteca","latitude":"13.3003","longitude":"-87.1908"}]},{"name":"Departamento de Colon","code":"03","cities":[{"name":"Tocoa","latitude":"15.6833","longitude":"-86.0"},{"name":"Trujillo","latitude":"15.9167","longitude":"-86.0"}]},{"name":"Departamento de Comayagua","code":"04","cities":[{"name":"Comayagua","latitude":"14.45","longitude":"-87.6333"},{"name":"La Libertad","latitude":"14.447","longitude":"-87.4528"},{"name":"Siguatepeque","latitude":"14.6","longitude":"-87.8333"},{"name":"Taulabe","latitude":"14.7","longitude":"-87.9667"}]},{"name":"Departamento de Copan","code":"05","cities":[{"name":"Copán","latitude":"14.8333","longitude":"-89.15"},{"name":"Cucuyagua","latitude":"14.6549","longitude":"-88.869"},{"name":"La Entrada","latitude":"15.05","longitude":"-88.7333"},{"name":"Santa Rosa de Copán","latitude":"14.7705","longitude":"-88.7846"}]},{"name":"Departamento de Cortes","code":"06","cities":[{"name":"Choloma","latitude":"15.6173","longitude":"-87.9504"},{"name":"Cofradia","latitude":"15.3977","longitude":"-88.1524"},{"name":"Cortes","latitude":"15.6333","longitude":"-88.3"},{"name":"La Lima","latitude":"15.4333","longitude":"-87.9167"},{"name":"Omoa","latitude":"15.7664","longitude":"-88.0344"},{"name":"Puerto Cortez","latitude":"15.8833","longitude":"-87.95"},{"name":"San Manuel","latitude":"15.3333","longitude":"-87.9167"},{"name":"San Pedro Sula","latitude":"15.4967","longitude":"-88.0338"},{"name":"Santa Cruz de Yojoa","latitude":"14.9833","longitude":"-87.9"},{"name":"Villanueva","latitude":"15.3159","longitude":"-87.9987"}]},{"name":"Departamento de El Paraiso","code":"07","cities":[{"name":"Danli","latitude":"14.0333","longitude":"-86.5833"},{"name":"El Paraiso","latitude":"13.87","longitude":"-86.5479"},{"name":"La Paz","latitude":"13.5997","longitude":"-87.0967"}]},{"name":"Departamento de Francisco Morazan","code":"08","cities":[{"name":"Amarateca","latitude":"14.2333","longitude":"-87.3667"},{"name":"Comayaguela","latitude":"14.0833","longitude":"-87.2167"},{"name":"Talanga","latitude":"14.4","longitude":"-87.0833"},{"name":"Tegucigalpa","latitude":"14.1006","longitude":"-87.2152"},{"name":"Valle de Angeles","latitude":"14.15","longitude":"-87.0333"}]},{"name":"Departamento de Gracias a Dios","code":"09","cities":[{"name":"Puerto Lempira","latitude":"15.2667","longitude":"-83.7667"}]},{"name":"Departamento de Intibuca","code":"10","cities":[{"name":"La Esperanza","latitude":"14.3","longitude":"-88.1833"}]},{"name":"Departamento de La Paz","code":"12","cities":[{"name":"Cane","latitude":"14.2833","longitude":"-87.6667"}]},{"name":"Departamento de Lempira","code":"13","cities":[{"name":"Piraera","latitude":"14.0667","longitude":"-88.4667"}]},{"name":"Departamento de Olancho","code":"15","cities":[{"name":"Catacamas","latitude":"14.8","longitude":"-85.9"},{"name":"Juticalpa","latitude":"14.6504","longitude":"-86.203"},{"name":"La Guadalupe","latitude":"14.6833","longitude":"-86.8167"}]},{"name":"Departamento de Santa Barbara","code":"16","cities":[{"name":"Macuelizo","latitude":"15.3","longitude":"-88.5333"},{"name":"Quimistan","latitude":"15.35","longitude":"-88.4"},{"name":"Santa Barbara","latitude":"14.9167","longitude":"-88.2333"},{"name":"Sula","latitude":"15.25","longitude":"-88.5667"}]},{"name":"Departamento de Valle","code":"17","cities":[{"name":"Nacaome","latitude":"13.5377","longitude":"-87.4898"}]},{"name":"Departamento de Yoro","code":"18","cities":[{"name":"El Progreso","latitude":"15.4","longitude":"-87.8"},{"name":"La Esperanza","latitude":"15.0692","longitude":"-87.3515"},{"name":"Olanchito","latitude":"15.5","longitude":"-86.5667"}]}]}