{"name":"India","code":"IN","regions":[{"name":"Andaman and Nicobar","code":"01","cities":[{"name":"Port Blair","latitude":"11.6661","longitude":"92.7464"}]},{"name":"Andhra Pradesh","code":"02","cities":[{"name":"Addanki","latitude":"15.8106","longitude":"79.9734"},{"name":"Adoni","latitude":"15.6316","longitude":"77.2823"},{"name":"Agnigundala","latitude":"16.185","longitude":"79.7433"},{"name":"Akkampeta","latitude":"14.9301","longitude":"78.8991"},{"name":"Allagadda","latitude":"15.1322","longitude":"78.5138"},{"name":"Amalapuram","latitude":"16.5787","longitude":"82.0061"},{"name":"Amaravati","latitude":"16.5755","longitude":"80.3566"},{"name":"Ambajipeta","latitude":"16.5976","longitude":"81.9042"},{"name":"Ambakapalle","latitude":"14.4138","longitude":"78.1214"},{"name":"Ambativalasa","latitude":"18.1844","longitude":"83.3671"},{"name":"Anamasamudrampeta","latitude":"14.6913","longitude":"79.6779"},{"name":"Anantapur","latitude":"14.6771","longitude":"77.6138"},{"name":"Anaparthy","latitude":"16.9341","longitude":"81.9552"},{"name":"Annavaram","latitude":"17.28","longitude":"82.4049"},{"name":"Attili","latitude":"16.7","longitude":"81.6"},{"name":"Bapatla","latitude":"15.9042","longitude":"80.4674"},{"name":"Bhadrachalam","latitude":"14.5761","longitude":"80.1062"},{"name":"Bhadravaram","latitude":"17.2799","longitude":"82.141"},{"name":"Bhimadolu","latitude":"16.8136","longitude":"81.2653"},{"name":"Bhimavaram","latitude":"16.5408","longitude":"81.5232"},{"name":"Chagallu","latitude":"16.992","longitude":"81.6672"},{"name":"Chandrala","latitude":"16.7648","longitude":"80.7002"},{"name":"Chintalapeta","latitude":"18.1062","longitude":"83.134"},{"name":"Chintalapudi","latitude":"17.0719","longitude":"80.9854"},{"name":"Chirala","latitude":"15.8239","longitude":"80.3522"},{"name":"Chittavaram","latitude":"16.4665","longitude":"81.7224"},{"name":"Chittoor","latitude":"13.2105","longitude":"79.0956"},{"name":"Cumbum","latitude":"15.5808","longitude":"79.1026"},{"name":"Dargamitta","latitude":"14.4374","longitude":"79.9682"},{"name":"Darsi","latitude":"15.7698","longitude":"79.6794"},{"name":"Dharmajigudem","latitude":"16.8913","longitude":"80.9989"},{"name":"Dharmapuri","latitude":"13.1046","longitude":"78.648"},{"name":"Dharmavaram","latitude":"14.4144","longitude":"77.7203"},{"name":"Dhone","latitude":"15.3952","longitude":"77.8715"},{"name":"Eluru","latitude":"16.7131","longitude":"81.1044"},{"name":"Enikepadu","latitude":"16.5133","longitude":"80.7066"},{"name":"Ganapavaram","latitude":"16.6982","longitude":"81.4593"},{"name":"Gannavaram","latitude":"16.5409","longitude":"80.8021"},{"name":"Garividi","latitude":"18.2842","longitude":"83.5289"},{"name":"Gollamudi","latitude":"16.7828","longitude":"80.3535"},{"name":"Gollapudi","latitude":"16.5391","longitude":"80.5756"},{"name":"Gopalapuram","latitude":"15.1921","longitude":"78.4836"},{"name":"Gudipadu","latitude":"14.7656","longitude":"79.6583"},{"name":"Gudivada","latitude":"16.4355","longitude":"80.9955"},{"name":"Gudur","latitude":"14.1509","longitude":"79.8521"},{"name":"Gunadala","latitude":"16.5203","longitude":"80.6642"},{"name":"Guntakal","latitude":"15.1711","longitude":"77.3624"},{"name":"Guntur","latitude":"16.2997","longitude":"80.4573"},{"name":"Hindupur","latitude":"13.8281","longitude":"77.4914"},{"name":"Hukumpeta","latitude":"18.1336","longitude":"82.684"},{"name":"Jaggayyapeta","latitude":"16.8938","longitude":"80.0981"},{"name":"Jammalamadugu","latitude":"14.848","longitude":"78.3763"},{"name":"Kadapa","latitude":"14.48","longitude":"78.8235"},{"name":"Kadiri","latitude":"14.1117","longitude":"78.1598"},{"name":"Kaikalur","latitude":"16.5515","longitude":"81.214"},{"name":"Kakinada","latitude":"16.9604","longitude":"82.2381"},{"name":"Kandukur","latitude":"13.7644","longitude":"78.1566"},{"name":"Kanigiri","latitude":"15.4055","longitude":"79.5069"},{"name":"Kanuru","latitude":"16.2868","longitude":"81.2566"},{"name":"Karempudi","latitude":"16.429","longitude":"79.7206"},{"name":"Kavali","latitude":"14.9163","longitude":"79.9945"},{"name":"Kodur","latitude":"13.9588","longitude":"79.3545"},{"name":"Kovvur","latitude":"17.0162","longitude":"81.7293"},{"name":"Kuppam","latitude":"12.7493","longitude":"78.3419"},{"name":"Kurnool","latitude":"15.8289","longitude":"78.036"},{"name":"Lakkavaram","latitude":"15.6983","longitude":"79.7943"},{"name":"Lankam","latitude":"18.3692","longitude":"83.9037"},{"name":"Machavaram","latitude":"15.3689","longitude":"79.4841"},{"name":"Machilipatnam","latitude":"16.1875","longitude":"81.1389"},{"name":"Madanapalle","latitude":"13.5503","longitude":"78.5029"},{"name":"Madanapalli","latitude":"12.8229","longitude":"78.3707"},{"name":"Malkapuram","latitude":"15.7543","longitude":"79.9137"},{"name":"Mandapeta","latitude":"16.8625","longitude":"81.9292"},{"name":"Mangalagiri","latitude":"16.431","longitude":"80.5724"},{"name":"Markapur","latitude":"15.7353","longitude":"79.2685"},{"name":"Maruteru","latitude":"16.6231","longitude":"81.7364"},{"name":"Medarametla","latitude":"15.7248","longitude":"80.0197"},{"name":"Mummidivaram","latitude":"16.643","longitude":"82.1103"},{"name":"Nallajerla","latitude":"16.9448","longitude":"81.409"},{"name":"Nallamada","latitude":"14.1418","longitude":"77.9826"},{"name":"Namburu","latitude":"16.3578","longitude":"80.531"},{"name":"Nandigama","latitude":"16.7717","longitude":"80.286"},{"name":"Nandyal","latitude":"15.478","longitude":"78.4836"},{"name":"Narasaraopet","latitude":"16.2393","longitude":"80.0476"},{"name":"Narayanapuram","latitude":"13.7589","longitude":"79.6749"},{"name":"Narsapuram","latitude":"15.4307","longitude":"79.6125"},{"name":"Narsipatnam","latitude":"17.6671","longitude":"82.6124"},{"name":"Nellimarla","latitude":"18.1562","longitude":"83.4473"},{"name":"Nellore","latitude":"14.4499","longitude":"79.987"},{"name":"Nidadavole","latitude":"16.9057","longitude":"81.6722"},{"name":"Nuzvid","latitude":"16.7885","longitude":"80.8459"},{"name":"Ongole","latitude":"15.5036","longitude":"80.0445"},{"name":"Palakollu","latitude":"16.5167","longitude":"81.73"},{"name":"Pedana","latitude":"16.259","longitude":"81.1421"},{"name":"Peddapalli","latitude":"13.9402","longitude":"79.0065"},{"name":"Pithapuram","latitude":"17.1168","longitude":"82.2528"},{"name":"Podili","latitude":"15.6064","longitude":"79.6149"},{"name":"Poranki","latitude":"16.4758","longitude":"80.7007"},{"name":"Porumamilla","latitude":"15.0052","longitude":"78.9904"},{"name":"Proddatur","latitude":"14.7502","longitude":"78.5481"},{"name":"Puttaparthi","latitude":"14.1652","longitude":"77.8117"},{"name":"Rajahmundry","latitude":"17.0126","longitude":"81.7794"},{"name":"Rajampeta","latitude":"18.8074","longitude":"83.4196"},{"name":"Ramabhadrapuram","latitude":"18.4968","longitude":"83.2785"},{"name":"Ramachandrapuram","latitude":"16.8364","longitude":"82.0287"},{"name":"Ramapuram","latitude":"15.2875","longitude":"77.8672"},{"name":"Rampachodavaram","latitude":"17.445","longitude":"81.7758"},{"name":"Ravulapalem","latitude":"16.4793","longitude":"81.9825"},{"name":"Razole","latitude":"16.4794","longitude":"81.8368"},{"name":"Renigunta","latitude":"13.6505","longitude":"79.5085"},{"name":"Repalle","latitude":"16.0184","longitude":"80.8296"},{"name":"Rompicherla","latitude":"13.6747","longitude":"79.0468"},{"name":"Samalkot","latitude":"17.0568","longitude":"82.1764"},{"name":"Singarayakonda","latitude":"15.2334","longitude":"80.027"},{"name":"Srikakulam","latitude":"18.2989","longitude":"83.8926"},{"name":"Srikalahasti","latitude":"13.7551","longitude":"79.7014"},{"name":"Tanuku","latitude":"16.7544","longitude":"81.6814"},{"name":"Tekkali","latitude":"18.6064","longitude":"84.2313"},{"name":"Thenali","latitude":"16.2425","longitude":"80.6398"},{"name":"Tirumala - Tirupati","latitude":"13.641","longitude":"79.421"},{"name":"Undi","latitude":"16.5859","longitude":"81.4612"},{"name":"Velpuru","latitude":"16.5772","longitude":"80.1286"},{"name":"Vijayawada","latitude":"16.5074","longitude":"80.6466"},{"name":"Vinukonda","latitude":"16.0531","longitude":"79.7396"},{"name":"Visakhapatnam","latitude":"17.6801","longitude":"83.2016"},{"name":"Vizianagaram","latitude":"18.1169","longitude":"83.4115"},{"name":"Vuyyuru","latitude":"16.3631","longitude":"80.8441"},{"name":"Yanam","latitude":"16.7331","longitude":"82.2136"}]},{"name":"Arunachal Pradesh","code":"30","cities":[{"name":"Bomdila","latitude":"27.2635","longitude":"92.4227"},{"name":"Itanagar","latitude":"27.0869","longitude":"93.6099"},{"name":"Naharlagun","latitude":"27.1047","longitude":"93.6952"},{"name":"Nirjuli","latitude":"27.1329","longitude":"93.7465"},{"name":"Roing","latitude":"28.1417","longitude":"95.8436"}]},{"name":"Assam","code":"03","cities":[{"name":"Abhayapuri","latitude":"26.3248","longitude":"90.6888"},{"name":"Barama","latitude":"26.5251","longitude":"91.3494"},{"name":"Barpeta","latitude":"26.3299","longitude":"91.0103"},{"name":"Bijni","latitude":"26.4932","longitude":"90.6996"},{"name":"Biswanath Chariali","latitude":"26.7211","longitude":"93.1406"},{"name":"Bokajan","latitude":"26.0213","longitude":"93.7794"},{"name":"Bokakhat","latitude":"26.6402","longitude":"93.6005"},{"name":"Bongaigaon","latitude":"26.477","longitude":"90.5581"},{"name":"Chabua","latitude":"27.4826","longitude":"95.179"},{"name":"Dhekiajuli","latitude":"26.7021","longitude":"92.4813"},{"name":"Dhemaji","latitude":"27.4833","longitude":"94.5833"},{"name":"Dhing","latitude":"26.4679","longitude":"92.4734"},{"name":"Dhubri","latitude":"26.0186","longitude":"89.9856"},{"name":"Dibrugarh","latitude":"27.4799","longitude":"94.9084"},{"name":"Digboi","latitude":"27.3927","longitude":"95.6155"},{"name":"Diphu","latitude":"25.8403","longitude":"93.4337"},{"name":"Dispur","latitude":"26.1309","longitude":"91.8049"},{"name":"Goalpara","latitude":"26.1752","longitude":"90.6289"},{"name":"Gohpur","latitude":"26.8829","longitude":"93.6152"},{"name":"Golaghat","latitude":"26.5145","longitude":"93.9594"},{"name":"Guwahati","latitude":"26.1833","longitude":"91.7454"},{"name":"Haflong","latitude":"25.1632","longitude":"93.0168"},{"name":"Hailakandi","latitude":"24.6832","longitude":"92.5635"},{"name":"Hojai","latitude":"26.0032","longitude":"92.8554"},{"name":"Jagiroad","latitude":"26.2078","longitude":"92.406"},{"name":"Jakhalabandha","latitude":"26.5856","longitude":"92.97"},{"name":"Jorhat","latitude":"26.7575","longitude":"94.2031"},{"name":"Karimganj","latitude":"24.8653","longitude":"92.3566"},{"name":"Kokrajhar","latitude":"26.4011","longitude":"90.2729"},{"name":"Makum","latitude":"27.4865","longitude":"95.4365"},{"name":"Mangaldai","latitude":"26.4421","longitude":"92.0305"},{"name":"Morigaon","latitude":"26.2491","longitude":"92.3476"},{"name":"Nalbari","latitude":"26.6567","longitude":"91.9116"},{"name":"Nazira","latitude":"26.9165","longitude":"94.7361"},{"name":"North Lakhimpur","latitude":"27.2413","longitude":"94.1034"},{"name":"Pandu","latitude":"26.1691","longitude":"91.6771"},{"name":"Patharkandi","latitude":"24.6085","longitude":"92.3214"},{"name":"Rangia","latitude":"26.4493","longitude":"91.6136"},{"name":"Rowta","latitude":"26.7058","longitude":"92.2266"},{"name":"Sibsagar","latitude":"26.9843","longitude":"94.6378"},{"name":"Silchar","latitude":"24.8273","longitude":"92.7979"},{"name":"Simaluguri","latitude":"26.9202","longitude":"94.7531"},{"name":"Sonari","latitude":"27.0246","longitude":"95.0163"},{"name":"Sonitpur","latitude":"26.782","longitude":"92.4491"},{"name":"Tezpur","latitude":"26.6333","longitude":"92.8"},{"name":"Tihu","latitude":"26.4758","longitude":"91.2669"},{"name":"Tinsukia","latitude":"27.489","longitude":"95.3599"},{"name":"Udalguri","latitude":"26.7536","longitude":"92.1066"}]},{"name":"Bihar","code":"34","cities":[{"name":"Akorha","latitude":"24.7698","longitude":"84.1794"},{"name":"Amolwa","latitude":"27.1991","longitude":"84.495"},{"name":"Araria","latitude":"26.1493","longitude":"87.5132"},{"name":"Arrah","latitude":"25.5563","longitude":"84.6633"},{"name":"Aurangabad","latitude":"24.752","longitude":"84.3742"},{"name":"Babhnoul","latitude":"25.3202","longitude":"84.2127"},{"name":"Bakhri Dua","latitude":"25.8518","longitude":"85.4453"},{"name":"Bakhtiyarpur","latitude":"25.4618","longitude":"85.5318"},{"name":"Balhampur","latitude":"25.77","longitude":"86.5613"},{"name":"Ballia","latitude":"25.4214","longitude":"86.3144"},{"name":"Barari","latitude":"25.5068","longitude":"87.3761"},{"name":"Bargaon","latitude":"25.8989","longitude":"86.323"},{"name":"Barhiya","latitude":"25.2864","longitude":"86.0122"},{"name":"Begusarai","latitude":"25.4185","longitude":"86.1339"},{"name":"Bettiah","latitude":"26.8023","longitude":"84.5031"},{"name":"Bhagalpur","latitude":"25.2445","longitude":"86.9718"},{"name":"Bhatta Bazar","latitude":"25.7698","longitude":"87.481"},{"name":"Bihar Sharif","latitude":"25.2008","longitude":"85.5239"},{"name":"Bihariganj","latitude":"25.7341","longitude":"86.9884"},{"name":"Bihta","latitude":"25.5588","longitude":"84.8714"},{"name":"Bikramganj","latitude":"25.2107","longitude":"84.2551"},{"name":"Buxar","latitude":"25.5755","longitude":"83.9804"},{"name":"Chandparsa","latitude":"26.0541","longitude":"84.4323"},{"name":"Chanpatia","latitude":"27.1741","longitude":"84.5527"},{"name":"Chapra","latitude":"25.7803","longitude":"84.7471"},{"name":"Chhapra","latitude":"24.6683","longitude":"85.498"},{"name":"Darbhanga","latitude":"26.1487","longitude":"85.8973"},{"name":"Forbesganj","latitude":"26.3025","longitude":"87.2656"},{"name":"Gaya","latitude":"24.7969","longitude":"85.0038"},{"name":"Gopalganj","latitude":"26.4673","longitude":"84.4404"},{"name":"Hajipur","latitude":"25.6884","longitude":"85.2115"},{"name":"Harnaut","latitude":"25.3705","longitude":"85.5261"},{"name":"Hisua","latitude":"24.8336","longitude":"85.4173"},{"name":"Katihar","latitude":"25.5385","longitude":"87.5704"},{"name":"Kesariya","latitude":"26.3499","longitude":"84.8709"},{"name":"Khagaria","latitude":"25.5022","longitude":"86.4671"},{"name":"Khaira Tola","latitude":"26.8958","longitude":"84.1403"},{"name":"Kishanganj","latitude":"26.1022","longitude":"87.9553"},{"name":"Kochas","latitude":"25.234","longitude":"83.9215"},{"name":"Lalganj","latitude":"25.8689","longitude":"85.1739"},{"name":"Madhepura","latitude":"25.5641","longitude":"85.9808"},{"name":"Madhubani","latitude":"26.3537","longitude":"86.0717"},{"name":"Mahuwa","latitude":"25.8108","longitude":"85.4001"},{"name":"Motihari","latitude":"27.0983","longitude":"84.5492"},{"name":"Munger","latitude":"25.3746","longitude":"86.4745"},{"name":"Muzaffarpur","latitude":"26.1192","longitude":"85.3963"},{"name":"Narkatiaganj","latitude":"27.1038","longitude":"84.4618"},{"name":"Nawada","latitude":"24.8867","longitude":"85.5436"},{"name":"Patna","latitude":"25.5908","longitude":"85.1348"},{"name":"Purnea","latitude":"25.78","longitude":"87.47"},{"name":"Purnia","latitude":"25.7789","longitude":"87.4742"},{"name":"Raghunandanpur","latitude":"25.1724","longitude":"83.8003"},{"name":"Rajgir","latitude":"25.0242","longitude":"85.4208"},{"name":"Ramnagar","latitude":"27.1612","longitude":"84.3211"},{"name":"Raxaul","latitude":"26.9798","longitude":"84.8507"},{"name":"Saharsa","latitude":"25.875","longitude":"86.5961"},{"name":"Samastipur","latitude":"25.8622","longitude":"85.7795"},{"name":"Sarabe","latitude":"26.4698","longitude":"86.147"},{"name":"Sasaram","latitude":"24.9494","longitude":"84.0165"},{"name":"Sheohar","latitude":"26.513","longitude":"85.2975"},{"name":"Sitamarhi","latitude":"26.5936","longitude":"85.4906"},{"name":"Siwan","latitude":"26.221","longitude":"84.3561"},{"name":"Sonbarsa Raj","latitude":"25.6943","longitude":"86.7074"},{"name":"Sukhpur","latitude":"26.064","longitude":"86.5436"},{"name":"Supaul","latitude":"26.1153","longitude":"86.5951"},{"name":"Tajnipur","latitude":"25.3365","longitude":"85.6872"},{"name":"Tarwara","latitude":"26.2007","longitude":"84.4874"}]},{"name":"Chandigarh","code":"05","cities":[{"name":"Badheri","latitude":"30.7271","longitude":"76.7379"},{"name":"Chandigarh","latitude":"30.7366","longitude":"76.7925"}]},{"name":"Chhattisgarh","code":"37","cities":[{"name":"Ambikapur","latitude":"23.1189","longitude":"83.1954"},{"name":"Arjuni","latitude":"21.0246","longitude":"80.9169"},{"name":"Bacheli","latitude":"18.6806","longitude":"81.2674"},{"name":"Bahtarai","latitude":"22.0789","longitude":"82.0379"},{"name":"Balod","latitude":"20.7306","longitude":"81.2096"},{"name":"Bemetara","latitude":"21.7143","longitude":"81.5307"},{"name":"Bhatapara","latitude":"21.737","longitude":"81.9455"},{"name":"Bhilai","latitude":"21.2092","longitude":"81.4285"},{"name":"Bilaspur","latitude":"22.08","longitude":"82.1554"},{"name":"Boriguma","latitude":"19.0468","longitude":"82.5532"},{"name":"Dhamtari","latitude":"20.7072","longitude":"81.5487"},{"name":"Durg","latitude":"21.1915","longitude":"81.2762"},{"name":"Gharghoda","latitude":"22.1743","longitude":"83.3517"},{"name":"Gidam","latitude":"18.9777","longitude":"81.4006"},{"name":"Jagdalpur","latitude":"19.0814","longitude":"82.0213"},{"name":"Kanker","latitude":"20.2734","longitude":"81.4919"},{"name":"Kawardha","latitude":"22.0085","longitude":"81.2315"},{"name":"Khamtarai","latitude":"21.3647","longitude":"82.1989"},{"name":"Kirandul","latitude":"18.6365","longitude":"81.2583"},{"name":"Korba","latitude":"22.3458","longitude":"82.6963"},{"name":"Kunkuri","latitude":"22.7459","longitude":"83.9504"},{"name":"Mahasamund","latitude":"21.1074","longitude":"82.0948"},{"name":"Manendragarh","latitude":"23.2134","longitude":"82.2023"},{"name":"Mopka","latitude":"21.7923","longitude":"82.066"},{"name":"Naya Raipur","latitude":"21.1586","longitude":"81.7903"},{"name":"Raigarh","latitude":"21.8976","longitude":"83.3966"},{"name":"Raipur","latitude":"21.2333","longitude":"81.6333"},{"name":"Sarangarh","latitude":"21.5861","longitude":"83.0785"},{"name":"Surajpur","latitude":"23.2131","longitude":"82.864"},{"name":"Telipara","latitude":"21.8754","longitude":"81.0117"}]},{"name":"Dadra and Nagar Haveli","code":"06","cities":[{"name":"Silvassa","latitude":"20.2699","longitude":"72.9965"}]},{"name":"Daman and Diu","code":"32","cities":[{"name":"Daman","latitude":"20.4143","longitude":"72.8324"},{"name":"Diu","latitude":"20.7141","longitude":"70.9822"}]},{"name":"Goa","code":"33","cities":[{"name":"Agonda","latitude":"15.0507","longitude":"73.9814"},{"name":"Anjuna","latitude":"15.58","longitude":"73.7449"},{"name":"Assagao","latitude":"15.6029","longitude":"73.7595"},{"name":"Bambolim","latitude":"15.4597","longitude":"73.8535"},{"name":"Bardez","latitude":"15.6483","longitude":"73.8341"},{"name":"Calangute","latitude":"15.5439","longitude":"73.7553"},{"name":"Carambolim","latitude":"15.4852","longitude":"73.9257"},{"name":"Carmona","latitude":"15.204","longitude":"73.9582"},{"name":"Chicalim","latitude":"15.3984","longitude":"73.8422"},{"name":"Chinchinim","latitude":"15.2115","longitude":"73.9719"},{"name":"Colva","latitude":"15.2798","longitude":"73.9228"},{"name":"Cuncolim","latitude":"15.1768","longitude":"73.9908"},{"name":"Curchorem","latitude":"15.2635","longitude":"74.1088"},{"name":"Curtorim","latitude":"15.2785","longitude":"74.0236"},{"name":"Davorlim","latitude":"15.2742","longitude":"73.9956"},{"name":"Dona Paula","latitude":"15.4559","longitude":"73.8043"},{"name":"Guirdolim","latitude":"15.2833","longitude":"74.05"},{"name":"Loutolim","latitude":"15.3348","longitude":"73.9962"},{"name":"Madgaon","latitude":"15.275","longitude":"73.9579"},{"name":"Navelim","latitude":"15.2589","longitude":"73.9664"},{"name":"Nuvem","latitude":"15.3174","longitude":"73.9387"},{"name":"Old Goa","latitude":"15.4441","longitude":"73.8895"},{"name":"Panjim","latitude":"15.5017","longitude":"73.8225"},{"name":"Parra","latitude":"15.5796","longitude":"73.7941"},{"name":"Ponda","latitude":"15.4034","longitude":"74.0152"},{"name":"Saligao","latitude":"15.5536","longitude":"73.7904"},{"name":"Sancoale","latitude":"15.3779","longitude":"73.9035"},{"name":"Sanguem","latitude":"15.2321","longitude":"74.1493"},{"name":"Usgao","latitude":"15.4333","longitude":"74.0667"},{"name":"Vagator","latitude":"15.5982","longitude":"73.7491"},{"name":"Varca","latitude":"15.2329","longitude":"73.9427"},{"name":"Vasco da Gama","latitude":"15.3958","longitude":"73.8157"},{"name":"Verna","latitude":"15.3548","longitude":"73.9245"}]},{"name":"Gujarat","code":"09","cities":[{"name":"Adalaj","latitude":"23.1685","longitude":"72.5805"},{"name":"Ahmedabad","latitude":"23.0276","longitude":"72.5871"},{"name":"Alkapuri","latitude":"22.3125","longitude":"73.1771"},{"name":"Ambheti","latitude":"20.3814","longitude":"73.0169"},{"name":"Amrapur","latitude":"23.2322","longitude":"73.1969"},{"name":"Amreli","latitude":"21.5998","longitude":"71.2117"},{"name":"Amroli","latitude":"21.2487","longitude":"72.8357"},{"name":"Anand","latitude":"22.5525","longitude":"72.9552"},{"name":"Anjar","latitude":"23.1132","longitude":"70.0267"},{"name":"Ankleshwar","latitude":"21.6324","longitude":"72.99"},{"name":"Bamroda","latitude":"23.2782","longitude":"73.6567"},{"name":"Bardoli","latitude":"21.123","longitude":"73.1115"},{"name":"Bayad","latitude":"23.2234","longitude":"73.2149"},{"name":"Bhanvad","latitude":"21.929","longitude":"69.7781"},{"name":"Bharuch","latitude":"21.6948","longitude":"72.9805"},{"name":"Bhatha","latitude":"21.186","longitude":"72.7641"},{"name":"Bhavnagar","latitude":"21.7629","longitude":"72.1533"},{"name":"Bhiloda","latitude":"23.7644","longitude":"73.2479"},{"name":"Bhuj","latitude":"23.254","longitude":"69.6693"},{"name":"Bilimora","latitude":"20.7696","longitude":"72.9613"},{"name":"Borsad","latitude":"22.4079","longitude":"72.8982"},{"name":"Botad","latitude":"22.1692","longitude":"71.6667"},{"name":"Chandkheda","latitude":"23.1112","longitude":"72.5747"},{"name":"Charadva","latitude":"22.9236","longitude":"71.0269"},{"name":"Chhapi","latitude":"24.0323","longitude":"72.4006"},{"name":"Chikhli","latitude":"21.4667","longitude":"73.9667"},{"name":"Dahegam","latitude":"23.169","longitude":"72.8216"},{"name":"Dakor","latitude":"22.7527","longitude":"73.1497"},{"name":"Daxini Society","latitude":"22.9921","longitude":"72.607"},{"name":"Deesa","latitude":"24.2561","longitude":"72.1793"},{"name":"Dela","latitude":"23.1724","longitude":"73.7444"},{"name":"Dhansura","latitude":"23.348","longitude":"73.209"},{"name":"Dharampur","latitude":"20.5341","longitude":"73.176"},{"name":"Dhari","latitude":"21.3285","longitude":"71.0264"},{"name":"Dhoraji","latitude":"21.7336","longitude":"70.45"},{"name":"Dhrangadhra","latitude":"22.9917","longitude":"71.4679"},{"name":"Dhrol","latitude":"22.567","longitude":"70.4177"},{"name":"Dudhathal","latitude":"23.0812","longitude":"73.1722"},{"name":"Dwarka","latitude":"22.237","longitude":"68.9711"},{"name":"Gandevi","latitude":"20.8115","longitude":"73.0024"},{"name":"Gandhidham","latitude":"23.0803","longitude":"70.1341"},{"name":"Gandhinagar","latitude":"23.2167","longitude":"72.6833"},{"name":"Godhra","latitude":"22.7755","longitude":"73.6149"},{"name":"Gondal","latitude":"21.9607","longitude":"70.8025"},{"name":"Halol","latitude":"22.5032","longitude":"73.4724"},{"name":"Himatnagar","latitude":"23.5989","longitude":"72.966"},{"name":"Idar","latitude":"23.8414","longitude":"73.0007"},{"name":"Jambusar","latitude":"22.0559","longitude":"72.801"},{"name":"Jamnagar","latitude":"22.4661","longitude":"70.0691"},{"name":"Jasdan","latitude":"22.0371","longitude":"71.2079"},{"name":"Jetpur","latitude":"21.7576","longitude":"70.6317"},{"name":"Jhalod","latitude":"23.101","longitude":"74.1554"},{"name":"Junagadh","latitude":"21.5197","longitude":"70.4598"},{"name":"Kadi","latitude":"23.2991","longitude":"72.3336"},{"name":"Kalol","latitude":"22.6078","longitude":"73.4627"},{"name":"Kamrej","latitude":"21.2863","longitude":"72.9683"},{"name":"Kanodar","latitude":"24.0921","longitude":"72.3916"},{"name":"Kapadvanj","latitude":"23.02","longitude":"73.0741"},{"name":"Karamsad","latitude":"22.5424","longitude":"72.9039"},{"name":"Kathlal","latitude":"22.8973","longitude":"72.9951"},{"name":"Kawant","latitude":"22.0928","longitude":"74.0508"},{"name":"Khambhaliya","latitude":"22.2016","longitude":"69.6456"},{"name":"Khambhat","latitude":"22.3174","longitude":"72.6192"},{"name":"Kheda","latitude":"22.7522","longitude":"72.6853"},{"name":"Kheralu","latitude":"23.8853","longitude":"72.6187"},{"name":"Khergam","latitude":"20.6319","longitude":"73.0945"},{"name":"Khodiyarnagar","latitude":"22.9922","longitude":"72.5592"},{"name":"Kodinar","latitude":"20.7938","longitude":"70.699"},{"name":"Kosamba","latitude":"21.4642","longitude":"72.9571"},{"name":"Limbdi","latitude":"22.5677","longitude":"71.8106"},{"name":"Limkheda","latitude":"22.8346","longitude":"73.9921"},{"name":"Madhapar","latitude":"23.2412","longitude":"69.6674"},{"name":"Mahemdavad","latitude":"22.8236","longitude":"72.7555"},{"name":"Mahesana","latitude":"23.5986","longitude":"72.3847"},{"name":"Mahuva","latitude":"21.0882","longitude":"71.7617"},{"name":"Manavadar","latitude":"21.501","longitude":"70.1386"},{"name":"Mandvi","latitude":"22.8328","longitude":"69.3524"},{"name":"Mansa","latitude":"23.4256","longitude":"72.6574"},{"name":"Memnagar","latitude":"23.0522","longitude":"72.5338"},{"name":"Mithoi","latitude":"22.3157","longitude":"69.7672"},{"name":"Modasa","latitude":"23.4625","longitude":"73.2986"},{"name":"Morvi","latitude":"22.8205","longitude":"70.8403"},{"name":"Mundra","latitude":"22.8392","longitude":"69.7219"},{"name":"Nadiad","latitude":"22.6939","longitude":"72.8616"},{"name":"Naliya","latitude":"23.2567","longitude":"68.8276"},{"name":"Nandasan","latitude":"23.3741","longitude":"72.3995"},{"name":"Navsari","latitude":"20.9424","longitude":"72.9247"},{"name":"Paddhari","latitude":"22.4351","longitude":"70.5963"},{"name":"Palanpur","latitude":"24.1713","longitude":"72.4383"},{"name":"Palitana","latitude":"21.5252","longitude":"71.8231"},{"name":"Pardi","latitude":"20.5073","longitude":"72.9497"},{"name":"Patan","latitude":"23.8507","longitude":"72.1296"},{"name":"Patdi","latitude":"23.196","longitude":"71.7917"},{"name":"Petlad","latitude":"22.4768","longitude":"72.7999"},{"name":"Porbandar","latitude":"21.6422","longitude":"69.6093"},{"name":"Prantij","latitude":"23.4391","longitude":"72.8484"},{"name":"Radhanpur","latitude":"23.8292","longitude":"71.6024"},{"name":"Rajkot","latitude":"22.2916","longitude":"70.7932"},{"name":"Ranavav","latitude":"21.6907","longitude":"69.7507"},{"name":"Ranip","latitude":"23.0801","longitude":"72.5718"},{"name":"Rapar","latitude":"23.5777","longitude":"70.6496"},{"name":"Sagbara","latitude":"21.5445","longitude":"73.7917"},{"name":"Sanand","latitude":"22.9923","longitude":"72.3818"},{"name":"Savarkundla","latitude":"21.3346","longitude":"71.3095"},{"name":"Sinor","latitude":"21.9112","longitude":"73.3397"},{"name":"Songadh","latitude":"21.1697","longitude":"73.5636"},{"name":"Surat","latitude":"21.198","longitude":"72.83"},{"name":"Surendranagar","latitude":"22.7192","longitude":"71.6469"},{"name":"Talaja","latitude":"21.3572","longitude":"72.0373"},{"name":"Umreth","latitude":"22.6955","longitude":"73.1109"},{"name":"Unjha","latitude":"23.8037","longitude":"72.391"},{"name":"Vadgam","latitude":"23.3618","longitude":"71.7834"},{"name":"Vadodara","latitude":"22.3003","longitude":"73.2051"},{"name":"Vallabh Vidyanagar","latitude":"22.5333","longitude":"72.9"},{"name":"Valsad","latitude":"20.6101","longitude":"72.9343"},{"name":"Vapi","latitude":"20.3708","longitude":"72.9052"},{"name":"Veraval","latitude":"20.9077","longitude":"70.3679"},{"name":"Viramgam","latitude":"23.1181","longitude":"72.0533"},{"name":"Virpur","latitude":"23.1862","longitude":"73.4789"},{"name":"Visavadar","latitude":"21.3376","longitude":"70.7533"},{"name":"Visnagar","latitude":"23.6986","longitude":"72.5521"},{"name":"Vyara","latitude":"21.1108","longitude":"73.3936"},{"name":"Waghai","latitude":"20.767","longitude":"73.5027"}]},{"name":"Haryana","code":"10","cities":[{"name":"Adampur","latitude":"29.2803","longitude":"75.4682"},{"name":"Ahirka","latitude":"29.3524","longitude":"76.3025"},{"name":"Ahulana","latitude":"29.1194","longitude":"76.6469"},{"name":"Ambala","latitude":"30.3594","longitude":"76.7935"},{"name":"Asa Khera","latitude":"29.8052","longitude":"74.5798"},{"name":"Babail","latitude":"29.4289","longitude":"77.0493"},{"name":"Badhawar","latitude":"29.339","longitude":"75.9632"},{"name":"Bagthala","latitude":"30.0016","longitude":"76.7309"},{"name":"Bahadurgarh","latitude":"28.6929","longitude":"76.9356"},{"name":"Bahu Akbarpur","latitude":"28.91","longitude":"76.4767"},{"name":"Balachaur","latitude":"30.2315","longitude":"77.3799"},{"name":"Ballabgarh","latitude":"28.3374","longitude":"77.32"},{"name":"Barwala","latitude":"29.3675","longitude":"75.9081"},{"name":"Basana","latitude":"28.8939","longitude":"76.3718"},{"name":"Bhiwani","latitude":"28.793","longitude":"76.1397"},{"name":"Bilaspur","latitude":"30.308","longitude":"77.3018"},{"name":"Bir Mathana","latitude":"29.9912","longitude":"76.9233"},{"name":"Charkhi Dadri","latitude":"28.5917","longitude":"76.2716"},{"name":"Dabwali","latitude":"29.9487","longitude":"74.7387"},{"name":"Dhanaura","latitude":"30.2932","longitude":"77.1129"},{"name":"Dhareru","latitude":"28.7343","longitude":"76.2266"},{"name":"Faridabad","latitude":"28.4127","longitude":"77.3136"},{"name":"Fatehabad","latitude":"29.5153","longitude":"75.4555"},{"name":"Ganaur","latitude":"29.1302","longitude":"77.0183"},{"name":"Gharaunda","latitude":"29.5369","longitude":"76.9714"},{"name":"Gohana","latitude":"29.1378","longitude":"76.7025"},{"name":"Gurgaon","latitude":"28.4597","longitude":"77.0282"},{"name":"Hansi","latitude":"29.1024","longitude":"75.9625"},{"name":"Haryana","latitude":"29.6161","longitude":"76.9806"},{"name":"Hisar","latitude":"29.1501","longitude":"75.7176"},{"name":"Ismailabad","latitude":"30.1144","longitude":"76.666"},{"name":"Jagadhri","latitude":"30.1672","longitude":"77.3037"},{"name":"Jhajjar","latitude":"28.6063","longitude":"76.6565"},{"name":"Jind","latitude":"29.3158","longitude":"76.315"},{"name":"Jodhpur","latitude":"30.7649","longitude":"76.9522"},{"name":"Kaithal","latitude":"29.8015","longitude":"76.3996"},{"name":"Kalwan","latitude":"29.7054","longitude":"75.9714"},{"name":"Karnal","latitude":"29.6923","longitude":"76.986"},{"name":"Khandsa","latitude":"28.4348","longitude":"77.0034"},{"name":"Khirajpur","latitude":"29.7214","longitude":"77.1106"},{"name":"Kosli","latitude":"28.3971","longitude":"76.4806"},{"name":"Kurukshetra","latitude":"29.9657","longitude":"76.837"},{"name":"Ladwa","latitude":"29.9935","longitude":"77.0456"},{"name":"Mahendragarh","latitude":"28.2693","longitude":"76.1525"},{"name":"Mandi Dabwali","latitude":"29.9639","longitude":"74.6984"},{"name":"Murthal","latitude":"29.0402","longitude":"77.0927"},{"name":"Narnaul","latitude":"28.0444","longitude":"76.1083"},{"name":"Narwana","latitude":"29.599","longitude":"76.1193"},{"name":"Nigdhu","latitude":"29.8381","longitude":"76.7381"},{"name":"Nilokheri","latitude":"29.8362","longitude":"76.9345"},{"name":"Nuh","latitude":"28.103","longitude":"77.0014"},{"name":"Palwal","latitude":"28.1447","longitude":"77.3255"},{"name":"Panchkula","latitude":"30.6946","longitude":"76.8504"},{"name":"Panipat","latitude":"29.3885","longitude":"76.9669"},{"name":"Pehowa","latitude":"29.979","longitude":"76.5825"},{"name":"Pundri","latitude":"29.7626","longitude":"76.5633"},{"name":"Radaur","latitude":"30.027","longitude":"77.1543"},{"name":"Ratia","latitude":"29.6926","longitude":"75.5779"},{"name":"Rewari","latitude":"28.199","longitude":"76.6183"},{"name":"Rohtak","latitude":"28.8964","longitude":"76.5909"},{"name":"Sadhaura","latitude":"30.3888","longitude":"77.2227"},{"name":"Safidon","latitude":"29.406","longitude":"76.6704"},{"name":"Sampla","latitude":"28.7799","longitude":"76.775"},{"name":"Satnali","latitude":"28.3817","longitude":"75.9635"},{"name":"Sirsa","latitude":"29.5349","longitude":"75.029"},{"name":"Sohna","latitude":"28.244","longitude":"77.0582"},{"name":"Sonipat","latitude":"28.9933","longitude":"77.021"},{"name":"Taoru","latitude":"28.214","longitude":"76.9439"},{"name":"Tohana","latitude":"29.7133","longitude":"75.9044"},{"name":"Yamunanagar","latitude":"30.128","longitude":"77.2837"}]},{"name":"Himachal Pradesh","code":"11","cities":[{"name":"Amb","latitude":"31.6886","longitude":"76.1235"},{"name":"Arki","latitude":"31.152","longitude":"76.9668"},{"name":"Auli","latitude":"31.4239","longitude":"77.0127"},{"name":"Baddi","latitude":"30.9578","longitude":"76.7914"},{"name":"Baduhi","latitude":"32.2943","longitude":"75.8155"},{"name":"Balh Churani","latitude":"31.4303","longitude":"76.7716"},{"name":"Banala","latitude":"30.9734","longitude":"77.4693"},{"name":"Banjar","latitude":"31.6381","longitude":"77.3499"},{"name":"Bari","latitude":"31.3888","longitude":"77.0582"},{"name":"Bhuntar","latitude":"31.86","longitude":"77.15"},{"name":"Bilaspur","latitude":"31.3303","longitude":"76.7566"},{"name":"Chamba","latitude":"32.5553","longitude":"76.1265"},{"name":"Dagshai","latitude":"30.8843","longitude":"77.0523"},{"name":"Daulatpur","latitude":"31.7895","longitude":"75.9961"},{"name":"Dharamsala","latitude":"32.2201","longitude":"76.3201"},{"name":"Garli","latitude":"31.8051","longitude":"76.238"},{"name":"Ghumarwin","latitude":"31.4458","longitude":"76.7177"},{"name":"Hamirpur","latitude":"31.6841","longitude":"76.5251"},{"name":"Jari","latitude":"31.9965","longitude":"77.2441"},{"name":"Kangra","latitude":"30.5472","longitude":"77.7308"},{"name":"Karsog","latitude":"31.3881","longitude":"77.2092"},{"name":"Kasauli","latitude":"30.9011","longitude":"76.963"},{"name":"Kotla","latitude":"31.2037","longitude":"77.1049"},{"name":"Manali","latitude":"32.2574","longitude":"77.1748"},{"name":"Mandi","latitude":"31.7126","longitude":"76.9328"},{"name":"Nadaun","latitude":"31.7855","longitude":"76.3399"},{"name":"Nahan","latitude":"30.5603","longitude":"77.2943"},{"name":"Nalagarh","latitude":"31.0439","longitude":"76.7223"},{"name":"Narkanda","latitude":"31.257","longitude":"77.4612"},{"name":"Nurpur","latitude":"32.3015","longitude":"75.8848"},{"name":"Palampur","latitude":"32.1145","longitude":"76.5568"},{"name":"Paonta Sahib","latitude":"30.4367","longitude":"77.6246"},{"name":"Parwanoo","latitude":"30.8372","longitude":"76.9614"},{"name":"Rajgarh","latitude":"30.8519","longitude":"77.2926"},{"name":"Rampur","latitude":"31.4521","longitude":"77.6326"},{"name":"Rohru","latitude":"31.1996","longitude":"77.7551"},{"name":"Shahpur","latitude":"30.9923","longitude":"76.7673"},{"name":"Shamshi","latitude":"31.8634","longitude":"77.144"},{"name":"Shimla","latitude":"31.1034","longitude":"77.1659"},{"name":"Solan","latitude":"30.9085","longitude":"77.1022"},{"name":"Tanda","latitude":"32.1167","longitude":"75.6773"},{"name":"Theog","latitude":"31.122","longitude":"77.3627"},{"name":"Una","latitude":"31.4649","longitude":"76.2691"}]},{"name":"Jammu and Kashmir","code":"12","cities":[{"name":"Anantnag","latitude":"33.7322","longitude":"75.1538"},{"name":"Ban","latitude":"33.7133","longitude":"74.3859"},{"name":"Banihal","latitude":"33.4329","longitude":"75.1954"},{"name":"Doda","latitude":"33.1516","longitude":"75.5506"},{"name":"Gandarbal","latitude":"34.2262","longitude":"74.7748"},{"name":"Jammu","latitude":"32.7376","longitude":"74.8673"},{"name":"Kathua","latitude":"32.3694","longitude":"75.5254"},{"name":"Katra","latitude":"32.9933","longitude":"74.9247"},{"name":"Kishtwar","latitude":"33.3196","longitude":"75.7608"},{"name":"Kulgam","latitude":"33.6476","longitude":"75.0163"},{"name":"Kupw훮ra","latitude":"34.0306","longitude":"74.2642"},{"name":"Pulwama","latitude":"33.8729","longitude":"74.901"},{"name":"Samba","latitude":"32.5662","longitude":"75.1283"},{"name":"Srinagar","latitude":"34.0857","longitude":"74.8055"},{"name":"Sumbal","latitude":"34.2342","longitude":"74.6468"},{"name":"Talab Tillo","latitude":"32.7347","longitude":"74.8333"},{"name":"Udhampur","latitude":"32.9243","longitude":"75.1357"}]},{"name":"Jharkhand","code":"38","cities":[{"name":"Adardih","latitude":"23.1073","longitude":"85.8916"},{"name":"Asansol","latitude":"24.0892","longitude":"86.8188"},{"name":"Baidmara","latitude":"22.604","longitude":"85.533"},{"name":"Bara Ghaghra","latitude":"23.3288","longitude":"85.3458"},{"name":"Barharwa","latitude":"24.8571","longitude":"87.779"},{"name":"Bariatu","latitude":"23.3958","longitude":"85.3529"},{"name":"Barughutu","latitude":"23.8038","longitude":"85.5555"},{"name":"Bhurkunda","latitude":"23.6575","longitude":"85.3519"},{"name":"Bokaro Steel City","latitude":"23.7871","longitude":"85.9564"},{"name":"Chatra","latitude":"24.2025","longitude":"84.8705"},{"name":"Deoghar","latitude":"24.4898","longitude":"86.699"},{"name":"Dhanbad","latitude":"23.802","longitude":"86.4432"},{"name":"Durgapur","latitude":"24.2788","longitude":"86.3584"},{"name":"Giridih","latitude":"24.1862","longitude":"86.3088"},{"name":"Godda","latitude":"24.8269","longitude":"87.2181"},{"name":"Gua","latitude":"22.2136","longitude":"85.3877"},{"name":"Gumia","latitude":"23.7975","longitude":"85.8252"},{"name":"Hazaribagh","latitude":"23.9924","longitude":"85.3616"},{"name":"Jamshedpur","latitude":"22.8057","longitude":"86.1804"},{"name":"Khunti","latitude":"23.076","longitude":"85.2782"},{"name":"Kusunda","latitude":"23.7697","longitude":"86.3821"},{"name":"Lohardaga","latitude":"23.4331","longitude":"84.6799"},{"name":"Madhupur","latitude":"24.2742","longitude":"86.6393"},{"name":"Maithon","latitude":"23.78","longitude":"86.81"},{"name":"Medininagar","latitude":"24.0427","longitude":"84.0628"},{"name":"Mesra","latitude":"23.4339","longitude":"85.4152"},{"name":"Pakur","latitude":"24.6393","longitude":"87.8424"},{"name":"Palamu","latitude":"23.8306","longitude":"85.9643"},{"name":"Ramgarh","latitude":"23.6328","longitude":"85.525"},{"name":"Ranchi","latitude":"23.3426","longitude":"85.3099"},{"name":"Sahibganj","latitude":"25.2464","longitude":"87.6342"},{"name":"Torpa","latitude":"22.9361","longitude":"85.0889"}]},{"name":"Karnataka","code":"19","cities":[{"name":"Agarkhed","latitude":"17.3134","longitude":"76.0606"},{"name":"Alanahalli","latitude":"12.2393","longitude":"76.4547"},{"name":"Amruthahalli","latitude":"13.0618","longitude":"77.5987"},{"name":"Anegundi","latitude":"15.3495","longitude":"76.4956"},{"name":"Angol","latitude":"15.8196","longitude":"74.5037"},{"name":"Athani","latitude":"16.7245","longitude":"75.0638"},{"name":"Bagalkot","latitude":"16.1891","longitude":"75.6914"},{"name":"Balehonnur","latitude":"13.35","longitude":"75.4653"},{"name":"Bangarapet","latitude":"12.9914","longitude":"78.1773"},{"name":"Barebettu","latitude":"12.7882","longitude":"75.0504"},{"name":"Belaguru","latitude":"13.4656","longitude":"75.3375"},{"name":"Belgaum","latitude":"15.8521","longitude":"74.5045"},{"name":"Bellary","latitude":"15.142","longitude":"76.924"},{"name":"Bengaluru","latitude":"12.9721","longitude":"77.5933"},{"name":"Bhadravati","latitude":"13.8485","longitude":"75.705"},{"name":"Bhatkal","latitude":"13.9824","longitude":"74.5523"},{"name":"Bhoj","latitude":"16.5403","longitude":"74.4399"},{"name":"Bidar","latitude":"17.9133","longitude":"77.5301"},{"name":"Bijapur","latitude":"16.8277","longitude":"75.7176"},{"name":"Bittangala","latitude":"12.1757","longitude":"75.844"},{"name":"Bommanahalli","latitude":"13.6401","longitude":"77.7478"},{"name":"Bommasandra","latitude":"13.2105","longitude":"78.1098"},{"name":"Byahatti","latitude":"15.4495","longitude":"75.2051"},{"name":"Chamrajnagar","latitude":"11.9239","longitude":"76.9318"},{"name":"Chikmagal큰r","latitude":"13.3223","longitude":"75.774"},{"name":"Chinchali","latitude":"16.5651","longitude":"74.8153"},{"name":"Chincholi","latitude":"17.4651","longitude":"77.4187"},{"name":"Chintamani","latitude":"13.3994","longitude":"78.0524"},{"name":"Chitradurga","latitude":"14.2237","longitude":"76.4021"},{"name":"Dandeli","latitude":"15.2667","longitude":"74.6167"},{"name":"Davangere","latitude":"14.4663","longitude":"75.9186"},{"name":"Devadurga","latitude":"16.4231","longitude":"76.9358"},{"name":"Dharwad","latitude":"15.4601","longitude":"75.0078"},{"name":"Electronics City","latitude":"12.8459","longitude":"77.6742"},{"name":"Gadag","latitude":"15.4298","longitude":"75.6297"},{"name":"Gokak","latitude":"16.1655","longitude":"74.8223"},{"name":"Gonikoppal","latitude":"12.1796","longitude":"75.9296"},{"name":"Gulbarga","latitude":"17.3358","longitude":"76.8376"},{"name":"Hangal","latitude":"14.7646","longitude":"75.1246"},{"name":"Harihar","latitude":"14.5129","longitude":"75.8072"},{"name":"Hassan","latitude":"13.0071","longitude":"76.0962"},{"name":"Haveri","latitude":"14.7935","longitude":"75.4045"},{"name":"Hirebenn큰r","latitude":"17.2541","longitude":"76.9997"},{"name":"Honnali","latitude":"14.2398","longitude":"75.6451"},{"name":"Hoodi","latitude":"12.9882","longitude":"77.7219"},{"name":"Hosahalli","latitude":"12.7637","longitude":"77.1693"},{"name":"Hospet","latitude":"15.2695","longitude":"76.3871"},{"name":"Hubli","latitude":"15.3459","longitude":"75.1301"},{"name":"Hunsur","latitude":"12.3017","longitude":"76.2845"},{"name":"Ilkal","latitude":"15.9572","longitude":"76.1184"},{"name":"Karkala","latitude":"13.2084","longitude":"74.9969"},{"name":"Karwar","latitude":"14.8136","longitude":"74.1297"},{"name":"Kembhavi","latitude":"16.6496","longitude":"76.5322"},{"name":"Kolar","latitude":"13.1377","longitude":"78.13"},{"name":"Konaje","latitude":"12.8199","longitude":"74.9194"},{"name":"Koppa","latitude":"13.5271","longitude":"75.3608"},{"name":"Koppal","latitude":"15.3452","longitude":"76.1548"},{"name":"Krishnarajapuram","latitude":"13.0021","longitude":"78.2576"},{"name":"Kumta","latitude":"14.4288","longitude":"74.4227"},{"name":"Kushalnagar","latitude":"12.4593","longitude":"75.9614"},{"name":"Kutta","latitude":"11.9714","longitude":"76.0481"},{"name":"Lokapur","latitude":"16.1636","longitude":"75.3687"},{"name":"Madavara","latitude":"13.4771","longitude":"77.2684"},{"name":"Maddur","latitude":"12.5828","longitude":"77.0429"},{"name":"Madikeri","latitude":"12.426","longitude":"75.7382"},{"name":"Mahalingpur","latitude":"16.3945","longitude":"75.1103"},{"name":"Mandya","latitude":"12.5223","longitude":"76.8975"},{"name":"Mangalore","latitude":"12.9172","longitude":"74.856"},{"name":"Manipal","latitude":"13.35","longitude":"74.7833"},{"name":"Mudgal","latitude":"16.0135","longitude":"76.4386"},{"name":"Mudhol","latitude":"16.338","longitude":"75.2847"},{"name":"Mulki","latitude":"13.0969","longitude":"74.793"},{"name":"Mundgod","latitude":"14.9744","longitude":"75.0341"},{"name":"Mysore","latitude":"12.2979","longitude":"76.6393"},{"name":"Old Hubli","latitude":"15.3338","longitude":"75.1349"},{"name":"Puttur","latitude":"12.7598","longitude":"75.2017"},{"name":"Raichur","latitude":"16.2055","longitude":"77.3557"},{"name":"Ranibennur","latitude":"14.6224","longitude":"75.6295"},{"name":"Sagar","latitude":"14.1649","longitude":"75.0332"},{"name":"Savanur","latitude":"14.9738","longitude":"75.3447"},{"name":"Shahabad","latitude":"17.1336","longitude":"76.9407"},{"name":"Shimoga","latitude":"13.9316","longitude":"75.5679"},{"name":"Shirali","latitude":"14.0297","longitude":"74.528"},{"name":"Shorapur","latitude":"16.521","longitude":"76.7574"},{"name":"Sidlaghatta","latitude":"13.3918","longitude":"77.8664"},{"name":"Sirsi","latitude":"14.6207","longitude":"74.8355"},{"name":"Somvarpet","latitude":"12.5996","longitude":"75.8486"},{"name":"Sringeri","latitude":"13.4154","longitude":"75.2538"},{"name":"Sullia","latitude":"12.5605","longitude":"75.3866"},{"name":"Tekkatte","latitude":"13.5514","longitude":"74.7011"},{"name":"Tiptur","latitude":"13.2563","longitude":"76.4777"},{"name":"Tumk큰r","latitude":"13.3414","longitude":"77.1022"},{"name":"Udupi","latitude":"13.3347","longitude":"74.7462"},{"name":"Yeshwanthpur","latitude":"13.0301","longitude":"77.5405"}]},{"name":"Kerala","code":"13","cities":[{"name":"Alappuzha","latitude":"9.49","longitude":"76.3264"},{"name":"Aluva","latitude":"10.1076","longitude":"76.3516"},{"name":"Amayur","latitude":"11.1702","longitude":"76.0914"},{"name":"Ambalavayal","latitude":"11.619","longitude":"76.2102"},{"name":"Amballur","latitude":"10.4343","longitude":"76.2634"},{"name":"Anchal","latitude":"8.9287","longitude":"76.9163"},{"name":"Aniyaram","latitude":"11.7409","longitude":"75.5793"},{"name":"Aroor","latitude":"9.8731","longitude":"76.3087"},{"name":"Attadappa","latitude":"11.8636","longitude":"75.4352"},{"name":"Attingal","latitude":"8.6923","longitude":"76.8175"},{"name":"Ayilakkad","latitude":"10.7694","longitude":"75.9874"},{"name":"Ayur","latitude":"8.8977","longitude":"76.8608"},{"name":"Bedradka","latitude":"12.5575","longitude":"74.9866"},{"name":"Chappanangadi","latitude":"10.9991","longitude":"76.0577"},{"name":"Chayalode","latitude":"9.1286","longitude":"76.796"},{"name":"Chengannur","latitude":"9.3157","longitude":"76.6151"},{"name":"Cherai","latitude":"9.977","longitude":"76.27"},{"name":"Cherpulassery","latitude":"10.8778","longitude":"76.3066"},{"name":"Cherthala","latitude":"9.6844","longitude":"76.3356"},{"name":"Chirakkal","latitude":"11.9126","longitude":"75.361"},{"name":"Chiyyaram","latitude":"10.4924","longitude":"76.2287"},{"name":"Edakkara","latitude":"11.3772","longitude":"75.78"},{"name":"Edappal","latitude":"10.7834","longitude":"76.0079"},{"name":"Edavilangu","latitude":"10.2403","longitude":"76.171"},{"name":"Eranellur","latitude":"10.9746","longitude":"75.8965"},{"name":"Ernakulam","latitude":"9.967","longitude":"76.2917"},{"name":"Ettumanoor","latitude":"9.67","longitude":"76.57"},{"name":"Ferokh","latitude":"11.1799","longitude":"75.8414"},{"name":"Haripad","latitude":"9.2836","longitude":"76.4552"},{"name":"Harippad","latitude":"9.2819","longitude":"76.4549"},{"name":"Idukki","latitude":"9.8463","longitude":"76.9685"},{"name":"Irinjalakuda","latitude":"10.3424","longitude":"76.2112"},{"name":"Iritty","latitude":"11.9899","longitude":"75.6714"},{"name":"Kadannamanna","latitude":"11.0395","longitude":"76.1636"},{"name":"Kakkanad","latitude":"10.0164","longitude":"76.3417"},{"name":"Kalamasseri","latitude":"10.0664","longitude":"76.3249"},{"name":"Kallambalam","latitude":"8.7646","longitude":"76.7885"},{"name":"Kanhangad","latitude":"12.3081","longitude":"75.1063"},{"name":"Kannur","latitude":"11.8667","longitude":"75.3498"},{"name":"Kasaragod","latitude":"12.4984","longitude":"74.9896"},{"name":"Kattanam","latitude":"9.1761","longitude":"76.5632"},{"name":"Kavida","latitude":"10.6157","longitude":"76.022"},{"name":"Kayamkulam","latitude":"9.1817","longitude":"76.5009"},{"name":"Kazhakuttam","latitude":"8.5645","longitude":"76.8749"},{"name":"Kochi","latitude":"9.9406","longitude":"76.2625"},{"name":"Kodungallur","latitude":"10.2326","longitude":"76.1951"},{"name":"Kolathur","latitude":"11.8319","longitude":"76.0891"},{"name":"Kolenchery","latitude":"9.9778","longitude":"76.4721"},{"name":"Kollam","latitude":"8.8812","longitude":"76.5855"},{"name":"Kommeri","latitude":"11.855","longitude":"75.7274"},{"name":"Kondotty","latitude":"11.1442","longitude":"75.9646"},{"name":"Kotancheri","latitude":"11.4456","longitude":"76.0122"},{"name":"Kothamangalam","latitude":"11.4381","longitude":"75.7032"},{"name":"Kottakkal","latitude":"11.0009","longitude":"76.0062"},{"name":"Kottarakara","latitude":"9.0036","longitude":"76.7738"},{"name":"Kottayam","latitude":"9.5869","longitude":"76.5213"},{"name":"Kottukal","latitude":"8.8974","longitude":"76.9048"},{"name":"Kozhikode","latitude":"11.2471","longitude":"75.7799"},{"name":"Kunnamkulam","latitude":"10.6487","longitude":"76.0739"},{"name":"Mahe","latitude":"11.7017","longitude":"75.5347"},{"name":"Makkaraparamba","latitude":"11.0137","longitude":"76.1321"},{"name":"Mala","latitude":"10.7739","longitude":"76.1132"},{"name":"Malappuram","latitude":"11.0372","longitude":"76.0795"},{"name":"Manjeri","latitude":"11.1202","longitude":"76.12"},{"name":"Mankada","latitude":"11.0105","longitude":"76.1859"},{"name":"Maradu","latitude":"9.9365","longitude":"76.3238"},{"name":"Mattam","latitude":"10.5957","longitude":"76.096"},{"name":"Mattathur","latitude":"10.3722","longitude":"76.3502"},{"name":"Mavelikara","latitude":"9.2593","longitude":"76.5564"},{"name":"Mongam","latitude":"11.1367","longitude":"76.0352"},{"name":"Mukkulam","latitude":"9.6133","longitude":"76.8895"},{"name":"Mundamveli","latitude":"9.9201","longitude":"76.2559"},{"name":"Munnar","latitude":"10.0882","longitude":"77.0624"},{"name":"Muvattupuzha","latitude":"9.9799","longitude":"76.5738"},{"name":"Nadakkavu","latitude":"11.2708","longitude":"75.7764"},{"name":"Nadapuram","latitude":"11.6846","longitude":"75.6549"},{"name":"Nedumangad","latitude":"8.6027","longitude":"77.0014"},{"name":"Nedumbassery","latitude":"10.1569","longitude":"76.4054"},{"name":"Nedumkandam","latitude":"9.8364","longitude":"77.1586"},{"name":"Nilambur","latitude":"11.2727","longitude":"76.2257"},{"name":"Nileshwar","latitude":"12.2573","longitude":"75.134"},{"name":"Ochanthuruth","latitude":"10.0056","longitude":"76.2391"},{"name":"Ochira","latitude":"9.1348","longitude":"76.5117"},{"name":"Ottapalam","latitude":"11.7219","longitude":"76.3123"},{"name":"Ottappalam","latitude":"10.7674","longitude":"76.3787"},{"name":"Padanilam","latitude":"9.199","longitude":"76.617"},{"name":"Palakkad","latitude":"10.7732","longitude":"76.6537"},{"name":"Palazhi","latitude":"11.2515","longitude":"75.8449"},{"name":"Panamaram","latitude":"11.7413","longitude":"76.0736"},{"name":"Panampilly Nagar","latitude":"9.9587","longitude":"76.2982"},{"name":"Panangattur","latitude":"10.9875","longitude":"75.8909"},{"name":"Parappanangadi","latitude":"11.0464","longitude":"75.8636"},{"name":"Pathanamthitta","latitude":"9.2667","longitude":"76.7833"},{"name":"Pattambi","latitude":"10.8001","longitude":"76.1841"},{"name":"Payyanur","latitude":"12.0935","longitude":"75.2025"},{"name":"Perintalmanna","latitude":"10.9775","longitude":"76.2269"},{"name":"Perumbavoor","latitude":"10.1069","longitude":"76.4737"},{"name":"Ponnani","latitude":"10.7653","longitude":"75.9214"},{"name":"Punalur","latitude":"9.0202","longitude":"76.9267"},{"name":"Shoranur","latitude":"10.7624","longitude":"76.2744"},{"name":"Taliparamba","latitude":"12.0446","longitude":"75.357"},{"name":"Tellicherry","latitude":"11.7481","longitude":"75.4929"},{"name":"Thodupuzha","latitude":"9.8933","longitude":"76.717"},{"name":"Thrissur","latitude":"10.516","longitude":"76.2157"},{"name":"Tirur","latitude":"10.9137","longitude":"75.9212"},{"name":"Tirurangadi","latitude":"11.0451","longitude":"75.9217"},{"name":"Tiruvalla","latitude":"9.3816","longitude":"76.5749"},{"name":"Trivandrum","latitude":"8.4827","longitude":"76.9479"},{"name":"Valluvambram","latitude":"11.1263","longitude":"76.0456"},{"name":"Varkala","latitude":"8.733","longitude":"76.71"},{"name":"Vayalar","latitude":"9.7093","longitude":"76.3436"},{"name":"Vazhuthacaud","latitude":"8.5037","longitude":"76.9604"},{"name":"Venmony","latitude":"9.2434","longitude":"76.6315"},{"name":"Vyttila","latitude":"9.9658","longitude":"76.3198"}]},{"name":"Ladakh","code":"LA","cities":[{"name":"Kargil","latitude":"34.556","longitude":"76.1279"}]},{"name":"Lakshadweep","code":"LD","cities":[{"name":"Kalpeni","latitude":"10.0826","longitude":"73.6432"},{"name":"Kavaratti","latitude":"10.5688","longitude":"72.634"}]},{"name":"Madhya Pradesh","code":"35","cities":[{"name":"Adhartal","latitude":"23.2043","longitude":"79.9512"},{"name":"Agar","latitude":"23.714","longitude":"76.0167"},{"name":"Alot","latitude":"23.7634","longitude":"75.5566"},{"name":"Ambachandan","latitude":"22.535","longitude":"75.8323"},{"name":"Ambah","latitude":"26.7092","longitude":"78.2232"},{"name":"Anuppur","latitude":"23.1034","longitude":"81.6908"},{"name":"Ashta","latitude":"23.0175","longitude":"76.7221"},{"name":"Awan","latitude":"24.4073","longitude":"77.1364"},{"name":"Baihar","latitude":"22.101","longitude":"80.5515"},{"name":"Balaghat","latitude":"21.8176","longitude":"80.1923"},{"name":"Barwani","latitude":"22.0323","longitude":"74.8998"},{"name":"Basoda","latitude":"23.8515","longitude":"77.9365"},{"name":"Beohari","latitude":"24.0242","longitude":"81.3783"},{"name":"Berasia","latitude":"23.6313","longitude":"77.4335"},{"name":"Betul","latitude":"21.9019","longitude":"77.8994"},{"name":"Bhopal","latitude":"23.2526","longitude":"77.4045"},{"name":"Biaora","latitude":"23.9207","longitude":"76.9143"},{"name":"Birsa","latitude":"22.3633","longitude":"80.7895"},{"name":"Burhanpur","latitude":"21.3087","longitude":"76.2303"},{"name":"Chhatarpur","latitude":"24.9177","longitude":"79.5887"},{"name":"Chhindwara","latitude":"22.057","longitude":"78.9396"},{"name":"Dabra","latitude":"25.8843","longitude":"78.3363"},{"name":"Damoh","latitude":"23.8342","longitude":"79.4429"},{"name":"Datia","latitude":"25.6721","longitude":"78.4635"},{"name":"Dewas","latitude":"22.9658","longitude":"76.0553"},{"name":"Dhar","latitude":"22.5937","longitude":"75.2977"},{"name":"Gadarwara","latitude":"22.9254","longitude":"78.7888"},{"name":"Guna","latitude":"24.6469","longitude":"77.3113"},{"name":"Gwalior","latitude":"26.2298","longitude":"78.1734"},{"name":"Hoshangabad","latitude":"22.7495","longitude":"77.7311"},{"name":"Indore","latitude":"22.7163","longitude":"75.8316"},{"name":"Jabalpur","latitude":"23.1701","longitude":"79.957"},{"name":"Jamai","latitude":"22.1964","longitude":"78.5919"},{"name":"Jaora","latitude":"23.6378","longitude":"75.1271"},{"name":"Jawad","latitude":"24.3224","longitude":"73.9059"},{"name":"Jhabua","latitude":"22.7652","longitude":"74.5894"},{"name":"Karadiya","latitude":"22.7409","longitude":"76.111"},{"name":"Kareli","latitude":"22.9151","longitude":"79.0705"},{"name":"Khargone","latitude":"21.8229","longitude":"75.6139"},{"name":"Khurai","latitude":"24.0397","longitude":"78.3295"},{"name":"Kolaras","latitude":"25.2193","longitude":"77.6117"},{"name":"Kothri","latitude":"22.9531","longitude":"78.1495"},{"name":"Kukshi","latitude":"22.2034","longitude":"74.7556"},{"name":"Maheshwar","latitude":"22.1788","longitude":"75.5893"},{"name":"Mandla","latitude":"22.5988","longitude":"80.3712"},{"name":"Mandsaur","latitude":"24.0718","longitude":"75.0699"},{"name":"Mhow","latitude":"22.5589","longitude":"75.7654"},{"name":"Morena","latitude":"26.4987","longitude":"77.9938"},{"name":"Mundi","latitude":"22.0669","longitude":"76.4933"},{"name":"Murwara","latitude":"23.8395","longitude":"80.4054"},{"name":"Nagda","latitude":"22.913","longitude":"76.0483"},{"name":"Narsinghpur","latitude":"24.6766","longitude":"81.9734"},{"name":"Nepanagar","latitude":"21.4538","longitude":"76.3933"},{"name":"Petlawad","latitude":"23.011","longitude":"74.7977"},{"name":"Pithampur","latitude":"22.602","longitude":"75.6965"},{"name":"Raipur","latitude":"24.8527","longitude":"77.5975"},{"name":"Raisen","latitude":"23.3285","longitude":"77.7782"},{"name":"Rajgarh","latitude":"24.7278","longitude":"79.9571"},{"name":"Ratlam","latitude":"23.3303","longitude":"75.0403"},{"name":"Rewa","latitude":"24.5326","longitude":"81.2923"},{"name":"Sagar","latitude":"22.2671","longitude":"79.4285"},{"name":"Satna","latitude":"24.5772","longitude":"80.8292"},{"name":"Sehore","latitude":"23.2","longitude":"77.0833"},{"name":"Sendhwa","latitude":"21.6866","longitude":"75.1004"},{"name":"Seoni","latitude":"22.065","longitude":"78.9663"},{"name":"Shahdol","latitude":"23.2936","longitude":"81.3619"},{"name":"Sihora","latitude":"23.487","longitude":"80.1053"},{"name":"Singrauli","latitude":"24.1997","longitude":"82.6753"},{"name":"Sitapur","latitude":"25.7415","longitude":"78.4151"},{"name":"Sohagpur","latitude":"22.7005","longitude":"78.1952"},{"name":"Susner","latitude":"23.9433","longitude":"76.0868"},{"name":"Suwasra","latitude":"24.0735","longitude":"75.6538"},{"name":"Timarni","latitude":"22.2634","longitude":"77.6308"},{"name":"Ujjain","latitude":"23.1824","longitude":"75.7764"},{"name":"Vidisha","latitude":"23.526","longitude":"77.8109"},{"name":"Zirapur","latitude":"24.0222","longitude":"76.3771"}]},{"name":"Maharashtra","code":"16","cities":[{"name":"Ahmednagar","latitude":"19.0946","longitude":"74.7384"},{"name":"Airoli","latitude":"19.151","longitude":"72.9963"},{"name":"Akola","latitude":"20.7096","longitude":"76.9981"},{"name":"Akot","latitude":"21.0963","longitude":"77.0588"},{"name":"Akurdi","latitude":"18.6564","longitude":"73.7843"},{"name":"Alibag","latitude":"18.6481","longitude":"72.8758"},{"name":"Amalner","latitude":"21.0398","longitude":"75.0589"},{"name":"Ambajogai","latitude":"18.7387","longitude":"76.3842"},{"name":"Ambarnath","latitude":"19.2","longitude":"73.1667"},{"name":"Amravati","latitude":"20.9333","longitude":"77.75"},{"name":"Andheri","latitude":"19.1297","longitude":"72.859"},{"name":"Andheri East","latitude":"19.1145","longitude":"72.8712"},{"name":"Arangaon","latitude":"19.0268","longitude":"74.7149"},{"name":"Arjuni","latitude":"21.0967","longitude":"80.1514"},{"name":"Aurangabad","latitude":"19.8808","longitude":"75.3392"},{"name":"Badlapur","latitude":"19.1552","longitude":"73.2655"},{"name":"Ballarpur","latitude":"19.8469","longitude":"79.3403"},{"name":"Bamni","latitude":"19.5726","longitude":"76.1894"},{"name":"Baramati","latitude":"18.1517","longitude":"74.5777"},{"name":"Beed","latitude":"18.9892","longitude":"75.7563"},{"name":"Bhamragarh","latitude":"19.412","longitude":"80.5848"},{"name":"Bhandara","latitude":"21.1682","longitude":"79.6488"},{"name":"Bharam","latitude":"20.054","longitude":"74.6725"},{"name":"Bhasgaon","latitude":"21.3314","longitude":"80.2348"},{"name":"Bhiwandi","latitude":"19.3002","longitude":"73.0588"},{"name":"Bhokardan","latitude":"20.2583","longitude":"75.77"},{"name":"Bhose","latitude":"16.9517","longitude":"74.7192"},{"name":"Boisar","latitude":"19.8036","longitude":"72.756"},{"name":"Bokadvira","latitude":"18.8851","longitude":"72.974"},{"name":"Borgaon","latitude":"16.5983","longitude":"74.5122"},{"name":"Borivali West","latitude":"19.2395","longitude":"72.8358"},{"name":"Bramhapuri","latitude":"20.6138","longitude":"79.8641"},{"name":"Buldana","latitude":"20.5293","longitude":"76.1846"},{"name":"Chakan","latitude":"18.7595","longitude":"73.8716"},{"name":"Chalisgaon","latitude":"20.4606","longitude":"75.0151"},{"name":"Chandgad","latitude":"15.9424","longitude":"74.179"},{"name":"Chandol","latitude":"20.3246","longitude":"76.015"},{"name":"Chandori","latitude":"21.5116","longitude":"79.9256"},{"name":"Chandrapur","latitude":"19.4503","longitude":"78.1693"},{"name":"Chikhli","latitude":"20.5685","longitude":"78.0013"},{"name":"Chiplun","latitude":"17.5334","longitude":"73.5093"},{"name":"Chopda","latitude":"21.2458","longitude":"75.2995"},{"name":"Dahanu","latitude":"19.9678","longitude":"72.7126"},{"name":"Dahegaon","latitude":"21.3647","longitude":"79.0787"},{"name":"Danda","latitude":"18.8019","longitude":"72.9224"},{"name":"Dapoli","latitude":"17.7593","longitude":"73.1882"},{"name":"Daund","latitude":"18.4652","longitude":"74.5837"},{"name":"Dharavi","latitude":"19.05","longitude":"72.8667"},{"name":"Dhule","latitude":"20.9013","longitude":"74.7774"},{"name":"Diva","latitude":"19.1339","longitude":"72.9822"},{"name":"Dombivali","latitude":"19.2162","longitude":"73.0824"},{"name":"Dondaicha","latitude":"21.3236","longitude":"74.568"},{"name":"Gadhinglaj","latitude":"16.2229","longitude":"74.3501"},{"name":"Gargoti","latitude":"16.3157","longitude":"74.1352"},{"name":"Ghansoli","latitude":"19.1168","longitude":"72.984"},{"name":"Gogaon","latitude":"20.2268","longitude":"80.0119"},{"name":"Gondia","latitude":"21.4603","longitude":"80.192"},{"name":"Goregaon","latitude":"19.9268","longitude":"77.0316"},{"name":"Hinganghat","latitude":"20.5487","longitude":"78.8398"},{"name":"Hinjewadi","latitude":"18.5934","longitude":"73.7298"},{"name":"Ichalkaranji","latitude":"16.6912","longitude":"74.4605"},{"name":"Igatpuri","latitude":"19.6952","longitude":"73.5626"},{"name":"Indapur","latitude":"18.2992","longitude":"73.2469"},{"name":"Islampur","latitude":"19.1936","longitude":"76.928"},{"name":"Jalgaon","latitude":"21.0029","longitude":"75.566"},{"name":"Jalna","latitude":"19.841","longitude":"75.8864"},{"name":"Janephal","latitude":"20.2965","longitude":"76.5757"},{"name":"Jath","latitude":"17.0502","longitude":"75.2161"},{"name":"Jejuri","latitude":"18.2766","longitude":"74.1601"},{"name":"Kalamboli","latitude":"19.0258","longitude":"73.1027"},{"name":"Kalamnuri","latitude":"19.6739","longitude":"77.3115"},{"name":"Kalyan","latitude":"19.2463","longitude":"73.1315"},{"name":"Kanadi","latitude":"18.9702","longitude":"76.4136"},{"name":"Kanhan","latitude":"21.229","longitude":"79.2398"},{"name":"Karad","latitude":"17.2894","longitude":"74.1818"},{"name":"Kargani","latitude":"17.3109","longitude":"74.8818"},{"name":"Karjat","latitude":"18.9107","longitude":"73.3235"},{"name":"Karmala","latitude":"18.4089","longitude":"75.1974"},{"name":"Khadki","latitude":"18.5635","longitude":"73.8521"},{"name":"Khalapur","latitude":"18.8314","longitude":"73.2816"},{"name":"Khamgaon","latitude":"20.7074","longitude":"76.5683"},{"name":"Khandala","latitude":"18.063","longitude":"74.0157"},{"name":"Khapri","latitude":"21.2494","longitude":"78.3616"},{"name":"Kharghar","latitude":"19.0498","longitude":"73.0702"},{"name":"Khed","latitude":"18.3796","longitude":"74.8123"},{"name":"Khopoli","latitude":"18.7856","longitude":"73.3459"},{"name":"Kolhapur","latitude":"16.6956","longitude":"74.2317"},{"name":"Kopargaon","latitude":"19.8824","longitude":"74.4761"},{"name":"Kotul","latitude":"19.4381","longitude":"73.9657"},{"name":"Kudal","latitude":"16.0115","longitude":"73.6887"},{"name":"Kurla","latitude":"19.0713","longitude":"72.883"},{"name":"Lasalgaon","latitude":"20.1427","longitude":"74.2395"},{"name":"Latur","latitude":"18.3972","longitude":"76.5678"},{"name":"Lonand","latitude":"18.0398","longitude":"74.1834"},{"name":"Lonar","latitude":"19.981","longitude":"76.5264"},{"name":"Lonavla","latitude":"18.7527","longitude":"73.4057"},{"name":"Mahabaleshwar","latitude":"17.56","longitude":"73.4"},{"name":"Mahad","latitude":"18.0833","longitude":"73.4167"},{"name":"Mahim","latitude":"19.6364","longitude":"72.7228"},{"name":"Majalgaon","latitude":"19.1608","longitude":"76.2052"},{"name":"Malegaon","latitude":"20.5493","longitude":"74.5309"},{"name":"Malvan","latitude":"16.0598","longitude":"73.4629"},{"name":"Manchar","latitude":"19.0044","longitude":"73.9435"},{"name":"Mangaon","latitude":"18.2315","longitude":"73.2861"},{"name":"Manor","latitude":"19.7229","longitude":"72.9137"},{"name":"Mhasla","latitude":"18.1334","longitude":"73.1116"},{"name":"Mira Road","latitude":"19.2836","longitude":"72.8675"},{"name":"Miraj","latitude":"16.8242","longitude":"74.6466"},{"name":"Morshi","latitude":"21.145","longitude":"78.4532"},{"name":"Mulund East","latitude":"19.1619","longitude":"72.9597"},{"name":"Mulund West","latitude":"19.1731","longitude":"72.9468"},{"name":"Mumbai","latitude":"19.0748","longitude":"72.8856"},{"name":"Murud","latitude":"18.3282","longitude":"72.9621"},{"name":"Nagpur","latitude":"21.1463","longitude":"79.0849"},{"name":"Nanded","latitude":"19.1602","longitude":"77.315"},{"name":"Nandurbar","latitude":"21.3667","longitude":"74.2405"},{"name":"Narayangaon","latitude":"19.1192","longitude":"73.9715"},{"name":"Nashik","latitude":"19.9973","longitude":"73.791"},{"name":"Nasrapur","latitude":"18.25","longitude":"73.9"},{"name":"Navapur","latitude":"21.1578","longitude":"73.7915"},{"name":"Neral","latitude":"19.0243","longitude":"73.3144"},{"name":"Nilanga","latitude":"18.1167","longitude":"76.7528"},{"name":"Osmanabad","latitude":"18.1816","longitude":"76.0389"},{"name":"Pachora","latitude":"20.6673","longitude":"75.353"},{"name":"Palghar","latitude":"19.6969","longitude":"72.7654"},{"name":"Pandharpur","latitude":"17.6801","longitude":"75.3394"},{"name":"Panvel","latitude":"18.9888","longitude":"73.1101"},{"name":"Parbhani","latitude":"19.2686","longitude":"76.7708"},{"name":"Parli","latitude":"19.2768","longitude":"80.3716"},{"name":"Parola","latitude":"20.8841","longitude":"75.1221"},{"name":"Partur","latitude":"19.603","longitude":"76.2164"},{"name":"Patan","latitude":"17.3758","longitude":"73.9044"},{"name":"Paud","latitude":"18.524","longitude":"73.6153"},{"name":"Pen","latitude":"18.7373","longitude":"73.096"},{"name":"Phaltan","latitude":"17.9911","longitude":"74.4318"},{"name":"Pimpri-Chinchwad","latitude":"18.6187","longitude":"73.8037"},{"name":"Pinjar","latitude":"20.5476","longitude":"77.2616"},{"name":"Prabhadevi","latitude":"19.0197","longitude":"72.827"},{"name":"Pulgaon","latitude":"20.7241","longitude":"78.3193"},{"name":"Pune","latitude":"18.5213","longitude":"73.8523"},{"name":"Purna","latitude":"19.1788","longitude":"77.0285"},{"name":"Rahata","latitude":"19.7166","longitude":"74.4811"},{"name":"Rahimatpur","latitude":"17.5891","longitude":"74.1999"},{"name":"Rahuri","latitude":"19.3907","longitude":"74.6498"},{"name":"Ramtek","latitude":"21.3927","longitude":"79.3218"},{"name":"Ratnagiri","latitude":"16.9915","longitude":"73.3102"},{"name":"Renapur","latitude":"18.5264","longitude":"76.5978"},{"name":"Risod","latitude":"19.9781","longitude":"76.796"},{"name":"Roha","latitude":"18.4369","longitude":"73.1196"},{"name":"Sakur","latitude":"19.3463","longitude":"74.3024"},{"name":"Sangamner","latitude":"19.5678","longitude":"74.2115"},{"name":"Sangli","latitude":"16.8544","longitude":"74.5642"},{"name":"Saphale","latitude":"17.5937","longitude":"76.2719"},{"name":"Satara","latitude":"17.6859","longitude":"73.9933"},{"name":"Savda","latitude":"21.1505","longitude":"75.8894"},{"name":"Sawantwadi","latitude":"18.4376","longitude":"76.8458"},{"name":"Shahada","latitude":"21.5454","longitude":"74.4711"},{"name":"Shahapur","latitude":"19.4523","longitude":"73.3257"},{"name":"Shevgaon","latitude":"19.3569","longitude":"75.2192"},{"name":"Shirdi","latitude":"19.7629","longitude":"74.4727"},{"name":"Shirol","latitude":"16.7353","longitude":"74.6025"},{"name":"Shirwal","latitude":"18.1533","longitude":"73.9811"},{"name":"Shrigonda","latitude":"18.6153","longitude":"74.6989"},{"name":"Sillod","latitude":"20.303","longitude":"75.6528"},{"name":"Sindewahi","latitude":"20.2861","longitude":"79.6562"},{"name":"Sindkheda","latitude":"21.271","longitude":"74.7444"},{"name":"Sinnar","latitude":"19.8451","longitude":"73.9987"},{"name":"Sion","latitude":"19.0333","longitude":"72.85"},{"name":"Sironcha","latitude":"18.847","longitude":"79.9656"},{"name":"Solapur","latitude":"17.6715","longitude":"75.9104"},{"name":"Talegaon Dabhade","latitude":"18.7353","longitude":"73.6677"},{"name":"Thane","latitude":"19.197","longitude":"72.9635"},{"name":"Ulhasnagar","latitude":"19.2175","longitude":"73.1476"},{"name":"Umbraj","latitude":"17.4028","longitude":"74.101"},{"name":"Umred","latitude":"20.8542","longitude":"79.329"},{"name":"Uran","latitude":"18.8781","longitude":"72.9392"},{"name":"Vada","latitude":"19.6535","longitude":"73.1481"},{"name":"Varangaon","latitude":"21.0177","longitude":"75.9148"},{"name":"Vasai","latitude":"20.5049","longitude":"75.6659"},{"name":"Virar","latitude":"19.4559","longitude":"72.8114"},{"name":"Vita","latitude":"20.1408","longitude":"75.0043"},{"name":"Wada","latitude":"18.9882","longitude":"73.7386"},{"name":"Wadwani","latitude":"18.9871","longitude":"76.0436"},{"name":"Wardha","latitude":"20.7393","longitude":"78.5978"},{"name":"Washim","latitude":"20.1113","longitude":"77.133"},{"name":"Worli","latitude":"19.0167","longitude":"72.8167"},{"name":"Yavatmal","latitude":"20.3932","longitude":"78.132"},{"name":"Yeola","latitude":"20.0424","longitude":"74.4894"},{"name":"Yerwada","latitude":"18.5459","longitude":"73.8855"}]},{"name":"Manipur","code":"17","cities":[{"name":"Churachandpur","latitude":"24.3361","longitude":"93.6719"},{"name":"Imphal","latitude":"24.8086","longitude":"93.9418"},{"name":"Kakching","latitude":"24.4975","longitude":"93.978"},{"name":"Kanglatongbi","latitude":"24.9769","longitude":"93.8879"},{"name":"Thoubal","latitude":"24.6416","longitude":"93.9923"}]},{"name":"Meghalaya","code":"18","cities":[{"name":"Jowai","latitude":"25.4347","longitude":"92.1955"},{"name":"Laitumkhrah","latitude":"25.5692","longitude":"91.8943"},{"name":"Shillong","latitude":"25.5689","longitude":"91.8831"}]},{"name":"Mizoram","code":"31","cities":[{"name":"Aizawl","latitude":"23.7289","longitude":"92.7179"},{"name":"Lunglei","latitude":"22.8925","longitude":"92.7422"},{"name":"Mamit","latitude":"23.9267","longitude":"92.4856"}]},{"name":"Nagaland","code":"20","cities":[{"name":"Dimapur","latitude":"25.9169","longitude":"93.7274"},{"name":"Kohima","latitude":"25.6747","longitude":"94.111"},{"name":"Mokokchung","latitude":"26.3248","longitude":"94.5183"},{"name":"Wokha","latitude":"26.0972","longitude":"94.2582"}]},{"name":"National Capital Territory of Delhi","code":"07","cities":[{"name":"Anand Parbat","latitude":"28.6589","longitude":"77.176"},{"name":"Badarpur","latitude":"28.5025","longitude":"77.3024"},{"name":"Burari","latitude":"28.7563","longitude":"77.196"},{"name":"Civil Lines","latitude":"28.6805","longitude":"77.2263"},{"name":"Connaught Place","latitude":"28.6327","longitude":"77.2198"},{"name":"Delhi","latitude":"28.6504","longitude":"77.2372"},{"name":"Janakpuri","latitude":"28.6216","longitude":"77.0946"},{"name":"Kair","latitude":"28.6244","longitude":"76.9176"},{"name":"Mahipalpur","latitude":"28.5437","longitude":"77.1282"},{"name":"Najafgarh","latitude":"28.6092","longitude":"76.9777"},{"name":"Narela","latitude":"28.8527","longitude":"77.0929"},{"name":"New Delhi","latitude":"28.6331","longitude":"77.2207"},{"name":"Shahdara","latitude":"28.6676","longitude":"77.2919"}]},{"name":"Odisha","code":"21","cities":[{"name":"Angul","latitude":"20.8409","longitude":"85.1019"},{"name":"Arabaka","latitude":"20.2867","longitude":"84.3145"},{"name":"Baincha","latitude":"20.9256","longitude":"86.8998"},{"name":"Balanda","latitude":"20.7776","longitude":"84.3282"},{"name":"Balangir","latitude":"20.7042","longitude":"83.4903"},{"name":"Balasore","latitude":"21.4958","longitude":"86.9348"},{"name":"Balisahi","latitude":"20.9428","longitude":"85.3086"},{"name":"Balugaon","latitude":"20.1784","longitude":"85.1133"},{"name":"Barbil","latitude":"22.107","longitude":"85.3755"},{"name":"Bargarh","latitude":"21.3335","longitude":"83.6191"},{"name":"Baripada","latitude":"21.9343","longitude":"86.7245"},{"name":"Belpahar","latitude":"21.8218","longitude":"83.8458"},{"name":"Betnoti","latitude":"21.74","longitude":"86.8447"},{"name":"Bhanjanagar","latitude":"19.9272","longitude":"84.582"},{"name":"Bhawanipatna","latitude":"19.9045","longitude":"83.1688"},{"name":"Bhubaneswar","latitude":"20.2713","longitude":"85.8334"},{"name":"Birmitrapur","latitude":"22.3978","longitude":"84.7639"},{"name":"Brahmapur","latitude":"19.3115","longitude":"84.7929"},{"name":"Buguda","latitude":"19.8081","longitude":"84.7908"},{"name":"Burla","latitude":"21.5098","longitude":"83.8726"},{"name":"Chandbali","latitude":"20.7713","longitude":"86.7425"},{"name":"Chatrapur","latitude":"19.3557","longitude":"84.9836"},{"name":"Cuttack","latitude":"20.4644","longitude":"85.8774"},{"name":"Deogarh","latitude":"21.5397","longitude":"84.7372"},{"name":"Dhenkanal","latitude":"20.6566","longitude":"85.6009"},{"name":"Gaisilat","latitude":"20.9602","longitude":"83.3198"},{"name":"Ganjam","latitude":"19.3836","longitude":"85.0513"},{"name":"Hirakud","latitude":"21.525","longitude":"83.8727"},{"name":"Jaipatna","latitude":"19.4791","longitude":"82.8152"},{"name":"Jajpur","latitude":"20.8485","longitude":"86.3373"},{"name":"Jaraka","latitude":"19.2264","longitude":"83.3623"},{"name":"Jeypore","latitude":"18.8563","longitude":"82.5716"},{"name":"Jharsuguda","latitude":"21.8553","longitude":"84.007"},{"name":"Kalahandi","latitude":"20.1366","longitude":"85.0799"},{"name":"Kantapal","latitude":"21.0647","longitude":"85.5221"},{"name":"Karanjia","latitude":"21.7629","longitude":"85.9708"},{"name":"Khandagiri","latitude":"20.2597","longitude":"85.7899"},{"name":"Khurda","latitude":"20.1827","longitude":"85.6163"},{"name":"Koraput","latitude":"18.812","longitude":"82.7105"},{"name":"Korukonda","latitude":"18.2777","longitude":"81.9891"},{"name":"Kuchinda","latitude":"21.7436","longitude":"84.3485"},{"name":"Nuapada","latitude":"21.1126","longitude":"84.2683"},{"name":"Paradip","latitude":"20.3164","longitude":"86.6085"},{"name":"Puri","latitude":"19.7943","longitude":"85.8261"},{"name":"Rajgangpur","latitude":"22.1973","longitude":"84.58"},{"name":"Raurkela","latitude":"22.225","longitude":"84.8641"},{"name":"Rayagada","latitude":"19.1713","longitude":"83.4143"},{"name":"Sambalpur","latitude":"21.4653","longitude":"83.9757"},{"name":"Sonepur","latitude":"20.8333","longitude":"83.9167"},{"name":"Sunabeda","latitude":"18.7284","longitude":"82.8293"},{"name":"Sundargarh","latitude":"22.1167","longitude":"84.0333"},{"name":"Talcher","latitude":"20.9473","longitude":"85.2352"},{"name":"Turekela","latitude":"20.5022","longitude":"82.7978"}]},{"name":"Punjab","code":"23","cities":[{"name":"Abohar","latitude":"30.1445","longitude":"74.1955"},{"name":"Adampur","latitude":"31.4361","longitude":"75.7154"},{"name":"Adamwal","latitude":"31.5644","longitude":"75.9404"},{"name":"Akhara","latitude":"30.7509","longitude":"75.4848"},{"name":"Aklia","latitude":"30.5157","longitude":"75.1644"},{"name":"Alawalpur","latitude":"31.4316","longitude":"75.6561"},{"name":"Aliwal","latitude":"30.9462","longitude":"75.6133"},{"name":"Allachaur","latitude":"31.1588","longitude":"76.1321"},{"name":"Allowal","latitude":"30.9747","longitude":"75.7572"},{"name":"Amloh","latitude":"30.609","longitude":"76.2327"},{"name":"Amritsar","latitude":"31.6243","longitude":"74.8769"},{"name":"Ayali Kalan","latitude":"30.8966","longitude":"75.7633"},{"name":"Badian","latitude":"30.2914","longitude":"74.548"},{"name":"Bagha Purana","latitude":"30.6889","longitude":"75.1012"},{"name":"Bahadurpur","latitude":"30.9662","longitude":"76.1375"},{"name":"Baharwal","latitude":"31.1108","longitude":"74.9172"},{"name":"Ballamgarh","latitude":"30.4673","longitude":"74.4335"},{"name":"Banga","latitude":"31.1887","longitude":"75.995"},{"name":"Banur","latitude":"30.5492","longitude":"76.7169"},{"name":"Barnala","latitude":"30.3745","longitude":"75.5487"},{"name":"Basarke","latitude":"31.3056","longitude":"74.6076"},{"name":"Batala","latitude":"31.8092","longitude":"75.2029"},{"name":"Bathinda","latitude":"30.2075","longitude":"74.9389"},{"name":"Beas","latitude":"31.5151","longitude":"75.2976"},{"name":"Bhagwanpura","latitude":"30.3244","longitude":"74.3799"},{"name":"Bhucho Mandi","latitude":"30.2129","longitude":"75.0969"},{"name":"Bilga","latitude":"31.0499","longitude":"75.6544"},{"name":"Boparai","latitude":"32.0069","longitude":"75.2725"},{"name":"Dad","latitude":"30.8589","longitude":"75.8011"},{"name":"Dalla","latitude":"30.9379","longitude":"76.3432"},{"name":"Dasuya","latitude":"31.8168","longitude":"75.6531"},{"name":"Dhaipai","latitude":"30.0869","longitude":"75.603"},{"name":"Dhuri","latitude":"30.3685","longitude":"75.8679"},{"name":"Dinanagar","latitude":"32.1397","longitude":"75.4706"},{"name":"Faridkot","latitude":"30.674","longitude":"74.7558"},{"name":"Fatehabad","latitude":"31.3809","longitude":"75.1066"},{"name":"Fatehgarh Churian","latitude":"31.8654","longitude":"74.9596"},{"name":"Firozpur","latitude":"30.9257","longitude":"74.6131"},{"name":"Garhdiwala","latitude":"31.7415","longitude":"75.7557"},{"name":"Garhshankar","latitude":"31.2154","longitude":"76.1415"},{"name":"Goraya","latitude":"31.1241","longitude":"75.7724"},{"name":"Gurdaspur","latitude":"32.0393","longitude":"75.4032"},{"name":"Hajipur","latitude":"31.9803","longitude":"75.7571"},{"name":"Harchowal","latitude":"31.787","longitude":"75.4524"},{"name":"Hoshiarpur","latitude":"31.5372","longitude":"75.9127"},{"name":"Hoshiarpur Kalota","latitude":"31.9927","longitude":"75.571"},{"name":"Jagraon","latitude":"30.7878","longitude":"75.4739"},{"name":"Jalalabad","latitude":"30.6018","longitude":"74.255"},{"name":"Jalandhar","latitude":"31.3247","longitude":"75.5811"},{"name":"Jhingran","latitude":"30.8112","longitude":"76.6068"},{"name":"Kapurthala Town","latitude":"31.3801","longitude":"75.3811"},{"name":"Kartarpur","latitude":"31.4427","longitude":"75.4985"},{"name":"Khanna","latitude":"30.7055","longitude":"76.222"},{"name":"Kharar","latitude":"30.7432","longitude":"76.6536"},{"name":"Kot Kapura","latitude":"30.5845","longitude":"74.8274"},{"name":"Kotkapura","latitude":"30.5837","longitude":"74.8345"},{"name":"Kumbh","latitude":"30.6341","longitude":"76.2874"},{"name":"Kumbra","latitude":"30.6891","longitude":"76.7251"},{"name":"Kurali","latitude":"30.8342","longitude":"76.5768"},{"name":"Ludhiana","latitude":"30.9146","longitude":"75.8543"},{"name":"Machhiwara","latitude":"30.9156","longitude":"76.2002"},{"name":"Makhu","latitude":"31.1038","longitude":"74.9922"},{"name":"Maler Kotla","latitude":"30.5309","longitude":"75.8795"},{"name":"Mansa","latitude":"29.9884","longitude":"75.4017"},{"name":"Maur","latitude":"30.0819","longitude":"75.2532"},{"name":"Moga","latitude":"30.8138","longitude":"75.1688"},{"name":"Mohali","latitude":"30.6817","longitude":"76.7206"},{"name":"Mukerian","latitude":"31.9539","longitude":"75.6172"},{"name":"Nabha","latitude":"30.3758","longitude":"76.1529"},{"name":"Nakodar","latitude":"31.1259","longitude":"75.4751"},{"name":"Nangal","latitude":"31.3897","longitude":"76.3757"},{"name":"Naraingarh","latitude":"30.0295","longitude":"75.7379"},{"name":"Nathana","latitude":"30.3155","longitude":"75.0931"},{"name":"Nurmahal","latitude":"31.0966","longitude":"75.5939"},{"name":"Pathankot","latitude":"32.2748","longitude":"75.6529"},{"name":"Patial","latitude":"31.7129","longitude":"75.9654"},{"name":"Patiala","latitude":"30.3362","longitude":"76.3922"},{"name":"Patran","latitude":"30.6341","longitude":"76.6397"},{"name":"Patti","latitude":"31.2809","longitude":"74.8585"},{"name":"Phagwara","latitude":"31.2281","longitude":"75.7787"},{"name":"Qadian","latitude":"31.822","longitude":"75.3766"},{"name":"Raikot","latitude":"30.6423","longitude":"75.6004"},{"name":"Rajpura","latitude":"30.4786","longitude":"76.5928"},{"name":"Rampura Phul","latitude":"30.2756","longitude":"75.2425"},{"name":"Ropar","latitude":"30.969","longitude":"76.5269"},{"name":"Rupnagar","latitude":"30.2101","longitude":"73.9943"},{"name":"Samana","latitude":"30.151","longitude":"76.2041"},{"name":"Sangat Kalan","latitude":"30.0834","longitude":"74.8413"},{"name":"Sangrur","latitude":"30.2451","longitude":"75.8449"},{"name":"Sardulgarh","latitude":"29.6985","longitude":"75.2345"},{"name":"Sirhind","latitude":"30.6432","longitude":"76.3842"},{"name":"Sunam","latitude":"30.1288","longitude":"75.7994"},{"name":"Talwandi Bhai","latitude":"30.8578","longitude":"74.9315"},{"name":"Talwara","latitude":"31.9335","longitude":"75.8868"},{"name":"Tarn Taran","latitude":"31.4519","longitude":"74.9278"},{"name":"Zira","latitude":"30.9692","longitude":"74.9827"}]},{"name":"Rajasthan","code":"24","cities":[{"name":"Abu Road","latitude":"24.4801","longitude":"72.7819"},{"name":"Agolai","latitude":"26.2862","longitude":"72.6351"},{"name":"Ajgara","latitude":"26.0143","longitude":"75.0998"},{"name":"Ajmer","latitude":"26.4521","longitude":"74.6387"},{"name":"Akhepura","latitude":"25.4365","longitude":"74.7445"},{"name":"Alipura","latitude":"26.6987","longitude":"76.392"},{"name":"Alwar","latitude":"27.5625","longitude":"76.625"},{"name":"Amarsar","latitude":"27.3716","longitude":"75.832"},{"name":"Amarwasi","latitude":"25.7136","longitude":"75.3472"},{"name":"Amet","latitude":"25.307","longitude":"73.9215"},{"name":"Anupgarh","latitude":"29.192","longitude":"73.2124"},{"name":"Asalwas","latitude":"28.2982","longitude":"75.868"},{"name":"Bagawas","latitude":"25.8749","longitude":"73.5644"},{"name":"Balicha","latitude":"24.3543","longitude":"74.239"},{"name":"Ballupura","latitude":"26.7104","longitude":"76.1316"},{"name":"Balotra","latitude":"25.8342","longitude":"72.2467"},{"name":"Bandikui","latitude":"27.045","longitude":"76.5735"},{"name":"Bani Park","latitude":"26.9258","longitude":"75.787"},{"name":"Banswara","latitude":"23.5411","longitude":"74.4425"},{"name":"Baran","latitude":"25.1","longitude":"76.5167"},{"name":"Bari","latitude":"26.645","longitude":"77.6171"},{"name":"Barmer","latitude":"25.7457","longitude":"71.3921"},{"name":"Bayana","latitude":"26.9095","longitude":"77.2887"},{"name":"Beawar","latitude":"26.1012","longitude":"74.3203"},{"name":"Begun","latitude":"24.9869","longitude":"75.0008"},{"name":"Behror","latitude":"27.8922","longitude":"76.2751"},{"name":"Bharatpur","latitude":"27.2173","longitude":"77.4901"},{"name":"Bhilwara","latitude":"25.3471","longitude":"74.6408"},{"name":"Bhinmal","latitude":"24.9992","longitude":"72.2688"},{"name":"Bhiwadi","latitude":"28.2102","longitude":"76.8606"},{"name":"Bikaner","latitude":"28.0176","longitude":"73.3149"},{"name":"Borawar","latitude":"27.02","longitude":"74.6777"},{"name":"Bundi","latitude":"25.4409","longitude":"75.6406"},{"name":"Chandangaon","latitude":"26.6865","longitude":"76.8993"},{"name":"Chhoti Sadri","latitude":"24.3829","longitude":"74.6951"},{"name":"Chittaurgarh","latitude":"24.8896","longitude":"74.624"},{"name":"Chomu","latitude":"27.3969","longitude":"76.7105"},{"name":"Churu","latitude":"28.3056","longitude":"74.9613"},{"name":"Dariba","latitude":"24.9487","longitude":"74.1342"},{"name":"Dausa","latitude":"26.89","longitude":"76.3358"},{"name":"Degana","latitude":"25.3663","longitude":"73.862"},{"name":"Didwana","latitude":"27.401","longitude":"74.5754"},{"name":"Dungarpur","latitude":"23.8431","longitude":"73.7147"},{"name":"Falna","latitude":"25.2674","longitude":"73.2393"},{"name":"Gajsinghpur","latitude":"29.6596","longitude":"73.4403"},{"name":"Goa","latitude":"24.6055","longitude":"72.7279"},{"name":"Hanumangarh","latitude":"29.5818","longitude":"74.3294"},{"name":"Harsora","latitude":"27.7784","longitude":"76.4483"},{"name":"Hindaun","latitude":"26.7341","longitude":"77.0352"},{"name":"Hindoli","latitude":"26.2485","longitude":"75.3081"},{"name":"Jaipur","latitude":"26.9204","longitude":"75.7882"},{"name":"Jaisalmer","latitude":"26.9176","longitude":"70.9039"},{"name":"Jaitaran","latitude":"26.2045","longitude":"73.9368"},{"name":"Jhalawar","latitude":"24.5963","longitude":"76.165"},{"name":"Jodhpur","latitude":"26.2684","longitude":"73.0059"},{"name":"Kapasan","latitude":"24.8933","longitude":"74.3159"},{"name":"Karauli","latitude":"26.4983","longitude":"77.0276"},{"name":"Khanpur","latitude":"24.7318","longitude":"76.4"},{"name":"Kishangarh","latitude":"26.5901","longitude":"74.854"},{"name":"Kota","latitude":"25.1825","longitude":"75.8391"},{"name":"Kotkasim","latitude":"28.0353","longitude":"76.7152"},{"name":"Kotputli","latitude":"27.7021","longitude":"76.1991"},{"name":"Kuchaman","latitude":"27.1488","longitude":"74.8579"},{"name":"Mansarovar","latitude":"26.8646","longitude":"75.7642"},{"name":"Merta","latitude":"26.6448","longitude":"74.034"},{"name":"Nadbai","latitude":"27.2248","longitude":"77.1917"},{"name":"Nagaur","latitude":"27.202","longitude":"73.7339"},{"name":"Nasirabad","latitude":"26.3018","longitude":"74.7329"},{"name":"Nathdwara","latitude":"24.9381","longitude":"73.8239"},{"name":"Nawalgarh","latitude":"27.8504","longitude":"75.2661"},{"name":"Neem ka Thana","latitude":"27.7398","longitude":"75.7865"},{"name":"Neemrana","latitude":"27.9919","longitude":"76.3854"},{"name":"Nimbahera","latitude":"24.6208","longitude":"74.6839"},{"name":"Niwai","latitude":"26.3607","longitude":"75.9184"},{"name":"Nohar","latitude":"29.1809","longitude":"74.7728"},{"name":"Pali","latitude":"25.7728","longitude":"73.3234"},{"name":"Phalodi","latitude":"27.131","longitude":"72.3683"},{"name":"Phalsund","latitude":"26.3956","longitude":"71.9227"},{"name":"Pilani","latitude":"28.3672","longitude":"75.6035"},{"name":"Pindwara","latitude":"24.7914","longitude":"73.0575"},{"name":"Pisangan","latitude":"26.3918","longitude":"74.3792"},{"name":"Pratapgarh","latitude":"24.0322","longitude":"74.7816"},{"name":"Pushkar","latitude":"26.4876","longitude":"74.5544"},{"name":"Raisinghnagar","latitude":"29.5369","longitude":"73.4457"},{"name":"Rajgarh","latitude":"25.0875","longitude":"74.8512"},{"name":"Rajsamand","latitude":"25.0714","longitude":"73.8798"},{"name":"Ratangarh","latitude":"28.0822","longitude":"74.6171"},{"name":"Rawatbhata","latitude":"24.9298","longitude":"75.5921"},{"name":"Sadri","latitude":"25.1868","longitude":"73.4556"},{"name":"Sakroda","latitude":"25.1421","longitude":"73.9815"},{"name":"Sangaria","latitude":"23.1838","longitude":"74.1797"},{"name":"Sapotra","latitude":"26.2899","longitude":"76.7493"},{"name":"Sardarshahr","latitude":"28.4406","longitude":"74.491"},{"name":"Sarola Kalan","latitude":"24.6085","longitude":"76.4294"},{"name":"Sawai Madhopur","latitude":"26.023","longitude":"76.3441"},{"name":"Shahjahanpur","latitude":"27.9992","longitude":"76.447"},{"name":"Sheoganj","latitude":"25.1392","longitude":"73.0678"},{"name":"Sikar","latitude":"27.6121","longitude":"75.14"},{"name":"Sirohi","latitude":"24.8903","longitude":"72.8508"},{"name":"Sojat","latitude":"25.9279","longitude":"73.6679"},{"name":"Sujangarh","latitude":"27.7","longitude":"74.4667"},{"name":"Surajgarh","latitude":"28.3085","longitude":"75.7303"},{"name":"Suratgarh","latitude":"29.3215","longitude":"73.8998"},{"name":"Tabiji","latitude":"26.3575","longitude":"74.6129"},{"name":"Talwas","latitude":"25.6208","longitude":"76.045"},{"name":"Todabhim","latitude":"26.9141","longitude":"76.8193"},{"name":"Todaraisingh","latitude":"26.0213","longitude":"75.4835"},{"name":"Tonk","latitude":"26.1664","longitude":"75.7882"},{"name":"Udaipur","latitude":"24.5858","longitude":"73.7135"},{"name":"Udaipurwati","latitude":"27.7321","longitude":"75.4743"},{"name":"Vaishali Nagar","latitude":"26.9126","longitude":"75.7441"},{"name":"Weir","latitude":"25.6816","longitude":"75.7302"}]},{"name":"Sikkim","code":"29","cities":[{"name":"Gangtok","latitude":"27.3257","longitude":"88.6122"},{"name":"Jorethang","latitude":"27.1072","longitude":"88.3215"},{"name":"Namchi","latitude":"27.1612","longitude":"88.3655"},{"name":"Rangpo","latitude":"27.1787","longitude":"88.5341"},{"name":"Singtam","latitude":"27.1293","longitude":"88.1612"},{"name":"Soreng","latitude":"27.1721","longitude":"88.2055"}]},{"name":"Tamil Nadu","code":"25","cities":[{"name":"Adirampattinam","latitude":"10.3441","longitude":"79.3803"},{"name":"Aliyanilai","latitude":"10.2094","longitude":"78.9837"},{"name":"Ambattur","latitude":"13.0982","longitude":"80.1615"},{"name":"Ambur","latitude":"12.7916","longitude":"78.7164"},{"name":"Andarkuppam","latitude":"12.2835","longitude":"79.873"},{"name":"Anjugramam","latitude":"8.1544","longitude":"77.5781"},{"name":"Anna Nagar","latitude":"13.0799","longitude":"80.2192"},{"name":"Annamalainagar","latitude":"11.4","longitude":"79.7333"},{"name":"Anthiyur","latitude":"11.5744","longitude":"77.5945"},{"name":"Arakkonam","latitude":"13.0845","longitude":"79.6705"},{"name":"Aranarai","latitude":"11.2292","longitude":"78.8499"},{"name":"Arani","latitude":"13.3341","longitude":"80.0824"},{"name":"Arcot","latitude":"12.9057","longitude":"79.319"},{"name":"Ariyalur","latitude":"11.1385","longitude":"79.0756"},{"name":"Ariyanendal","latitude":"9.5058","longitude":"78.6264"},{"name":"Arni","latitude":"12.6677","longitude":"79.2853"},{"name":"Arumanai","latitude":"8.3706","longitude":"77.2434"},{"name":"Aruvankadu","latitude":"12.0556","longitude":"78.8394"},{"name":"Attur","latitude":"11.5941","longitude":"78.6014"},{"name":"Auroville","latitude":"12.0055","longitude":"79.8089"},{"name":"Avadi","latitude":"13.1147","longitude":"80.1098"},{"name":"Avinashi","latitude":"11.193","longitude":"77.2686"},{"name":"Bargur","latitude":"12.5452","longitude":"78.3615"},{"name":"Bommidi","latitude":"11.9785","longitude":"78.2742"},{"name":"Chengalpattu","latitude":"12.6918","longitude":"79.9766"},{"name":"Chennai","latitude":"13.086","longitude":"80.2751"},{"name":"Cheyyar","latitude":"12.6608","longitude":"79.5466"},{"name":"Chidambaram","latitude":"11.3978","longitude":"79.6894"},{"name":"Chinna Salem","latitude":"11.6342","longitude":"78.8741"},{"name":"Chinnalapatti","latitude":"10.2867","longitude":"77.9264"},{"name":"Choolai","latitude":"13.0899","longitude":"80.267"},{"name":"Coimbatore","latitude":"11.0075","longitude":"76.9671"},{"name":"Colachel","latitude":"8.1844","longitude":"77.2547"},{"name":"Coonoor","latitude":"11.3498","longitude":"76.7938"},{"name":"Cuddalore","latitude":"11.7541","longitude":"79.7663"},{"name":"Dharapuram","latitude":"10.7389","longitude":"77.5322"},{"name":"Dharmapuri","latitude":"12.1277","longitude":"78.1579"},{"name":"Dindigul","latitude":"10.369","longitude":"77.9804"},{"name":"Egattur","latitude":"13.1094","longitude":"79.8884"},{"name":"Egmore","latitude":"13.069","longitude":"80.2528"},{"name":"Elavanur","latitude":"10.8434","longitude":"77.9042"},{"name":"Erode","latitude":"11.3428","longitude":"77.7274"},{"name":"Gingee","latitude":"12.2503","longitude":"79.4185"},{"name":"Gobichettipalayam","latitude":"11.455","longitude":"77.4422"},{"name":"Gopalasamudram","latitude":"8.6747","longitude":"77.6379"},{"name":"Guindy","latitude":"13.0074","longitude":"80.2175"},{"name":"Gunduperumbedu","latitude":"12.9152","longitude":"79.9711"},{"name":"Hale Dharmapuri","latitude":"12.1588","longitude":"78.1636"},{"name":"Harur","latitude":"12.0527","longitude":"78.4802"},{"name":"Hosur","latitude":"12.7365","longitude":"77.8326"},{"name":"Injambakkam","latitude":"12.9126","longitude":"80.2478"},{"name":"Kakkaveri","latitude":"11.4479","longitude":"78.2233"},{"name":"Kallankattuvalasu","latitude":"11.4544","longitude":"77.4809"},{"name":"Kalpakkam","latitude":"12.5638","longitude":"80.1736"},{"name":"Kanchipuram","latitude":"12.8352","longitude":"79.7001"},{"name":"Kandigai","latitude":"13.2624","longitude":"79.9164"},{"name":"Kangayam","latitude":"11.006","longitude":"77.5609"},{"name":"Karaikudi","latitude":"10.0662","longitude":"78.7678"},{"name":"Karur","latitude":"10.9577","longitude":"78.081"},{"name":"Katpadi","latitude":"12.9723","longitude":"79.1525"},{"name":"Kattankulathur","latitude":"12.8148","longitude":"80.0373"},{"name":"Kavundampalayam","latitude":"11.3534","longitude":"77.4577"},{"name":"Kelambakkam","latitude":"12.7873","longitude":"80.2216"},{"name":"Kilakadu","latitude":"11.8024","longitude":"78.4643"},{"name":"Kilakarai","latitude":"9.2318","longitude":"78.7854"},{"name":"Kiliyanur","latitude":"12.108","longitude":"79.75"},{"name":"Kilpauk","latitude":"13.08","longitude":"80.2408"},{"name":"Kodaikanal","latitude":"10.2393","longitude":"77.4893"},{"name":"Kotagiri","latitude":"11.4207","longitude":"76.8603"},{"name":"Kovilpatti","latitude":"9.1717","longitude":"77.8699"},{"name":"Krishnagiri","latitude":"12.5192","longitude":"78.2138"},{"name":"Kumbakonam","latitude":"10.9621","longitude":"79.3912"},{"name":"Kumulam","latitude":"11.9511","longitude":"79.6257"},{"name":"Kuttalam","latitude":"8.9303","longitude":"77.2695"},{"name":"Madukkur","latitude":"10.481","longitude":"79.3994"},{"name":"Madurai","latitude":"9.919","longitude":"78.1195"},{"name":"Mannargudi","latitude":"10.6663","longitude":"79.4506"},{"name":"Manojipatti","latitude":"10.7708","longitude":"79.0915"},{"name":"Marthandam","latitude":"8.3081","longitude":"77.2214"},{"name":"Marungulam","latitude":"10.6786","longitude":"79.1453"},{"name":"Mayiladuthurai","latitude":"11.1035","longitude":"79.655"},{"name":"Mettur","latitude":"11.7868","longitude":"77.8043"},{"name":"Mudittanendal","latitude":"8.7211","longitude":"77.9935"},{"name":"Nagapattinam","latitude":"10.7638","longitude":"79.8431"},{"name":"Nagercoil","latitude":"8.179","longitude":"77.4323"},{"name":"Namakkal","latitude":"11.2203","longitude":"78.1663"},{"name":"Nandambakkam","latitude":"12.9886","longitude":"80.211"},{"name":"Nanganallur","latitude":"12.9805","longitude":"80.1881"},{"name":"Nellikuppam","latitude":"13.0017","longitude":"79.3075"},{"name":"Neyveli","latitude":"11.6088","longitude":"79.4994"},{"name":"Ooty","latitude":"11.4134","longitude":"76.6952"},{"name":"Padmanabhapuram","latitude":"8.2446","longitude":"77.3258"},{"name":"Palani","latitude":"10.4503","longitude":"77.5209"},{"name":"Paranur","latitude":"12.7282","longitude":"79.9899"},{"name":"Paravai","latitude":"9.9644","longitude":"78.0695"},{"name":"Peelamedu","latitude":"11.0348","longitude":"76.9948"},{"name":"Perambalur","latitude":"11.2333","longitude":"78.8833"},{"name":"Peravurani","latitude":"10.2896","longitude":"79.1936"},{"name":"Perumbakkam","latitude":"12.9055","longitude":"80.1993"},{"name":"Perundurai","latitude":"11.2725","longitude":"77.5857"},{"name":"Pollachi","latitude":"10.6583","longitude":"77.0085"},{"name":"Pongalur","latitude":"10.9654","longitude":"77.372"},{"name":"Ponneri","latitude":"13.3384","longitude":"80.1914"},{"name":"Porayar","latitude":"11.0241","longitude":"79.8299"},{"name":"Pudukkottai","latitude":"10.3813","longitude":"78.8214"},{"name":"Pudupakkam","latitude":"12.9156","longitude":"79.6729"},{"name":"Puduvayal","latitude":"13.3301","longitude":"80.1458"},{"name":"Ramanathapuram","latitude":"9.3716","longitude":"78.8308"},{"name":"Rasipuram","latitude":"11.4601","longitude":"78.1864"},{"name":"Salem","latitude":"11.6538","longitude":"78.1554"},{"name":"Saligramam","latitude":"13.0491","longitude":"80.198"},{"name":"Sankarankovil","latitude":"9.1709","longitude":"77.5371"},{"name":"Sathyamangalam","latitude":"11.5023","longitude":"77.2361"},{"name":"Sattur","latitude":"9.3559","longitude":"77.9246"},{"name":"Shenoy Nagar","latitude":"13.0769","longitude":"80.2215"},{"name":"Sholinganallur","latitude":"12.8862","longitude":"80.2324"},{"name":"Sholinghur","latitude":"13.1181","longitude":"79.4202"},{"name":"Siruseri","latitude":"12.8347","longitude":"80.2031"},{"name":"Sivaganga","latitude":"9.847","longitude":"78.4836"},{"name":"Sivakasi","latitude":"9.45","longitude":"77.798"},{"name":"Sriperumbudur","latitude":"12.9676","longitude":"79.942"},{"name":"Tambaram","latitude":"12.9254","longitude":"80.1245"},{"name":"Thanjavur","latitude":"10.7852","longitude":"79.1391"},{"name":"Theni","latitude":"10.0112","longitude":"77.4777"},{"name":"Thiruthuraipoondi","latitude":"10.5295","longitude":"79.6303"},{"name":"Thiruvarur","latitude":"10.7727","longitude":"79.6368"},{"name":"Thoothukudi","latitude":"8.7674","longitude":"78.1342"},{"name":"Tiruchchendur","latitude":"8.501","longitude":"78.1295"},{"name":"Tiruchengode","latitude":"11.3802","longitude":"77.8944"},{"name":"Tiruchi","latitude":"10.8048","longitude":"78.7048"},{"name":"Tirunelveli","latitude":"8.7274","longitude":"77.6838"},{"name":"Tirupattur","latitude":"12.4924","longitude":"78.568"},{"name":"Tirupur","latitude":"11.1076","longitude":"77.3564"},{"name":"Tiruvallur","latitude":"13.1438","longitude":"79.9089"},{"name":"Tiruvannamalai","latitude":"12.2266","longitude":"79.0746"},{"name":"Tiruvengadam","latitude":"9.6405","longitude":"78.5916"},{"name":"Ulundurpet","latitude":"11.6955","longitude":"79.2822"},{"name":"Usilampatti","latitude":"9.9694","longitude":"77.7862"},{"name":"Vadapalani","latitude":"13.0511","longitude":"80.2125"},{"name":"Vallioor","latitude":"8.3892","longitude":"77.6053"},{"name":"Velacheri","latitude":"12.5156","longitude":"79.6976"},{"name":"Vellore","latitude":"12.9184","longitude":"79.1325"},{"name":"Villivakkam","latitude":"13.1054","longitude":"80.2103"},{"name":"Villupuram","latitude":"11.9398","longitude":"79.4924"},{"name":"Virudhachalam","latitude":"11.515","longitude":"79.3282"},{"name":"Vriddhachalam","latitude":"11.5183","longitude":"79.3241"},{"name":"Walajapet","latitude":"12.9311","longitude":"79.3723"}]},{"name":"Telangana","code":"TG","cities":[{"name":"Abbaipalem","latitude":"17.3927","longitude":"79.9094"},{"name":"Abbenda","latitude":"18.0551","longitude":"77.7191"},{"name":"Abids","latitude":"17.3891","longitude":"78.4763"},{"name":"Adilabad","latitude":"19.6713","longitude":"78.5334"},{"name":"Adivarampet","latitude":"18.6274","longitude":"79.5688"},{"name":"Almasguda","latitude":"17.3053","longitude":"78.5375"},{"name":"Alwal","latitude":"16.4475","longitude":"78.0178"},{"name":"Amaravaram","latitude":"16.8339","longitude":"79.8156"},{"name":"Amberpet","latitude":"17.3172","longitude":"79.408"},{"name":"Ankireddipalli","latitude":"18.1675","longitude":"79.0069"},{"name":"Arepalli","latitude":"18.1879","longitude":"77.9078"},{"name":"Asifabad","latitude":"19.3616","longitude":"79.2917"},{"name":"Attapur","latitude":"17.372","longitude":"78.438"},{"name":"Ballepalli","latitude":"17.7734","longitude":"79.9617"},{"name":"Bangarigadda","latitude":"16.9854","longitude":"79.0149"},{"name":"Banjara Hills","latitude":"17.4163","longitude":"78.4371"},{"name":"Bhongir","latitude":"17.512","longitude":"78.8893"},{"name":"Bhupalpally","latitude":"18.2131","longitude":"79.9273"},{"name":"Bichkunda","latitude":"18.4009","longitude":"77.7064"},{"name":"Bodhan","latitude":"18.6619","longitude":"77.8855"},{"name":"Bodupal","latitude":"17.4213","longitude":"78.5856"},{"name":"Champapet","latitude":"17.3412","longitude":"78.5181"},{"name":"Chandanagar","latitude":"17.4938","longitude":"78.3317"},{"name":"Dasturabad","latitude":"19.0918","longitude":"78.8684"},{"name":"Dhanwada","latitude":"16.6374","longitude":"77.6557"},{"name":"Elkalapalli","latitude":"18.7033","longitude":"79.4754"},{"name":"Erragadda","latitude":"17.4523","longitude":"78.4324"},{"name":"Gadwal","latitude":"16.2348","longitude":"77.7988"},{"name":"Ghatkesar","latitude":"17.4542","longitude":"78.6775"},{"name":"Hanamkonda","latitude":"18.0079","longitude":"79.5583"},{"name":"Huzurabad","latitude":"18.2025","longitude":"79.3999"},{"name":"Hyderabad","latitude":"17.3846","longitude":"78.4574"},{"name":"Ibrahimpatnam","latitude":"16.5811","longitude":"77.7489"},{"name":"Jadcherla","latitude":"16.7739","longitude":"78.1365"},{"name":"Jagitial","latitude":"18.7997","longitude":"78.9283"},{"name":"Jagtial","latitude":"18.7963","longitude":"78.9185"},{"name":"Jangaon","latitude":"17.5986","longitude":"78.8792"},{"name":"Jogipet","latitude":"17.8319","longitude":"78.0693"},{"name":"Jubilee Hills","latitude":"17.4334","longitude":"78.4111"},{"name":"Kanaiguda","latitude":"17.4228","longitude":"78.4949"},{"name":"Karimnagar","latitude":"18.4367","longitude":"79.1322"},{"name":"Khammam","latitude":"17.2531","longitude":"80.1421"},{"name":"Kismatpur","latitude":"17.3304","longitude":"78.392"},{"name":"Kottagudem","latitude":"17.5511","longitude":"80.6178"},{"name":"Madhapur","latitude":"17.4453","longitude":"78.3957"},{"name":"Mahbubnagar","latitude":"16.7438","longitude":"77.986"},{"name":"Malakpet","latitude":"17.3775","longitude":"78.5027"},{"name":"Malkajgiri","latitude":"17.4478","longitude":"78.5263"},{"name":"Mallampet","latitude":"18.9917","longitude":"79.7954"},{"name":"Mancherial","latitude":"18.8713","longitude":"79.4285"},{"name":"Manikonda","latitude":"16.7167","longitude":"77.8906"},{"name":"Manuguru","latitude":"17.9291","longitude":"80.8291"},{"name":"Medak","latitude":"18.0455","longitude":"78.2604"},{"name":"Medchal","latitude":"17.6297","longitude":"78.4814"},