{"name":"Kyrgyzstan","code":"KG","regions":[{"name":"Batken","code":"09","cities":[{"name":"Batken","latitude":"40.0472","longitude":"70.8359"}]},{"name":"Chuyskaya Oblast'","code":"02","cities":[{"name":"Alamedin","latitude":"42.8944","longitude":"74.6386"},{"name":"Kaindy","latitude":"42.7507","longitude":"76.159"},{"name":"Kant","latitude":"42.8899","longitude":"74.8531"},{"name":"Novopokrovka","latitude":"42.8658","longitude":"74.7361"},{"name":"Sokuluk","latitude":"42.8711","longitude":"74.2942"}]},{"name":"Gorod Bishkek","code":"01","cities":[{"name":"Bishkek","latitude":"42.869","longitude":"74.5939"}]},{"name":"Issyk-Kul","code":"07","cities":[{"name":"Balykchy","latitude":"42.4606","longitude":"76.1749"},{"name":"Cholpon-Ata","latitude":"42.6515","longitude":"77.0862"},{"name":"Karakol","latitude":"42.4833","longitude":"78.4"},{"name":"Kyzyl-Suu","latitude":"42.3358","longitude":"77.992"}]},{"name":"Jalal-Abad oblast","code":"03","cities":[{"name":"Jalal-Abad","latitude":"40.9333","longitude":"73.0"},{"name":"Tash-Kumyr","latitude":"41.3493","longitude":"72.2078"}]},{"name":"Naryn oblast","code":"04","cities":[{"name":"Karasu","latitude":"41.1355","longitude":"75.676"},{"name":"Shoro","latitude":"41.4822","longitude":"75.4885"}]},{"name":"Osh City","code":"GO","cities":[{"name":"Dzhiydalik","latitude":"40.5501","longitude":"72.7874"}]},{"name":"Osh Oblasty","code":"08","cities":[{"name":"Osh","latitude":"40.5294","longitude":"72.79"},{"name":"Uzgen","latitude":"40.7641","longitude":"73.2933"}]},{"name":"Talas","code":"06","cities":[{"name":"Karasu","latitude":"40.5671","longitude":"73.7379"},{"name":"Talas","latitude":"42.5237","longitude":"72.2476"}]}]}