{"name":"Kuwait","code":"KW","regions":[{"name":"Al Asimah","code":"02","cities":[{"name":"Ad Dasmah","latitude":"29.365","longitude":"48.0014"},{"name":"Al Shamiya","latitude":"29.3472","longitude":"47.9617"},{"name":"Ash Shuwaykh","latitude":"29.3436","longitude":"47.9461"},{"name":"Kayfan","latitude":"29.3414","longitude":"47.9633"},{"name":"Kuwait City","latitude":"29.3659","longitude":"47.9828"},{"name":"Safat","latitude":"29.3714","longitude":"47.973"}]},{"name":"Al Aḩmadī","code":"01","cities":[{"name":"Al Ahmadi","latitude":"29.0729","longitude":"48.0834"},{"name":"Al Fahahil","latitude":"29.0825","longitude":"48.1303"},{"name":"Al Fintas","latitude":"29.1739","longitude":"48.1211"},{"name":"Ar Riqqah","latitude":"29.1473","longitude":"48.0982"},{"name":"Ash Shu`aybah","latitude":"29.0394","longitude":"48.1338"}]},{"name":"Al Farwaniyah","code":"07","cities":[{"name":"Abraq Khaytan","latitude":"29.2925","longitude":"47.9689"},{"name":"Al Farwaniyah","latitude":"29.2775","longitude":"47.9586"},{"name":"Janub as Surrah","latitude":"29.2692","longitude":"47.9818"}]},{"name":"Hawalli","code":"08","cities":[{"name":"Ar Rumaythiyah","latitude":"29.3117","longitude":"48.0742"},{"name":"As Salimiyah","latitude":"29.3339","longitude":"48.0761"},{"name":"Bayan","latitude":"29.3181","longitude":"48.0392"},{"name":"Hawalli","latitude":"29.3328","longitude":"48.0286"},{"name":"Salwa","latitude":"29.2979","longitude":"48.081"}]},{"name":"Mubārak al Kabīr","code":"09","cities":[{"name":"Abu Fatira","latitude":"29.1975","longitude":"48.1028"},{"name":"Al Funaytis","latitude":"29.2253","longitude":"48.1017"},{"name":"Al-Masayel","latitude":"29.2393","longitude":"48.0886"},{"name":"Mubarak al Kabir","latitude":"29.1912","longitude":"48.0786"},{"name":"Sabah as Salim","latitude":"29.2555","longitude":"48.0554"}]},{"name":"Muhafazat al Jahra'","code":"05","cities":[{"name":"Al Hujayjah","latitude":"29.6547","longitude":"48.1311"},{"name":"Al Jahra","latitude":"29.3375","longitude":"47.6581"},{"name":"Shumaymah","latitude":"29.6178","longitude":"48.1506"}]}]}