{"name":"Kazakhstan","code":"KZ","regions":[{"name":"Aktyubinskaya Oblast'","code":"04","cities":[{"name":"Aktobe","latitude":"50.2981","longitude":"57.1814"},{"name":"Alga","latitude":"49.3","longitude":"56.8"},{"name":"Khromtau","latitude":"50.2512","longitude":"58.44"}]},{"name":"Almaty","code":"02","cities":[{"name":"Almaty","latitude":"43.2638","longitude":"76.9293"},{"name":"Kokkaynar","latitude":"43.2934","longitude":"76.8409"}]},{"name":"Almaty Oblysy","code":"01","cities":[{"name":"Alatay","latitude":"43.3542","longitude":"77.1506"},{"name":"Esik","latitude":"43.355","longitude":"77.4633"},{"name":"Kapshagay","latitude":"43.8668","longitude":"77.063"},{"name":"Kaskelen","latitude":"43.1984","longitude":"76.631"},{"name":"Taldykorgan","latitude":"45.0156","longitude":"78.3739"},{"name":"Talghar","latitude":"43.3035","longitude":"77.2408"},{"name":"Tekeli","latitude":"44.8332","longitude":"78.8309"},{"name":"Tonkeris","latitude":"43.4769","longitude":"77.1379"},{"name":"Turgen","latitude":"43.397","longitude":"77.5861"}]},{"name":"Aqmola Oblysy","code":"03","cities":[{"name":"Kokshetau","latitude":"53.2852","longitude":"69.3922"},{"name":"Makīnsk","latitude":"52.6328","longitude":"70.4148"},{"name":"Stepnogorsk","latitude":"52.3545","longitude":"71.8833"},{"name":"Zholymbet","latitude":"51.7362","longitude":"71.7063"}]},{"name":"Atyrau Oblysy","code":"06","cities":[{"name":"Atyrau","latitude":"47.1167","longitude":"51.8833"},{"name":"Maqat","latitude":"47.6522","longitude":"53.3213"},{"name":"Taskala","latitude":"47.0145","longitude":"51.8965"}]},{"name":"Baikonur","code":"BAY","cities":[{"name":"Baikonur","latitude":"45.6667","longitude":"63.3333"}]},{"name":"East Kazakhstan","code":"15","cities":[{"name":"Kazakhstan","latitude":"48.0972","longitude":"85.2851"},{"name":"Ridder","latitude":"50.3394","longitude":"83.5178"},{"name":"Semey","latitude":"50.4267","longitude":"80.2667"},{"name":"Shemonaīkha","latitude":"50.6304","longitude":"81.9158"},{"name":"Ust-Kamenogorsk","latitude":"49.9647","longitude":"82.609"},{"name":"Zyryanovsk","latitude":"49.7244","longitude":"84.2749"}]},{"name":"Karaganda","code":"12","cities":[{"name":"Abay","latitude":"49.6357","longitude":"72.8616"},{"name":"Balqash","latitude":"46.8481","longitude":"74.995"},{"name":"Bayqongyr","latitude":"47.8358","longitude":"66.0503"},{"name":"Dzhezkazgan","latitude":"47.7833","longitude":"67.7667"},{"name":"Karaganda","latitude":"49.8119","longitude":"73.0969"},{"name":"Osakarovka","latitude":"50.5622","longitude":"72.5709"},{"name":"Shakhtinsk","latitude":"49.7088","longitude":"72.5921"},{"name":"Temirtau","latitude":"50.0549","longitude":"72.9646"}]},{"name":"Mangistauskaya Oblast'","code":"09","cities":[{"name":"Aktau","latitude":"43.6422","longitude":"51.1668"},{"name":"Beyneu","latitude":"45.1862","longitude":"55.103"},{"name":"Fort-Shevchenko","latitude":"44.5032","longitude":"50.2643"},{"name":"Zhangaözen","latitude":"43.3","longitude":"52.8"}]},{"name":"North Kazakhstan","code":"16","cities":[{"name":"Minkeser","latitude":"54.6003","longitude":"67.9368"},{"name":"Petropavl","latitude":"54.8728","longitude":"69.143"}]},{"name":"Nur-Sultan","code":"05","cities":[{"name":"Nur-Sultan","latitude":"51.1879","longitude":"71.4357"}]},{"name":"Pavlodar Region","code":"11","cities":[{"name":"Aqsū","latitude":"52.0729","longitude":"76.9039"},{"name":"Ekibastuz","latitude":"51.7259","longitude":"75.3224"},{"name":"Pavlodar","latitude":"52.2816","longitude":"77.0085"}]},{"name":"Qostanay Oblysy","code":"13","cities":[{"name":"Borovskoy","latitude":"53.7961","longitude":"64.1778"},{"name":"Fedorovka","latitude":"53.635","longitude":"62.6981"},{"name":"Kostanay","latitude":"53.2123","longitude":"63.6281"},{"name":"Līsakovsk","latitude":"52.5471","longitude":"62.4999"},{"name":"Rudnyy","latitude":"52.9729","longitude":"63.1168"},{"name":"Tobol","latitude":"52.6939","longitude":"62.5826"}]},{"name":"Qyzylorda Oblysy","code":"14","cities":[{"name":"Kyzylorda","latitude":"44.8528","longitude":"65.5092"}]},{"name":"Shymkent","code":"SHY","cities":[{"name":"Shymkent","latitude":"42.2994","longitude":"69.606"}]},{"name":"South Kazakhstan","code":"10","cities":[{"name":"Arys","latitude":"42.7696","longitude":"68.4022"},{"name":"Kentau","latitude":"43.5206","longitude":"68.5094"},{"name":"Saryaghash","latitude":"41.452","longitude":"69.1646"},{"name":"Sayram","latitude":"42.2958","longitude":"69.7715"},{"name":"Temirlanovka","latitude":"42.598","longitude":"69.2623"},{"name":"Turkestan","latitude":"43.3333","longitude":"68.25"}]},{"name":"West Kazakhstan","code":"07","cities":[{"name":"Aksay","latitude":"51.1681","longitude":"52.9978"},{"name":"Oral","latitude":"51.2333","longitude":"51.3667"}]},{"name":"Zhambyl Oblysy","code":"17","cities":[{"name":"Merke","latitude":"42.8677","longitude":"73.1762"},{"name":"Taraz","latitude":"42.8967","longitude":"71.3575"}]}]}