{"name":"Republic of Lithuania","code":"LT","regions":[{"name":"Akmenė District Municipality","code":"01","cities":[{"name":"Akmene","latitude":"56.253","longitude":"22.7499"},{"name":"Naujoji Akmenė","latitude":"56.3167","longitude":"22.9"},{"name":"Venta","latitude":"56.2","longitude":"22.7"}]},{"name":"Alytus City Municipality","code":"03","cities":[{"name":"Alytus","latitude":"54.4","longitude":"24.05"}]},{"name":"Alytus District Municipality","code":"02","cities":[{"name":"Daugai","latitude":"54.3669","longitude":"24.3288"},{"name":"Luksnenai","latitude":"54.3962","longitude":"23.9143"},{"name":"Punia","latitude":"54.5186","longitude":"24.1448"},{"name":"Simnas","latitude":"54.4","longitude":"23.65"},{"name":"Vieciunai","latitude":"54.05","longitude":"24.0333"}]},{"name":"Anykščiai District Municipality","code":"04","cities":[{"name":"Anykščiai","latitude":"55.5256","longitude":"25.1026"}]},{"name":"Birštonas Municipality","code":"05","cities":[{"name":"Birštonas","latitude":"54.6167","longitude":"24.0333"}]},{"name":"Biržai District Municipality","code":"06","cities":[{"name":"Biržai","latitude":"56.2","longitude":"24.75"},{"name":"Nemunėlio Radviliškis","latitude":"56.4","longitude":"24.7731"},{"name":"Vabalninkas","latitude":"55.9667","longitude":"24.75"}]},{"name":"Druskininkai Municipality","code":"07","cities":[{"name":"Druskininkai","latitude":"54.0167","longitude":"23.9667"}]},{"name":"Elektrėnai Municipality","code":"08","cities":[{"name":"Pastrevys","latitude":"54.7167","longitude":"24.6667"},{"name":"Senosios Kietaviskes","latitude":"54.7686","longitude":"24.6227"}]},{"name":"Ignalina District Municipality","code":"09","cities":[{"name":"Ignalina","latitude":"55.35","longitude":"26.1667"}]},{"name":"Jonava District Municipality","code":"10","cities":[{"name":"Juskonys","latitude":"55.2333","longitude":"24.2167"}]},{"name":"Joniškis District Municipality","code":"11","cities":[{"name":"Bariunai","latitude":"56.2536","longitude":"23.6685"},{"name":"Berzininkai","latitude":"56.229","longitude":"23.6394"},{"name":"Joniškis","latitude":"56.2403","longitude":"23.6153"},{"name":"Skaistgirys","latitude":"56.3031","longitude":"23.3857"},{"name":"Zagare","latitude":"56.362","longitude":"23.2549"}]},{"name":"Jurbarkas District Municipality","code":"12","cities":[{"name":"Jurbarkas","latitude":"55.0872","longitude":"22.7394"},{"name":"Smalininkai","latitude":"55.0756","longitude":"22.5797"},{"name":"Vadžgirys","latitude":"55.2543","longitude":"22.9231"}]},{"name":"Kaišiadorys District Municipality","code":"13","cities":[{"name":"Kaišiadorys","latitude":"54.8667","longitude":"24.45"},{"name":"Kruonis","latitude":"54.7667","longitude":"24.2333"},{"name":"Rumšiškės","latitude":"54.85","longitude":"24.2"},{"name":"Žiežmariai","latitude":"54.8","longitude":"24.45"}]},{"name":"Kalvarija Municipality","code":"14","cities":[{"name":"Kalvarija","latitude":"54.4","longitude":"23.2333"}]},{"name":"Kaunas","code":"16","cities":[{"name":"Kaunas","latitude":"54.9002","longitude":"23.9002"},{"name":"Rokai","latitude":"54.8333","longitude":"23.95"}]},{"name":"Kaunas","code":"57","cities":[{"name":"Avizieniai","latitude":"54.7673","longitude":"25.1764"},{"name":"Ažulauke","latitude":"54.8667","longitude":"25.35"},{"name":"Bendoriai","latitude":"54.8","longitude":"25.2"},{"name":"Bezdonys","latitude":"54.8011","longitude":"25.527"},{"name":"Bukiskis","latitude":"54.7619","longitude":"25.2097"},{"name":"Dūkštos","latitude":"54.8365","longitude":"24.9625"},{"name":"Galgiai","latitude":"54.7167","longitude":"25.4167"},{"name":"Jonava","latitude":"55.086","longitude":"24.2953"},{"name":"Juodšiliai","latitude":"54.5838","longitude":"25.2733"},{"name":"Linksmakalnis","latitude":"54.7576","longitude":"23.9308"},{"name":"Maišiagala","latitude":"54.8667","longitude":"25.0667"},{"name":"Nemenčinė","latitude":"54.85","longitude":"25.4833"},{"name":"Pravieniskes","latitude":"54.9167","longitude":"24.2333"},{"name":"Rudamina","latitude":"54.5803","longitude":"25.3543"},{"name":"Skaidiskes","latitude":"54.6176","longitude":"25.3861"},{"name":"Vaidotai","latitude":"54.6","longitude":"25.1667"},{"name":"Vievis","latitude":"54.7667","longitude":"24.8"}]},{"name":"Kaunas District Municipality","code":"15","cities":[{"name":"Babtai","latitude":"55.1","longitude":"23.8"},{"name":"Domeikava","latitude":"54.9697","longitude":"23.9265"},{"name":"Ežerėlis","latitude":"54.8855","longitude":"23.6215"},{"name":"Garliava","latitude":"54.8167","longitude":"23.8667"},{"name":"Karmėlava","latitude":"54.9667","longitude":"24.0667"},{"name":"Lapes","latitude":"54.9693","longitude":"24.0114"},{"name":"Neveronys","latitude":"54.9134","longitude":"24.1017"},{"name":"Pazerai","latitude":"54.8205","longitude":"23.7339"},{"name":"Raudondvaris","latitude":"54.9333","longitude":"23.8"},{"name":"Uzliedziai","latitude":"54.9664","longitude":"23.8055"},{"name":"Vilkija","latitude":"55.05","longitude":"23.5833"}]},{"name":"Kazlu Ruda Municipality","code":"17","cities":[{"name":"Kazlų Rūda","latitude":"54.7667","longitude":"23.5"}]},{"name":"Kelmė District Municipality","code":"19","cities":[{"name":"Kelmė","latitude":"55.6339","longitude":"22.9342"},{"name":"Maneikiai","latitude":"55.6167","longitude":"23.0"},{"name":"Meskuiciai","latitude":"55.7","longitude":"22.6667"},{"name":"Turava","latitude":"55.5","longitude":"22.85"},{"name":"Tytuvenai","latitude":"55.6","longitude":"23.2"},{"name":"Užventis","latitude":"55.7803","longitude":"22.6547"}]},{"name":"Klaipėda City Municipality","code":"21","cities":[{"name":"Klaipėda","latitude":"55.7151","longitude":"21.1112"},{"name":"Palanga","latitude":"55.9175","longitude":"21.0686"}]},{"name":"Klaipėda District Municipality","code":"20","cities":[{"name":"Dovilai","latitude":"55.6619","longitude":"21.3572"},{"name":"Gargždai","latitude":"55.7128","longitude":"21.4033"},{"name":"Girkaliai","latitude":"55.8633","longitude":"21.113"},{"name":"Kretingalė","latitude":"55.8167","longitude":"21.2"},{"name":"Maciuiciai","latitude":"55.6852","longitude":"21.4194"},{"name":"Pjauliai","latitude":"55.5309","longitude":"21.2677"},{"name":"Priekulė","latitude":"55.5536","longitude":"21.3267"},{"name":"Purmaliai","latitude":"55.766","longitude":"21.1399"},{"name":"Slengiai","latitude":"55.74","longitude":"21.1925"},{"name":"Stanciai","latitude":"55.8185","longitude":"21.1616"},{"name":"Sudmantai","latitude":"55.8833","longitude":"21.1333"},{"name":"Veiviržėnai","latitude":"55.5997","longitude":"21.6028"},{"name":"Vėžaičiai","latitude":"55.714","longitude":"21.4797"}]},{"name":"Kretinga District Municipality","code":"22","cities":[{"name":"Bajorai","latitude":"55.8667","longitude":"21.2167"},{"name":"Darbenai","latitude":"56.0147","longitude":"21.2484"},{"name":"Kretinga","latitude":"55.8758","longitude":"21.2508"},{"name":"Prysmanciai","latitude":"55.8825","longitude":"21.1688"},{"name":"Raguviskiai","latitude":"55.8694","longitude":"21.3643"},{"name":"Salantai","latitude":"56.0671","longitude":"21.5602"},{"name":"Tubausiai","latitude":"55.95","longitude":"21.3"},{"name":"Valenai","latitude":"55.8333","longitude":"21.25"}]},{"name":"Kupiškis District Municipality","code":"23","cities":[{"name":"Kupiškis","latitude":"55.8333","longitude":"24.9667"},{"name":"Noriunai","latitude":"55.8","longitude":"24.9"}]},{"name":"Kėdainiai District Municipality","code":"18","cities":[{"name":"Akademija","latitude":"55.4","longitude":"23.8667"},{"name":"Kėdainiai","latitude":"55.2885","longitude":"23.9851"},{"name":"Pelednagiai","latitude":"55.25","longitude":"23.9552"},{"name":"Šėta","latitude":"55.2809","longitude":"24.2461"}]},{"name":"Lazdijai District Municipality","code":"24","cities":[{"name":"Babrauninkai","latitude":"54.3296","longitude":"23.6528"},{"name":"Kuciunai","latitude":"54.1319","longitude":"23.5106"},{"name":"Lazdijai","latitude":"54.2333","longitude":"23.5167"},{"name":"Naujoji Kirsna","latitude":"54.3333","longitude":"23.4833"},{"name":"Seirijai","latitude":"54.2369","longitude":"23.8194"},{"name":"Veisiejai","latitude":"54.1","longitude":"23.7"},{"name":"Verstaminai","latitude":"54.3","longitude":"23.5667"},{"name":"Šeštokai","latitude":"54.369","longitude":"23.4293"}]},{"name":"Marijampole Municipality","code":"25","cities":[{"name":"Marijampolė","latitude":"54.5649","longitude":"23.3462"},{"name":"Patasine","latitude":"54.5515","longitude":"23.4164"},{"name":"Puskelniai","latitude":"54.6155","longitude":"23.3867"},{"name":"Sasnava","latitude":"54.65","longitude":"23.4667"},{"name":"Šunskai","latitude":"54.6524","longitude":"23.3174"},{"name":"Želsva","latitude":"54.431","longitude":"23.395"}]},{"name":"Marijampolė County","code":"59","cities":[{"name":"Mastaiciai","latitude":"55.0685","longitude":"22.9019"},{"name":"Visaginas","latitude":"55.596","longitude":"26.4111"}]},{"name":"Mažeikiai District Municipality","code":"26","cities":[{"name":"Seda","latitude":"56.1673","longitude":"22.0982"},{"name":"Tirksliai","latitude":"56.2667","longitude":"22.3167"},{"name":"Tulnikiai","latitude":"56.3791","longitude":"22.2907"},{"name":"Vieksniai","latitude":"56.2333","longitude":"22.5167"}]},{"name":"Molėtai District Municipality","code":"27","cities":[{"name":"Joniskis","latitude":"55.07","longitude":"25.6513"},{"name":"Molėtai","latitude":"55.2333","longitude":"25.4167"},{"name":"Noreikiskes","latitude":"55.185","longitude":"25.5841"}]},{"name":"Neringa Municipality","code":"28","cities":[{"name":"Nida","latitude":"55.3719","longitude":"21.0647"}]},{"name":"Pagėgiai Municipality","code":"29","cities":[{"name":"Pagėgiai","latitude":"55.1381","longitude":"21.9089"},{"name":"Šilgaliai","latitude":"55.1601","longitude":"21.8109"}]},{"name":"Pakruojis District Municipality","code":"30","cities":[{"name":"Norvaisiai","latitude":"56.0489","longitude":"23.7358"},{"name":"Pakruojis","latitude":"55.9667","longitude":"23.8667"},{"name":"Rozalimas","latitude":"55.8795","longitude":"23.8811"}]},{"name":"Panevėžys City","code":"32","cities":[{"name":"Eriskiai","latitude":"55.5843","longitude":"24.2723"},{"name":"Jotainiai","latitude":"55.5471","longitude":"24.419"},{"name":"Noreikiai","latitude":"55.5833","longitude":"23.9333"},{"name":"Panevezys","latitude":"55.7308","longitude":"24.3517"},{"name":"Velzelis","latitude":"55.701","longitude":"24.4332"},{"name":"Velzys","latitude":"55.6988","longitude":"24.4343"}]},{"name":"Panevėžys District Municipality","code":"33","cities":[{"name":"Krekenava","latitude":"55.5502","longitude":"24.0981"},{"name":"Ramygala","latitude":"55.5167","longitude":"24.3"}]},{"name":"Pasvalys District Municipality","code":"34","cities":[{"name":"Joniškėlis","latitude":"56.0283","longitude":"24.1679"},{"name":"Namisiai","latitude":"56.2137","longitude":"24.3064"}]},{"name":"Plungė District Municipality","code":"35","cities":[{"name":"Alsedziai","latitude":"56.033","longitude":"22.0528"},{"name":"Kalniskiai","latitude":"55.9333","longitude":"22.1167"},{"name":"Plateliai","latitude":"56.0538","longitude":"21.8162"}]},{"name":"Prienai District Municipality","code":"36","cities":[{"name":"Balbieriškis","latitude":"54.5332","longitude":"23.8856"},{"name":"Islauzas","latitude":"54.736","longitude":"23.932"},{"name":"Jieznas","latitude":"54.6","longitude":"24.1667"},{"name":"Piestuvenai","latitude":"54.6333","longitude":"24.3167"},{"name":"Prienai","latitude":"54.6333","longitude":"23.95"},{"name":"Sukuriai","latitude":"54.4819","longitude":"23.8217"},{"name":"Veiveriai","latitude":"54.7678","longitude":"23.7191"}]},{"name":"Radviliškis District Municipality","code":"37","cities":[{"name":"Baisogala","latitude":"55.6333","longitude":"23.7167"},{"name":"Tyruliai","latitude":"55.7481","longitude":"23.2545"},{"name":"Vaiduliai","latitude":"55.7907","longitude":"23.5513"},{"name":"Šeduva","latitude":"55.7667","longitude":"23.7667"}]},{"name":"Raseiniai District Municipality","code":"38","cities":[{"name":"Ariogala","latitude":"55.2654","longitude":"23.4601"},{"name":"Girkalnis","latitude":"55.3167","longitude":"23.2167"},{"name":"Ilgiziukai","latitude":"55.4","longitude":"23.5"},{"name":"Kalnujai","latitude":"55.3345","longitude":"23.1068"},{"name":"Raseiniai","latitude":"55.3736","longitude":"23.1217"},{"name":"Vidukle","latitude":"55.4009","longitude":"22.8979"}]},{"name":"Rietavas Municipality","code":"39","cities":[{"name":"Rietavas","latitude":"55.7226","longitude":"21.9271"}]},{"name":"Rokiškis District Municipality","code":"40","cities":[{"name":"Juodupė","latitude":"56.0833","longitude":"25.6167"},{"name":"Rokiškis","latitude":"55.9651","longitude":"25.5945"}]},{"name":"Siauliai","code":"61","cities":[{"name":"Radviliškis","latitude":"55.8167","longitude":"23.5333"}]},{"name":"Skuodas District Municipality","code":"48","cities":[{"name":"Mosedis","latitude":"56.1641","longitude":"21.578"},{"name":"Skuodas","latitude":"56.2657","longitude":"21.5274"}]},{"name":"Tauragė County","code":"62","cities":[{"name":"Tauragė","latitude":"55.2522","longitude":"22.2897"}]},{"name":"Tauragė District Municipality","code":"50","cities":[{"name":"Mažonai","latitude":"55.3229","longitude":"22.2937"},{"name":"Pajuris","latitude":"55.2185","longitude":"22.2501"}]},{"name":"Telsiai","code":"63","cities":[{"name":"Mažeikiai","latitude":"56.3169","longitude":"22.3385"},{"name":"Plungė","latitude":"55.9124","longitude":"21.8302"}]},{"name":"Telšiai District Municipality","code":"51","cities":[{"name":"Dziuginenai","latitude":"55.9798","longitude":"22.1833"},{"name":"Eigirdziai","latitude":"56.0129","longitude":"22.364"},{"name":"Telšiai","latitude":"55.9792","longitude":"22.2489"},{"name":"Tryskiai","latitude":"56.0667","longitude":"22.5833"}]},{"name":"Trakai District Municipality","code":"52","cities":[{"name":"Lentvaris","latitude":"54.65","longitude":"25.05"},{"name":"Rūdiškės","latitude":"54.5152","longitude":"24.8393"},{"name":"Vosyliukai","latitude":"54.7148","longitude":"25.032"}]},{"name":"Utena District Municipality","code":"54","cities":[{"name":"Utena","latitude":"55.5","longitude":"25.6"}]},{"name":"Varėna District Municipality","code":"55","cities":[{"name":"Darzininkai","latitude":"54.3333","longitude":"24.8833"},{"name":"Giraite","latitude":"54.2667","longitude":"24.2667"},{"name":"Nedingė","latitude":"54.251","longitude":"24.3271"},{"name":"Varena","latitude":"54.2167","longitude":"24.5667"},{"name":"Vydeniai","latitude":"54.1851","longitude":"24.7345"}]},{"name":"Vilkaviskis District Municipality","code":"56","cities":[{"name":"Gižai","latitude":"54.6183","longitude":"23.2299"},{"name":"Mazuciai","latitude":"54.6023","longitude":"22.8813"},{"name":"Pilviškiai","latitude":"54.7167","longitude":"23.2167"},{"name":"Vilkaviškis","latitude":"54.6543","longitude":"23.0283"},{"name":"Virbalis","latitude":"54.6276","longitude":"22.8104"}]},{"name":"Vilnius","code":"65","cities":[{"name":"Elektrėnai","latitude":"54.7854","longitude":"24.663"},{"name":"Pabradė","latitude":"55.0","longitude":"25.7833"},{"name":"Riese","latitude":"54.8175","longitude":"25.2341"},{"name":"Sudervė","latitude":"54.7695","longitude":"25.1047"},{"name":"Trakai","latitude":"54.6363","longitude":"24.9297"},{"name":"Ukmerge","latitude":"55.25","longitude":"24.75"}]},{"name":"Vilnius City Municipality","code":"58","cities":[{"name":"Agluonenai","latitude":"55.599","longitude":"21.3936"},{"name":"Dreverna","latitude":"55.5307","longitude":"21.2543"},{"name":"Endriejavas","latitude":"55.685","longitude":"21.71"},{"name":"Grigiškės","latitude":"54.6834","longitude":"25.0823"},{"name":"Vilnius","latitude":"54.6816","longitude":"25.3225"},{"name":"Šilutė","latitude":"55.3489","longitude":"21.4831"}]},{"name":"Zarasai District Municipality","code":"60","cities":[{"name":"Duliai","latitude":"55.6167","longitude":"25.8833"},{"name":"Imbradas","latitude":"55.7833","longitude":"26.1"},{"name":"Pasvalys","latitude":"56.0594","longitude":"24.4036"},{"name":"Salakas","latitude":"55.5867","longitude":"26.13"},{"name":"Zarasai","latitude":"55.7333","longitude":"26.25"}]},{"name":"Šakiai District Municipality","code":"41","cities":[{"name":"Barzdai","latitude":"54.7808","longitude":"23.1956"},{"name":"Giedruciai","latitude":"54.9648","longitude":"23.0224"},{"name":"Kudirkos Naumiestis","latitude":"54.7731","longitude":"22.8631"},{"name":"Lekeciai","latitude":"54.9667","longitude":"23.5"},{"name":"Šakiai","latitude":"54.95","longitude":"23.05"}]},{"name":"Šalčininkai District Municipality","code":"42","cities":[{"name":"Jašiūnai","latitude":"54.4521","longitude":"25.3347"},{"name":"Šalčininkai","latitude":"54.3","longitude":"25.3833"},{"name":"Šalčininkėliai","latitude":"54.4521","longitude":"25.3347"}]},{"name":"Šiauliai City Municipality","code":"44","cities":[{"name":"Šiauliai","latitude":"55.9367","longitude":"23.3161"}]},{"name":"Šiauliai District Municipality","code":"43","cities":[{"name":"Gruzdziai","latitude":"56.1003","longitude":"23.2536"},{"name":"Kairiai","latitude":"55.9146","longitude":"23.4275"},{"name":"Kuršėnai","latitude":"56.0032","longitude":"22.9366"},{"name":"Mazeikiai","latitude":"56.0908","longitude":"23.1"},{"name":"Sakyna","latitude":"56.1794","longitude":"23.1244"},{"name":"Sutkunai","latitude":"55.9849","longitude":"23.3289"},{"name":"Zadziunai","latitude":"55.9002","longitude":"23.4982"}]},{"name":"Šilalė District Municipality","code":"45","cities":[{"name":"Kvėdarna","latitude":"55.5589","longitude":"21.9903"},{"name":"Laukuva","latitude":"55.6206","longitude":"22.23"},{"name":"Zvingiai","latitude":"55.4031","longitude":"22.0225"},{"name":"Šilalė","latitude":"55.4926","longitude":"22.1854"}]},{"name":"Šilutė District Municipality","code":"46","cities":[{"name":"Bikavenai","latitude":"55.4036","longitude":"22.0074"},{"name":"Juknaičiai","latitude":"55.2917","longitude":"21.5778"},{"name":"Pangiriai","latitude":"55.5251","longitude":"21.3989"},{"name":"Sakūčiai","latitude":"55.4519","longitude":"21.3479"},{"name":"Švėkšna","latitude":"55.5197","longitude":"21.6208"},{"name":"Žemaičių Naumiestis","latitude":"55.3603","longitude":"21.6957"}]},{"name":"Širvintos District Municipality","code":"47","cities":[{"name":"Gelvonai","latitude":"55.0667","longitude":"24.7"},{"name":"Kernavė","latitude":"54.8807","longitude":"24.8445"},{"name":"Siauliai","latitude":"54.948","longitude":"25.0607"},{"name":"Širvintos","latitude":"55.05","longitude":"24.95"}]},{"name":"Švenčionys District Municipality","code":"49","cities":[{"name":"Švenčionys","latitude":"55.15","longitude":"26.1667"},{"name":"Švenčionėliai","latitude":"55.1652","longitude":"25.9873"}]}]}