{"name":"Libya","code":"LY","regions":[{"name":"Al Butnan","code":"BU","cities":[{"name":"Az Zawiyah","latitude":"31.9871","longitude":"24.6654"},{"name":"Tobruk","latitude":"32.0836","longitude":"23.9764"}]},{"name":"Al Jabal al Akhdar","code":"JA","cities":[{"name":"Al Abraq","latitude":"32.7878","longitude":"21.9916"},{"name":"Al Bayda'","latitude":"32.7664","longitude":"21.7417"},{"name":"Massah","latitude":"32.7536","longitude":"21.6301"}]},{"name":"Al Jafarah","code":"JI","cities":[{"name":"Al 'Aziziyah","latitude":"32.5319","longitude":"13.0175"}]},{"name":"Al Jufrah","code":"JU","cities":[{"name":"Hun","latitude":"29.1189","longitude":"15.9334"},{"name":"Waddan","latitude":"29.1667","longitude":"16.1333"}]},{"name":"Al Kufrah","code":"KF","cities":[{"name":"Al Jawf","latitude":"24.2","longitude":"23.3"},{"name":"At Taj","latitude":"24.2205","longitude":"23.3008"}]},{"name":"Al Marj","code":"MJ","cities":[{"name":"Al Marj","latitude":"32.4966","longitude":"20.8296"}]},{"name":"Al Marqab","code":"MB","cities":[{"name":"Al Khums","latitude":"32.6501","longitude":"14.2625"}]},{"name":"Al Wahat","code":"WA","cities":[{"name":"Ajdabiya","latitude":"30.7592","longitude":"20.2231"}]},{"name":"An Nuqat al Khams","code":"NQ","cities":[{"name":"Zuwarah","latitude":"32.9344","longitude":"12.0792"}]},{"name":"Az Zawiyah","code":"ZA","cities":[{"name":"Zawiya","latitude":"32.7578","longitude":"12.7347"}]},{"name":"Darnah","code":"DR","cities":[{"name":"Darnah","latitude":"32.765","longitude":"22.6392"}]},{"name":"Ghat","code":"GT","cities":[{"name":"Ghat","latitude":"24.9647","longitude":"10.1728"}]},{"name":"Jabal al Gharbi","code":"JG","cities":[{"name":"Gharyan","latitude":"32.1722","longitude":"13.0203"}]},{"name":"Murzuq","code":"MQ","cities":[{"name":"Murzuq","latitude":"25.9044","longitude":"13.8972"}]},{"name":"Nalut","code":"NL","cities":[{"name":"Ghadames","latitude":"30.1333","longitude":"9.5"},{"name":"Nalut","latitude":"31.8714","longitude":"10.9852"}]},{"name":"Sha'biyat Banghazi","code":"BA","cities":[{"name":"Benghazi","latitude":"32.1167","longitude":"20.0667"}]},{"name":"Sha'biyat Misratah","code":"MI","cities":[{"name":"Misratah","latitude":"32.3783","longitude":"15.0906"}]},{"name":"Surt","code":"SR","cities":[{"name":"Sirte","latitude":"31.2064","longitude":"16.5906"}]},{"name":"Tripoli","code":"TB","cities":[{"name":"Tripoli","latitude":"32.8908","longitude":"13.1796"}]},{"name":"Wadi al Hayat","code":"84","cities":[{"name":"Ubari","latitude":"26.5833","longitude":"12.7667"}]},{"name":"Wadi ash Shati'","code":"78","cities":[{"name":"Idri","latitude":"27.5","longitude":"13.2667"}]}]}