{"name":"Morocco","code":"MA","regions":[{"name":"Beni Mellal-Khenifra","code":"46","cities":[{"name":"Al Fqih Ben Calah","latitude":"32.5009","longitude":"-6.6906"},{"name":"Azilal","latitude":"31.9616","longitude":"-6.5711"},{"name":"Beni Mellal","latitude":"32.3373","longitude":"-6.3498"},{"name":"Boufekrane","latitude":"32.1192","longitude":"-6.7439"},{"name":"Boumia","latitude":"32.7218","longitude":"-5.1059"},{"name":"Demnate","latitude":"31.7344","longitude":"-7.0051"},{"name":"El Ksiba","latitude":"32.5729","longitude":"-6.0195"},{"name":"Kasba Tadla","latitude":"32.5977","longitude":"-6.2684"},{"name":"Khenifra","latitude":"32.9391","longitude":"-5.6686"},{"name":"Khouribga","latitude":"32.8804","longitude":"-6.9057"},{"name":"Midelt","latitude":"32.6852","longitude":"-4.7451"},{"name":"Mrirt","latitude":"33.1698","longitude":"-5.5671"},{"name":"Oued Zem","latitude":"32.8627","longitude":"-6.5736"},{"name":"Tarhzirt","latitude":"32.4361","longitude":"-6.1924"},{"name":"Zaouia Ait Ishak","latitude":"32.7584","longitude":"-5.7242"}]},{"name":"Casablanca-Settat","code":"48","cities":[{"name":"Ad Darwa","latitude":"33.41","longitude":"-7.53"},{"name":"Ain Harrouda","latitude":"33.6358","longitude":"-7.4419"},{"name":"Azamor","latitude":"33.2895","longitude":"-8.3425"},{"name":"Beni Yakhlef","latitude":"33.6841","longitude":"-7.3392"},{"name":"Berrechid","latitude":"33.2655","longitude":"-7.5875"},{"name":"Bir Jdid","latitude":"33.3747","longitude":"-7.9925"},{"name":"Bouskoura","latitude":"33.4498","longitude":"-7.6524"},{"name":"Bouznika","latitude":"33.7894","longitude":"-7.1597"},{"name":"Casablanca","latitude":"33.5922","longitude":"-7.6184"},{"name":"Dar Bouazza","latitude":"33.5118","longitude":"-7.8191"},{"name":"El Arba Amrane","latitude":"32.3947","longitude":"-8.5158"},{"name":"Laayoune","latitude":"33.6677","longitude":"-7.0622"},{"name":"Mansoriyeh","latitude":"33.7502","longitude":"-7.3004"},{"name":"Mohammedia","latitude":"33.7066","longitude":"-7.3944"},{"name":"Oualidia","latitude":"32.7396","longitude":"-9.0269"},{"name":"Settat","latitude":"33.0011","longitude":"-7.6195"},{"name":"Sidi Bennour","latitude":"32.6524","longitude":"-8.4277"},{"name":"Souq at Tlata des Loulad","latitude":"32.98","longitude":"-7.13"},{"name":"Zawyat an Nwacer","latitude":"33.3802","longitude":"-7.6211"},{"name":"Zemamra","latitude":"32.6253","longitude":"-8.7021"}]},{"name":"Dakhla-Oued Ed-Dahab","code":"56","cities":[{"name":"Imlili","latitude":"22.6558","longitude":"-15.6072"}]},{"name":"Draa-Tafilalet","code":"45","cities":[{"name":"Arfoud","latitude":"31.4279","longitude":"-4.231"},{"name":"Errachidia","latitude":"31.9314","longitude":"-4.4266"},{"name":"Goulmima","latitude":"31.6919","longitude":"-4.9529"},{"name":"Gourrama","latitude":"32.3402","longitude":"-4.0735"},{"name":"Nkob","latitude":"30.6087","longitude":"-7.4345"},{"name":"Ouarzazate","latitude":"30.9176","longitude":"-6.9162"},{"name":"Recani","latitude":"31.2839","longitude":"-4.2733"},{"name":"Tinajdad","latitude":"31.5094","longitude":"-5.0313"},{"name":"Tinghir","latitude":"31.5153","longitude":"-5.5301"}]},{"name":"Fes-Meknes","code":"58","cities":[{"name":"Ain Cheggag","latitude":"33.8967","longitude":"-5.0382"},{"name":"Ain Taoujdat","latitude":"33.9357","longitude":"-5.2133"},{"name":"Azrou","latitude":"33.4344","longitude":"-5.2213"},{"name":"El Hajeb","latitude":"33.6879","longitude":"-5.371"},{"name":"Es Sebt","latitude":"34.35","longitude":"-3.91"},{"name":"Fes","latitude":"34.0368","longitude":"-5.0008"},{"name":"Guercif","latitude":"34.2228","longitude":"-3.3544"},{"name":"Imouzzer Kandar","latitude":"33.7287","longitude":"-5.0109"},{"name":"Karia Ba Mohamed","latitude":"34.3697","longitude":"-5.2149"},{"name":"Meknes","latitude":"33.8916","longitude":"-5.5396"},{"name":"Missour","latitude":"33.0446","longitude":"-3.9866"},{"name":"Oued Amlil","latitude":"34.2","longitude":"-4.28"},{"name":"Sefrou","latitude":"33.8319","longitude":"-4.828"},{"name":"Skhirat","latitude":"34.1031","longitude":"-5.4395"},{"name":"Tahla","latitude":"34.0496","longitude":"-4.4216"},{"name":"Taounate","latitude":"34.5382","longitude":"-4.6414"},{"name":"Taza","latitude":"34.21","longitude":"-4.01"},{"name":"Zawyat Ifrane","latitude":"33.196","longitude":"-5.421"}]},{"name":"Guelmim-Oued Noun","code":"51","cities":[{"name":"Fask","latitude":"28.9912","longitude":"-9.8327"},{"name":"Guelmim","latitude":"28.987","longitude":"-10.0574"},{"name":"Tan-Tan","latitude":"28.438","longitude":"-11.1032"}]},{"name":"Laayoune-Sakia El Hamra","code":"47","cities":[{"name":"Akhfennir","latitude":"28.0983","longitude":"-12.0533"},{"name":"Gueltat Zemmour","latitude":"25.1428","longitude":"-12.3717"},{"name":"Khaoui Naam","latitude":"27.6825","longitude":"-12.1967"},{"name":"Tarfaya","latitude":"27.9358","longitude":"-12.9218"}]},{"name":"Marrakesh-Safi","code":"49","cities":[{"name":"Agadir","latitude":"30.9563","longitude":"-8.7081"},{"name":"Ait Ourir","latitude":"31.5642","longitude":"-7.6704"},{"name":"Asmara","latitude":"32.15","longitude":"-8.25"},{"name":"Ayt Mloul","latitude":"31.53","longitude":"-8.18"},{"name":"Ben Guerir","latitude":"32.2403","longitude":"-7.9543"},{"name":"Chichaoua","latitude":"31.5402","longitude":"-8.7585"},{"name":"Echemmaia Est","latitude":"32.0721","longitude":"-8.6313"},{"name":"Essaouira","latitude":"31.5125","longitude":"-9.77"},{"name":"Marrakesh","latitude":"31.6298","longitude":"-8.0101"},{"name":"Safi","latitude":"32.2994","longitude":"-9.2372"},{"name":"Salah","latitude":"31.7637","longitude":"-8.42"},{"name":"Youssoufia","latitude":"32.2463","longitude":"-8.5294"}]},{"name":"Oriental","code":"52","cities":[{"name":"Aklim","latitude":"34.9183","longitude":"-2.4345"},{"name":"Al Aaroui","latitude":"35.0075","longitude":"-3.011"},{"name":"Beni Enzar","latitude":"35.26","longitude":"-2.93"},{"name":"Berkane","latitude":"34.92","longitude":"-2.32"},{"name":"El Aioun","latitude":"34.5832","longitude":"-2.5061"},{"name":"Jerada","latitude":"34.3109","longitude":"-2.158"},{"name":"Nador","latitude":"35.174","longitude":"-2.9287"},{"name":"Oujda","latitude":"34.6801","longitude":"-1.9086"},{"name":"Saidia","latitude":"35.091","longitude":"-2.2368"},{"name":"Taourirt","latitude":"34.4124","longitude":"-2.896"},{"name":"Zaio","latitude":"34.9428","longitude":"-2.7329"}]},{"name":"Rabat-Sale-Kenitra","code":"54","cities":[{"name":"Ain El Aouda","latitude":"33.8062","longitude":"-6.7967"},{"name":"Ar Rommani","latitude":"33.5258","longitude":"-6.6073"},{"name":"Bouknadel","latitude":"34.1151","longitude":"-6.7361"},{"name":"Douar Zaouya","latitude":"34.8797","longitude":"-6.2994"},{"name":"El Kebab","latitude":"34.4452","longitude":"-5.4787"},{"name":"El Maarif","latitude":"34.4778","longitude":"-5.4501"},{"name":"Kenitra","latitude":"34.2619","longitude":"-6.5821"},{"name":"Khemisset","latitude":"33.824","longitude":"-6.0663"},{"name":"Mehediyah","latitude":"34.2631","longitude":"-6.6509"},{"name":"Moulay Bouazza","latitude":"33.5732","longitude":"-5.7961"},{"name":"Oulmes","latitude":"33.4257","longitude":"-6.0107"},{"name":"Rabat","latitude":"34.0123","longitude":"-6.8484"},{"name":"Salé","latitude":"34.0347","longitude":"-6.8175"},{"name":"Sidi Allal","latitude":"33.808","longitude":"-5.8613"},{"name":"Sidi Kacem","latitude":"34.2215","longitude":"-5.7077"},{"name":"Sidi Slimane","latitude":"34.2648","longitude":"-5.926"},{"name":"Sidi Taibi","latitude":"34.1927","longitude":"-6.6822"},{"name":"Sidi Yahia El Gharb","latitude":"34.3098","longitude":"-6.3139"},{"name":"Skhirate","latitude":"33.8498","longitude":"-7.0404"},{"name":"Souk et Tnine Jorf el Mellah","latitude":"34.484","longitude":"-5.5128"},{"name":"Temara","latitude":"33.9246","longitude":"-6.9014"},{"name":"Teroual","latitude":"34.6791","longitude":"-5.2769"},{"name":"Tiflet","latitude":"33.8947","longitude":"-6.3065"}]},{"name":"Souss-Massa","code":"50","cities":[{"name":"Agadir","latitude":"30.4201","longitude":"-9.5912"},{"name":"Ait Iazza","latitude":"30.0965","longitude":"-9.1687"},{"name":"Anzi","latitude":"29.6327","longitude":"-9.3834"},{"name":"Blougra","latitude":"30.0376","longitude":"-9.0646"},{"name":"Inezgane","latitude":"30.3554","longitude":"-9.5364"},{"name":"Oulad Teima","latitude":"30.3947","longitude":"-9.209"},{"name":"Sidi Ifni","latitude":"29.3797","longitude":"-10.173"},{"name":"Taroudant","latitude":"30.4711","longitude":"-8.8807"},{"name":"Tata","latitude":"29.7441","longitude":"-7.973"},{"name":"Tiznit","latitude":"29.6974","longitude":"-9.7316"}]},{"name":"Tanger-Tetouan-Al Hoceima","code":"57","cities":[{"name":"Al Hoceima","latitude":"35.2437","longitude":"-3.9259"},{"name":"Asilah","latitude":"35.465","longitude":"-6.0348"},{"name":"Douar Kalaa","latitude":"34.5456","longitude":"-5.3758"},{"name":"Douar Tardane","latitude":"35.3696","longitude":"-5.6195"},{"name":"El Hamria","latitude":"34.7423","longitude":"-5.3218"},{"name":"Fnidek","latitude":"35.8519","longitude":"-5.357"},{"name":"Imzouren","latitude":"35.1464","longitude":"-3.8506"},{"name":"Ketama","latitude":"34.9177","longitude":"-4.5713"},{"name":"Ksar El Kebir","latitude":"35.0017","longitude":"-5.9053"},{"name":"Ksar Sghir","latitude":"35.846","longitude":"-5.5558"},{"name":"Larache","latitude":"35.1932","longitude":"-6.1557"},{"name":"Martil","latitude":"35.6166","longitude":"-5.2752"},{"name":"Mdiq","latitude":"35.6831","longitude":"-5.3287"},{"name":"Ouezzane","latitude":"34.7971","longitude":"-5.5822"},{"name":"Tangier","latitude":"35.7808","longitude":"-5.8176"},{"name":"Targuist","latitude":"34.9377","longitude":"-4.3186"},{"name":"Tétouan","latitude":"35.572","longitude":"-5.3732"},{"name":"Zoumi","latitude":"34.8041","longitude":"-5.3389"}]}]}