{"name":"North Macedonia","code":"MK","regions":[{"name":"Berovo","code":"04","cities":[{"name":"Berovo","latitude":"41.7031","longitude":"22.8578"}]},{"name":"Bitola","code":"06","cities":[{"name":"Bitola","latitude":"41.0311","longitude":"21.3403"}]},{"name":"Bogdanci","code":"08","cities":[{"name":"Bogdanci","latitude":"41.2031","longitude":"22.5756"}]},{"name":"Bosilovo","code":"11","cities":[{"name":"Borievo","latitude":"41.4233","longitude":"22.765"}]},{"name":"Chucher Sandevo","code":"20","cities":[{"name":"Blace","latitude":"42.1522","longitude":"21.3328"}]},{"name":"Debar","code":"D2","cities":[{"name":"Debar","latitude":"41.525","longitude":"20.5275"}]},{"name":"Delchevo","code":"02","cities":[{"name":"Bigla","latitude":"41.9616","longitude":"22.6725"},{"name":"Delcevo","latitude":"41.9672","longitude":"22.7694"}]},{"name":"Demir Hisar","code":"D3","cities":[{"name":"Demir Hisar","latitude":"41.2227","longitude":"21.1983"}]},{"name":"Dolneni","code":"28","cities":[{"name":"Belo Pole","latitude":"41.4145","longitude":"21.3952"}]},{"name":"Gevgelija","code":"33","cities":[{"name":"Gevgelija","latitude":"41.1392","longitude":"22.5025"}]},{"name":"Gostivar","code":"D4","cities":[{"name":"Balin Dol","latitude":"41.7897","longitude":"20.934"},{"name":"Gostivar","latitude":"41.7972","longitude":"20.9083"}]},{"name":"Grad Skopje","code":"85","cities":[{"name":"Skopje","latitude":"41.9985","longitude":"21.4313"}]},{"name":"Gradsko","code":"35","cities":[{"name":"Gradsko","latitude":"41.5798","longitude":"21.9393"}]},{"name":"Ilinden","code":"36","cities":[{"name":"Ilinden","latitude":"41.9945","longitude":"21.58"}]},{"name":"Kavadarci","code":"D6","cities":[{"name":"Kavadarci","latitude":"41.4331","longitude":"22.0119"}]},{"name":"Kichevo","code":"43","cities":[{"name":"Drugovo","latitude":"41.4849","longitude":"20.9264"},{"name":"Kicevo","latitude":"41.5144","longitude":"20.9633"}]},{"name":"Kochani","code":"46","cities":[{"name":"Beli","latitude":"41.9275","longitude":"22.3806"},{"name":"Kočani","latitude":"41.9164","longitude":"22.4128"}]},{"name":"Konche","code":"47","cities":[{"name":"Konce","latitude":"41.4958","longitude":"22.385"}]},{"name":"Kratovo","code":"51","cities":[{"name":"Kratovo","latitude":"42.0792","longitude":"22.1814"}]},{"name":"Kriva Palanka","code":"52","cities":[{"name":"Kriva Palanka","latitude":"42.2019","longitude":"22.3319"},{"name":"Zidilovo","latitude":"42.2284","longitude":"22.3986"}]},{"name":"Kumanovo","code":"D7","cities":[{"name":"Agino Selo","latitude":"42.0464","longitude":"21.6811"},{"name":"Kumanovo","latitude":"42.1322","longitude":"21.7144"}]},{"name":"Lozovo","code":"60","cities":[{"name":"Lozovo","latitude":"41.7839","longitude":"21.9056"}]},{"name":"Makedonska Kamenica","code":"62","cities":[{"name":"Makedonska Kamenica","latitude":"42.0174","longitude":"22.5893"}]},{"name":"Makedonski Brod","code":"D8","cities":[{"name":"Makedonski Brod","latitude":"41.5136","longitude":"21.2153"}]},{"name":"Negotino","code":"69","cities":[{"name":"Negotino","latitude":"41.4839","longitude":"22.0892"}]},{"name":"Novo Selo","code":"72","cities":[{"name":"Novo Selo","latitude":"41.419","longitude":"22.8793"}]},{"name":"Ohrid","code":"E2","cities":[{"name":"Ohrid","latitude":"41.1172","longitude":"20.8019"}]},{"name":"Prilep","code":"E3","cities":[{"name":"Prilep","latitude":"41.3451","longitude":"21.555"}]},{"name":"Probishtip","code":"83","cities":[{"name":"Probistip","latitude":"42.0031","longitude":"22.1786"}]},{"name":"Radovish","code":"84","cities":[{"name":"Radovis","latitude":"41.6383","longitude":"22.4647"}]},{"name":"Resen","code":"86","cities":[{"name":"Resen","latitude":"41.0889","longitude":"21.0122"}]},{"name":"Rosoman","code":"87","cities":[{"name":"Rosoman","latitude":"41.5161","longitude":"21.9497"}]},{"name":"Shtip","code":"98","cities":[{"name":"Shtip","latitude":"41.7458","longitude":"22.1958"}]},{"name":"Struga","code":"E6","cities":[{"name":"Bezovo","latitude":"41.3292","longitude":"20.6019"},{"name":"Struga","latitude":"41.1781","longitude":"20.6761"},{"name":"Velesta","latitude":"41.2404","longitude":"20.6427"}]},{"name":"Strumica","code":"E7","cities":[{"name":"Strumica","latitude":"41.4375","longitude":"22.6433"}]},{"name":"Sveti Nikole","code":"A4","cities":[{"name":"Sveti Nikole","latitude":"41.865","longitude":"21.9428"}]},{"name":"Tearce","code":"A5","cities":[{"name":"Tearce","latitude":"42.0744","longitude":"21.0525"}]},{"name":"Tetovo","code":"E8","cities":[{"name":"Tetovo","latitude":"42.0106","longitude":"20.9714"}]},{"name":"Valandovo","code":"E9","cities":[{"name":"Valandovo","latitude":"41.3169","longitude":"22.5611"}]},{"name":"Veles","code":"F1","cities":[{"name":"Gorno Orizari","latitude":"41.6858","longitude":"21.7336"},{"name":"Veles","latitude":"41.7194","longitude":"21.7749"}]},{"name":"Vevchani","code":"B3","cities":[{"name":"Vevcani","latitude":"41.2406","longitude":"20.5933"}]},{"name":"Vinica","code":"F2","cities":[{"name":"Vinica","latitude":"41.8828","longitude":"22.5092"}]},{"name":"Zhelino","code":"C3","cities":[{"name":"Grupcin","latitude":"41.9718","longitude":"21.1301"}]},{"name":"Češinovo-Obleševo","code":"19","cities":[{"name":"Banja","latitude":"41.9096","longitude":"22.3291"},{"name":"Ciflik","latitude":"41.8649","longitude":"22.3163"}]}]}