{"name":"Mauritania","code":"MR","regions":[{"name":"Adrar","code":"07","cities":[{"name":"Atar","latitude":"20.5163","longitude":"-13.0525"}]},{"name":"Assaba","code":"03","cities":[{"name":"Kiffa","latitude":"16.6129","longitude":"-11.4013"}]},{"name":"Brakna","code":"05","cities":[{"name":"Aleg","latitude":"17.0463","longitude":"-13.9184"}]},{"name":"Dakhlet Nouadhibou","code":"08","cities":[{"name":"Cansado","latitude":"20.85","longitude":"-17.0333"}]},{"name":"Gorgol","code":"04","cities":[{"name":"Maghama","latitude":"15.5167","longitude":"-12.85"}]},{"name":"Guidimaka","code":"10","cities":[{"name":"Sélibaby","latitude":"15.1585","longitude":"-12.1843"}]},{"name":"Hodh Ech Chargi","code":"01","cities":[{"name":"Néma","latitude":"16.617","longitude":"-7.2565"}]},{"name":"Hodh El Gharbi","code":"02","cities":[{"name":"Ayoun El Atrous","latitude":"16.6686","longitude":"-9.616"}]},{"name":"Inchiri","code":"12","cities":[{"name":"Akjoujt","latitude":"19.7517","longitude":"-14.3823"}]},{"name":"Nouakchott Nord","code":"14","cities":[{"name":"Dar Naim","latitude":"18.1081","longitude":"-15.9267"}]},{"name":"Nouakchott Ouest","code":"13","cities":[{"name":"Tevragh Zeina","latitude":"18.1049","longitude":"-15.9854"}]},{"name":"Nouakchott Sud","code":"15","cities":[{"name":"Arafat","latitude":"18.0464","longitude":"-15.9719"}]},{"name":"Tagant","code":"09","cities":[{"name":"Tidjikja","latitude":"18.5461","longitude":"-11.416"}]},{"name":"Tiris Zemmour","code":"11","cities":[{"name":"Fderîck","latitude":"22.678","longitude":"-12.711"}]},{"name":"Trarza","code":"06","cities":[{"name":"Rosso","latitude":"16.5039","longitude":"-15.8172"}]}]}