{"name":"New Caledonia","code":"NC","regions":[{"name":"Loyalty Islands","code":"L","cities":[{"name":"We","latitude":"-20.9169","longitude":"167.2646"}]},{"name":"North Province","code":"N","cities":[{"name":"Canala","latitude":"-21.5147","longitude":"165.9646"},{"name":"Kone","latitude":"-21.0569","longitude":"164.8663"},{"name":"Koumac","latitude":"-20.5579","longitude":"164.2722"},{"name":"Poindimie","latitude":"-20.9505","longitude":"165.3415"},{"name":"Ponerihouen","latitude":"-21.0753","longitude":"165.3998"},{"name":"Pouembout","latitude":"-21.1076","longitude":"164.9834"},{"name":"Touho","latitude":"-20.786","longitude":"165.2465"}]},{"name":"South Province","code":"S","cities":[{"name":"Anse Vata","latitude":"-22.3004","longitude":"166.4435"},{"name":"Bouloupari","latitude":"-21.8607","longitude":"166.0513"},{"name":"Bourail","latitude":"-21.5667","longitude":"165.4667"},{"name":"Dumbea","latitude":"-22.1496","longitude":"166.4473"},{"name":"Koutio","latitude":"-22.2112","longitude":"166.4561"},{"name":"La Coulee","latitude":"-22.2333","longitude":"166.5667"},{"name":"La Foa","latitude":"-21.7079","longitude":"165.8252"},{"name":"Moindou","latitude":"-21.6978","longitude":"165.6778"},{"name":"Mont-Dore","latitude":"-22.2626","longitude":"166.5662"},{"name":"Noumea","latitude":"-22.2743","longitude":"166.4468"},{"name":"Paita","latitude":"-22.1299","longitude":"166.3639"}]}]}