{"name":"Serbia","code":"RS","regions":[{"name":"Belgrade","code":"00","cities":[{"name":"Barajevo","latitude":"44.578","longitude":"20.4212"},{"name":"Batajnica","latitude":"44.9047","longitude":"20.2764"},{"name":"Belgrade","latitude":"44.8166","longitude":"20.4721"},{"name":"Cukarica","latitude":"44.7825","longitude":"20.4203"},{"name":"Dobanovci","latitude":"44.8248","longitude":"20.2299"},{"name":"Grocka","latitude":"44.6722","longitude":"20.7175"},{"name":"Lazarevac","latitude":"44.3834","longitude":"20.2647"},{"name":"Mladenovac","latitude":"44.4386","longitude":"20.6992"},{"name":"Novi Belgrade","latitude":"44.8056","longitude":"20.4242"},{"name":"Obrenovac","latitude":"44.6539","longitude":"20.2"},{"name":"Savski Venac","latitude":"44.7792","longitude":"20.4539"},{"name":"Semlin","latitude":"44.8431","longitude":"20.4011"},{"name":"Sopot","latitude":"44.5197","longitude":"20.5736"},{"name":"Surcin","latitude":"44.7914","longitude":"20.2785"},{"name":"Vinca","latitude":"44.761","longitude":"20.6252"},{"name":"Vozdovac","latitude":"44.7783","longitude":"20.4758"},{"name":"Zeleznik","latitude":"44.7171","longitude":"20.3652"}]},{"name":"Bor","code":"14","cities":[{"name":"Bor","latitude":"44.0783","longitude":"22.0953"},{"name":"Donji Milanovac","latitude":"44.4756","longitude":"22.1158"},{"name":"Jasikovo","latitude":"44.2833","longitude":"21.9333"},{"name":"Kladovo","latitude":"44.6067","longitude":"22.6119"},{"name":"Majdanpek","latitude":"44.4244","longitude":"21.9358"},{"name":"Negotin","latitude":"44.2264","longitude":"22.5308"}]},{"name":"Branicevo","code":"11","cities":[{"name":"Aleksandrovac","latitude":"44.445","longitude":"21.2117"},{"name":"Brezane","latitude":"44.6494","longitude":"21.0764"},{"name":"Drmno","latitude":"44.7133","longitude":"21.2183"},{"name":"Gradiste","latitude":"44.7567","longitude":"21.5136"},{"name":"Kiseljevo","latitude":"44.7388","longitude":"21.4215"},{"name":"Kostolac","latitude":"44.7119","longitude":"21.1689"},{"name":"Krepoljin","latitude":"44.2581","longitude":"21.6075"},{"name":"Kucevo","latitude":"44.4775","longitude":"21.67"},{"name":"Malo Crnice","latitude":"44.5547","longitude":"21.2901"},{"name":"Požarevac","latitude":"44.6153","longitude":"21.1825"},{"name":"Smoljinac","latitude":"44.6019","longitude":"21.3406"},{"name":"Tribrode","latitude":"44.6964","longitude":"21.5274"}]},{"name":"Central Banat","code":"02","cities":[{"name":"Banatsko Karagorgevo","latitude":"45.5833","longitude":"20.5631"},{"name":"Banatsko Visnjicevo","latitude":"45.4453","longitude":"20.6806"},{"name":"Bocar","latitude":"45.7697","longitude":"20.2784"},{"name":"Boka","latitude":"45.3595","longitude":"20.8301"},{"name":"Jarkovac","latitude":"45.2734","longitude":"20.7576"},{"name":"Jasa Tomic","latitude":"45.4402","longitude":"20.8587"},{"name":"Kumane","latitude":"45.5376","longitude":"20.2261"},{"name":"Melenci","latitude":"45.5164","longitude":"20.3086"},{"name":"Neuzina","latitude":"45.3406","longitude":"20.7147"},{"name":"Novi Becej","latitude":"45.5931","longitude":"20.1306"},{"name":"Stajicevo","latitude":"45.2939","longitude":"20.4567"},{"name":"Vojvoda Stepa","latitude":"45.6807","longitude":"20.6452"},{"name":"Zitiste","latitude":"45.4885","longitude":"20.5466"},{"name":"Zrenjanin","latitude":"45.3809","longitude":"20.3859"}]},{"name":"Jablanica","code":"23","cities":[{"name":"Badince","latitude":"42.9739","longitude":"22.01"},{"name":"Bosnjace","latitude":"42.9472","longitude":"21.8261"},{"name":"Buvce","latitude":"42.8344","longitude":"21.69"},{"name":"Lebane","latitude":"42.924","longitude":"21.7427"},{"name":"Leskovac","latitude":"42.9958","longitude":"21.9439"},{"name":"Veliko Trnjane","latitude":"42.9278","longitude":"21.9503"}]},{"name":"Kolubara","code":"09","cities":[{"name":"Bogdanovica","latitude":"44.4716","longitude":"20.0848"},{"name":"Gornja Grabovica","latitude":"44.2931","longitude":"19.9072"},{"name":"Ljig","latitude":"44.2248","longitude":"20.2379"},{"name":"Stapar","latitude":"44.3171","longitude":"19.7427"},{"name":"Ub","latitude":"44.4531","longitude":"20.0713"},{"name":"Valjevo","latitude":"44.2708","longitude":"19.8842"},{"name":"Zabari","latitude":"44.2254","longitude":"19.9353"}]},{"name":"Macva","code":"08","cities":[{"name":"Amajic","latitude":"44.3154","longitude":"19.1508"},{"name":"Badovinci","latitude":"44.7862","longitude":"19.3826"},{"name":"Basceluci","latitude":"44.5156","longitude":"19.2272"},{"name":"Bogatic","latitude":"44.8375","longitude":"19.4806"},{"name":"Cvetulja","latitude":"44.4692","longitude":"19.5516"},{"name":"Jelenca","latitude":"44.7211","longitude":"19.7467"},{"name":"Ljubovija","latitude":"44.1894","longitude":"19.3767"},{"name":"Loznica","latitude":"44.5342","longitude":"19.2242"},{"name":"Majur","latitude":"44.7697","longitude":"19.6544"},{"name":"Mali Zvornik","latitude":"44.3953","longitude":"19.1158"},{"name":"Sabac","latitude":"44.7467","longitude":"19.69"},{"name":"Vladimirci","latitude":"44.6172","longitude":"19.7881"}]},{"name":"Morava","code":"17","cities":[{"name":"Brusnica","latitude":"44.0167","longitude":"20.4333"},{"name":"Gornji Milanovac","latitude":"44.0333","longitude":"20.45"},{"name":"Guca","latitude":"43.7785","longitude":"20.2284"},{"name":"Ivanjica","latitude":"43.5803","longitude":"20.2311"},{"name":"Macani","latitude":"43.7781","longitude":"20.3197"},{"name":"Takovo","latitude":"44.0428","longitude":"20.3875"},{"name":"Čačak","latitude":"43.8914","longitude":"20.3497"}]},{"name":"Nisava","code":"20","cities":[{"name":"Aleksinac","latitude":"43.5417","longitude":"21.7078"},{"name":"Doljevac","latitude":"43.1961","longitude":"21.8297"},{"name":"Donji Ljubes","latitude":"43.5811","longitude":"21.5645"},{"name":"Gadzin Han","latitude":"43.2228","longitude":"22.0319"},{"name":"Niš","latitude":"43.3261","longitude":"21.9014"}]},{"name":"North Banat","code":"03","cities":[{"name":"Ada","latitude":"45.8025","longitude":"20.1258"},{"name":"Basaid","latitude":"45.6411","longitude":"20.4142"},{"name":"Coka","latitude":"45.9425","longitude":"20.1433"},{"name":"Horgos","latitude":"46.1556","longitude":"19.9725"},{"name":"Kanjiza","latitude":"46.0667","longitude":"20.05"},{"name":"Novi Knezevac","latitude":"46.05","longitude":"20.1"},{"name":"Senta","latitude":"45.9275","longitude":"20.0772"},{"name":"Tiszahegyes","latitude":"45.8289","longitude":"20.3161"}]},{"name":"North Bačka","code":"01","cities":[{"name":"Backa Topola","latitude":"45.815","longitude":"19.6361"},{"name":"Bajsa","latitude":"45.7769","longitude":"19.5803"},{"name":"Cantavir","latitude":"45.9203","longitude":"19.7631"},{"name":"Lovcenac","latitude":"45.6814","longitude":"19.6914"},{"name":"Mali Igos","latitude":"45.7083","longitude":"19.6653"},{"name":"Palic","latitude":"46.1089","longitude":"19.7672"},{"name":"Subotica","latitude":"46.1","longitude":"19.6667"},{"name":"Supljak","latitude":"46.1333","longitude":"19.8167"}]},{"name":"Pcinja","code":"24","cities":[{"name":"Alakince","latitude":"42.6958","longitude":"22.1442"},{"name":"Bogdanovac","latitude":"42.4078","longitude":"21.8033"},{"name":"Bosilegrad","latitude":"42.4961","longitude":"22.4723"},{"name":"Bujanovc","latitude":"42.4592","longitude":"21.7667"},{"name":"Presevo","latitude":"42.3092","longitude":"21.6492"},{"name":"Rataje","latitude":"42.4861","longitude":"21.8772"},{"name":"Surdulica","latitude":"42.6906","longitude":"22.1708"},{"name":"Vranje","latitude":"42.5545","longitude":"21.8952"},{"name":"Vranjska Banja","latitude":"42.555","longitude":"21.9922"}]},{"name":"Pirot","code":"22","cities":[{"name":"Babusnica","latitude":"43.0597","longitude":"22.4117"},{"name":"Bela","latitude":"43.2331","longitude":"22.7206"},{"name":"Bela Palanka","latitude":"43.2183","longitude":"22.3111"},{"name":"Dimitrovgrad","latitude":"43.0142","longitude":"22.7756"},{"name":"Pirot","latitude":"43.1531","longitude":"22.5861"}]},{"name":"Podunavlje","code":"10","cities":[{"name":"Banicina","latitude":"44.2914","longitude":"20.9297"},{"name":"Kupusina","latitude":"44.2619","longitude":"21.0061"},{"name":"Lozovik","latitude":"44.4637","longitude":"21.1109"},{"name":"Lugavcina","latitude":"44.5147","longitude":"21.0743"},{"name":"Selevac","latitude":"44.4953","longitude":"20.8736"},{"name":"Smederevo","latitude":"44.6675","longitude":"20.9209"},{"name":"Smederevska Palanka","latitude":"44.3658","longitude":"20.9628"},{"name":"Velika Plana","latitude":"44.3261","longitude":"21.0742"}]},{"name":"Pomoravlje","code":"13","cities":[{"name":"Batinac","latitude":"43.9214","longitude":"21.4381"},{"name":"Beljajka","latitude":"44.06","longitude":"21.4419"},{"name":"Cepure","latitude":"43.8272","longitude":"21.3567"},{"name":"Crkvenac","latitude":"44.1956","longitude":"21.1858"},{"name":"Cuprija","latitude":"43.9275","longitude":"21.37"},{"name":"Despotovac","latitude":"44.0925","longitude":"21.4469"},{"name":"Dragosevac","latitude":"43.8862","longitude":"21.2202"},{"name":"Dragovo","latitude":"43.7869","longitude":"21.0994"},{"name":"Jagodina","latitude":"43.9814","longitude":"21.2622"},{"name":"Paracin","latitude":"43.8608","longitude":"21.4078"},{"name":"Rekovac","latitude":"43.86","longitude":"21.0927"},{"name":"Svilajnac","latitude":"44.2294","longitude":"21.1972"},{"name":"Troponje","latitude":"44.1652","longitude":"21.2824"}]},{"name":"Rasina","code":"19","cities":[{"name":"Bacina","latitude":"43.7244","longitude":"21.3017"},{"name":"Bogdanje","latitude":"43.6364","longitude":"21.0247"},{"name":"Brus","latitude":"43.3836","longitude":"21.0336"},{"name":"Cicevac","latitude":"43.7201","longitude":"21.4355"},{"name":"Kruševac","latitude":"43.58","longitude":"21.3339"},{"name":"Trstenik","latitude":"43.6169","longitude":"21.0025"}]},{"name":"Raska","code":"18","cities":[{"name":"Badanj","latitude":"43.3067","longitude":"20.6947"},{"name":"Cibukovac","latitude":"43.7156","longitude":"20.6333"},{"name":"Kopaonik","latitude":"43.2893","longitude":"20.808"},{"name":"Kraljevo","latitude":"43.7258","longitude":"20.6894"},{"name":"Mataruska Banja","latitude":"43.6923","longitude":"20.611"},{"name":"Novi Pazar","latitude":"43.1367","longitude":"20.5122"},{"name":"Oplatnici","latitude":"43.7647","longitude":"20.6808"},{"name":"Raska","latitude":"43.2872","longitude":"20.6153"},{"name":"Tutin","latitude":"42.9903","longitude":"20.3314"},{"name":"Vrnjacka Banja","latitude":"43.6167","longitude":"20.9"}]},{"name":"South Backa","code":"06","cities":[{"name":"Bac","latitude":"45.3919","longitude":"19.2367"},{"name":"Backi Petrovac","latitude":"45.3606","longitude":"19.5917"},{"name":"Backo Dobro Polje","latitude":"45.4975","longitude":"19.6892"},{"name":"Backo Petrovo Selo","latitude":"45.7081","longitude":"20.0753"},{"name":"Becej","latitude":"45.6189","longitude":"20.0361"},{"name":"Begec","latitude":"45.2367","longitude":"19.6231"},{"name":"Beocin","latitude":"45.1983","longitude":"19.7225"},{"name":"Budisava","latitude":"45.282","longitude":"19.993"},{"name":"Futog","latitude":"45.2411","longitude":"19.71"},{"name":"Gajdobra","latitude":"45.3521","longitude":"19.4514"},{"name":"Glozan","latitude":"45.2804","longitude":"19.5663"},{"name":"Kac","latitude":"45.3042","longitude":"19.9419"},{"name":"Kamenitz","latitude":"45.2233","longitude":"19.8431"},{"name":"Karloca","latitude":"45.2025","longitude":"19.9344"},{"name":"Kisac","latitude":"45.3503","longitude":"19.7286"},{"name":"Nadalj","latitude":"45.5069","longitude":"19.9219"},{"name":"Novi Sad","latitude":"45.25","longitude":"19.8362"},{"name":"Palanka","latitude":"45.2508","longitude":"19.3919"},{"name":"Petrovaradin","latitude":"45.2467","longitude":"19.8794"},{"name":"Ravno Selo","latitude":"45.3561","longitude":"19.5301"},{"name":"Rumenka","latitude":"45.2931","longitude":"19.7439"},{"name":"Selenca","latitude":"45.4092","longitude":"19.2983"},{"name":"Sirig","latitude":"45.4406","longitude":"19.8117"},{"name":"Srbobran","latitude":"45.5539","longitude":"19.8028"},{"name":"Temerin","latitude":"45.4086","longitude":"19.8892"},{"name":"Veternik","latitude":"45.2533","longitude":"19.7594"},{"name":"Vrbas","latitude":"45.5714","longitude":"19.6408"},{"name":"Zabalj","latitude":"45.3722","longitude":"20.0639"}]},{"name":"South Banat","code":"04","cities":[{"name":"Banatsko Novo Selo","latitude":"44.9897","longitude":"20.7836"},{"name":"Bela Crkva","latitude":"44.8975","longitude":"21.4172"},{"name":"Crepaja","latitude":"45.0094","longitude":"20.6356"},{"name":"Debeljaca","latitude":"45.0711","longitude":"20.6"},{"name":"Deliblato","latitude":"44.84","longitude":"21.033"},{"name":"Izbiste","latitude":"45.0197","longitude":"21.1864"},{"name":"Jablanka","latitude":"45.0781","longitude":"21.3922"},{"name":"Janosik","latitude":"45.1742","longitude":"21.0071"},{"name":"Kacarevo","latitude":"44.9664","longitude":"20.6936"},{"name":"Kovin","latitude":"44.7475","longitude":"20.9761"},{"name":"Lokve","latitude":"45.1527","longitude":"21.0318"},{"name":"Opovo","latitude":"45.0522","longitude":"20.4303"},{"name":"Padina","latitude":"45.1181","longitude":"20.7272"},{"name":"Pančevo","latitude":"44.8708","longitude":"20.6403"},{"name":"Pavlis","latitude":"45.1026","longitude":"21.2444"},{"name":"Plandiste","latitude":"45.2353","longitude":"21.1204"},{"name":"Sakule","latitude":"45.1457","longitude":"20.4812"},{"name":"Starcevo","latitude":"44.8072","longitude":"20.7047"},{"name":"Vršac","latitude":"45.1167","longitude":"21.3036"}]},{"name":"Srem","code":"07","cities":[{"name":"Adasevci","latitude":"45.0775","longitude":"19.2211"},{"name":"Bosut","latitude":"44.9322","longitude":"19.3625"},{"name":"Cortanovci","latitude":"45.1579","longitude":"20.0184"},{"name":"Donji Petrovci","latitude":"44.9687","longitude":"19.9771"},{"name":"Golubinci","latitude":"44.9844","longitude":"20.0744"},{"name":"Ingija","latitude":"45.0492","longitude":"20.0792"},{"name":"Jarkovci","latitude":"45.0535","longitude":"20.0234"},{"name":"Kukujevci","latitude":"45.0706","longitude":"19.3406"},{"name":"Lacarak","latitude":"44.9991","longitude":"19.565"},{"name":"Mali Radinci","latitude":"45.0211","longitude":"19.9033"},{"name":"Nova Pazova","latitude":"44.9447","longitude":"20.2197"},{"name":"Novi Banovci","latitude":"44.9563","longitude":"20.2872"},{"name":"Pecinci","latitude":"44.9089","longitude":"19.9664"},{"name":"Popinci","latitude":"44.9242","longitude":"20.0153"},{"name":"Ruma","latitude":"45.0081","longitude":"19.8222"},{"name":"Sid","latitude":"45.1283","longitude":"19.2264"},{"name":"Simanovci","latitude":"44.8725","longitude":"20.0917"},{"name":"Sot","latitude":"45.1612","longitude":"19.3119"},{"name":"Sremska Mitrovica","latitude":"44.9764","longitude":"19.6122"},{"name":"Stara Pazova","latitude":"44.9831","longitude":"20.1577"},{"name":"Stari Banovci","latitude":"44.9864","longitude":"20.2867"},{"name":"Vojka","latitude":"44.9397","longitude":"20.1539"},{"name":"Vrdnik","latitude":"45.1265","longitude":"19.7832"}]},{"name":"Sumadija","code":"12","cities":[{"name":"Kragujevac","latitude":"44.0167","longitude":"20.9167"}]},{"name":"Toplica","code":"21","cities":[{"name":"Arbanaska","latitude":"43.0766","longitude":"21.4432"},{"name":"Babin Potok","latitude":"43.2306","longitude":"21.6306"},{"name":"Prokuplje","latitude":"43.2342","longitude":"21.5881"}]},{"name":"West Bačka","code":"05","cities":[{"name":"Apatin","latitude":"45.6711","longitude":"18.9847"},{"name":"Bezdan","latitude":"45.8528","longitude":"18.9306"},{"name":"Conoplja","latitude":"45.8133","longitude":"19.2519"},{"name":"Crvenka","latitude":"45.6586","longitude":"19.4556"},{"name":"Karavukovo","latitude":"45.495","longitude":"19.1881"},{"name":"Kolut","latitude":"45.8905","longitude":"18.9345"},{"name":"Kula","latitude":"45.6092","longitude":"19.5275"},{"name":"Odzaci","latitude":"45.5067","longitude":"19.2611"},{"name":"Prigrevica","latitude":"45.6786","longitude":"19.0867"},{"name":"Ruski Krstur","latitude":"45.5628","longitude":"19.4158"},{"name":"Sivac","latitude":"45.7042","longitude":"19.3797"},{"name":"Sombor","latitude":"45.7742","longitude":"19.1122"},{"name":"Sonta","latitude":"45.5947","longitude":"19.0981"},{"name":"Svetozar Miletic","latitude":"45.854","longitude":"19.2042"},{"name":"Svilojevo","latitude":"45.6475","longitude":"19.0689"},{"name":"Telecka","latitude":"45.788","longitude":"19.3795"}]},{"name":"Zajecar","code":"15","cities":[{"name":"Beli Potok","latitude":"43.5358","longitude":"22.0822"},{"name":"Bogovina","latitude":"43.895","longitude":"21.9403"},{"name":"Boljevac","latitude":"43.8303","longitude":"21.9531"},{"name":"Knjazevac","latitude":"43.5663","longitude":"22.257"},{"name":"Sljivar","latitude":"43.85","longitude":"22.2444"},{"name":"Zajecar","latitude":"43.9042","longitude":"22.2847"}]},{"name":"Zlatibor","code":"16","cities":[{"name":"Arilje","latitude":"43.7531","longitude":"20.0956"},{"name":"Bajina Basta","latitude":"43.9708","longitude":"19.5675"},{"name":"Bakionica","latitude":"43.8612","longitude":"20.05"},{"name":"Pozega","latitude":"43.8461","longitude":"20.0358"},{"name":"Sevojno","latitude":"43.8414","longitude":"19.8949"},{"name":"Užice","latitude":"43.8558","longitude":"19.8411"},{"name":"Zlatibor","latitude":"43.7262","longitude":"19.701"}]}]}