{"name":"Saudi Arabia","code":"SA","regions":[{"name":"'Asir","code":"11","cities":[{"name":"Abha","latitude":"18.2164","longitude":"42.5053"},{"name":"Bisha","latitude":"20.0069","longitude":"42.6063"},{"name":"Khamis Mushait","latitude":"18.3064","longitude":"42.7292"}]},{"name":"Al Bahah","code":"02","cities":[{"name":"Al Bahah","latitude":"20.01","longitude":"41.475"},{"name":"Al Mindak","latitude":"20.156","longitude":"41.2781"}]},{"name":"Al Jawf","code":"20","cities":[{"name":"Qurayyat","latitude":"31.3318","longitude":"37.3428"},{"name":"Sakakah","latitude":"29.9697","longitude":"40.2064"},{"name":"Tubarjal","latitude":"30.4999","longitude":"38.216"}]},{"name":"Al Madinah al Munawwarah","code":"05","cities":[{"name":"Medina","latitude":"24.4662","longitude":"39.6168"},{"name":"Yanbu","latitude":"24.0891","longitude":"38.0637"}]},{"name":"Al-Qassim","code":"08","cities":[{"name":"Ar Rass","latitude":"25.8654","longitude":"43.4981"},{"name":"Buraidah","latitude":"26.3264","longitude":"43.9769"},{"name":"Unaizah","latitude":"26.0879","longitude":"43.9637"}]},{"name":"Ar Riyāḑ","code":"10","cities":[{"name":"Afif","latitude":"23.9097","longitude":"42.9099"},{"name":"Al Faruq","latitude":"24.6494","longitude":"46.7786"},{"name":"Al Kharj","latitude":"24.155","longitude":"47.3346"},{"name":"Al Madinah","latitude":"24.7472","longitude":"46.6367"},{"name":"Al Mubarraz","latitude":"22.3188","longitude":"46.7304"},{"name":"Duruma","latitude":"24.607","longitude":"46.1261"},{"name":"Riyadh","latitude":"24.6537","longitude":"46.7152"}]},{"name":"Eastern Province","code":"06","cities":[{"name":"Abqaiq","latitude":"25.9371","longitude":"49.6776"},{"name":"Al Hufuf","latitude":"25.3638","longitude":"49.5672"},{"name":"Al Jubayl","latitude":"25.4023","longitude":"49.645"},{"name":"Al Mubarraz","latitude":"25.407","longitude":"49.5818"},{"name":"Al Qatif","latitude":"26.5208","longitude":"50.0245"},{"name":"Al `Udayliyah","latitude":"25.1424","longitude":"49.3028"},{"name":"Ath Thuqbah","latitude":"26.2694","longitude":"50.1986"},{"name":"Dammam","latitude":"26.4336","longitude":"50.1116"},{"name":"Dhahran","latitude":"26.3023","longitude":"50.1324"},{"name":"Jubail","latitude":"27.011","longitude":"49.6558"},{"name":"Khobar","latitude":"26.2824","longitude":"50.2062"},{"name":"Ra's al Khafji","latitude":"28.4237","longitude":"48.5091"},{"name":"Ras Tanura","latitude":"26.6439","longitude":"50.1592"},{"name":"Safwa","latitude":"26.6499","longitude":"49.9522"},{"name":"Sayhat","latitude":"26.4852","longitude":"50.0405"},{"name":"Tarut","latitude":"26.5747","longitude":"50.0396"}]},{"name":"Hai'l Region","code":"13","cities":[{"name":"Ha'il","latitude":"27.5219","longitude":"41.6907"}]},{"name":"Jizan","code":"17","cities":[{"name":"Ash Shuqayq","latitude":"17.7245","longitude":"42.0224"},{"name":"Baysh","latitude":"17.3791","longitude":"42.5407"},{"name":"Jizan","latitude":"16.8892","longitude":"42.5511"},{"name":"Sabya","latitude":"17.1495","longitude":"42.6254"}]},{"name":"Makkah Province","code":"14","cities":[{"name":"Jeddah","latitude":"21.5168","longitude":"39.2192"},{"name":"Khulays","latitude":"22.158","longitude":"39.3169"},{"name":"Makkah","latitude":"21.4267","longitude":"39.8261"},{"name":"Rabigh","latitude":"22.7986","longitude":"39.0349"},{"name":"Ta'if","latitude":"21.2741","longitude":"40.4191"},{"name":"Thuwal","latitude":"22.2827","longitude":"39.1125"}]},{"name":"Najran","code":"16","cities":[{"name":"Najran","latitude":"17.4651","longitude":"44.103"},{"name":"Riman","latitude":"17.5494","longitude":"44.399"},{"name":"Saghir","latitude":"17.5249","longitude":"44.219"}]},{"name":"Northern Borders","code":"15","cities":[{"name":"Arar","latitude":"30.9753","longitude":"41.0381"},{"name":"Rafha","latitude":"29.6381","longitude":"43.5189"}]},{"name":"Tabuk","code":"19","cities":[{"name":"Tabuk","latitude":"28.3998","longitude":"36.5715"}]}]}