{"name":"Sudan","code":"SD","regions":[{"name":"Al Qaḑārif","code":"39","cities":[{"name":"Al Qadarif","latitude":"14.0333","longitude":"35.4"}]},{"name":"Blue Nile","code":"42","cities":[{"name":"Ad-Damazin","latitude":"11.7911","longitude":"34.3556"}]},{"name":"Central Darfur","code":"61","cities":[{"name":"Babel","latitude":"11.6983","longitude":"22.6033"}]},{"name":"Eastern Darfur","code":"60","cities":[{"name":"Es Sumeih","latitude":"9.8713","longitude":"27.5765"}]},{"name":"Kassala","code":"52","cities":[{"name":"Kassala","latitude":"15.4542","longitude":"36.4029"}]},{"name":"Khartoum","code":"29","cities":[{"name":"Khartoum","latitude":"15.5881","longitude":"32.5342"}]},{"name":"North Kordofan","code":"56","cities":[{"name":"Ar Rahad","latitude":"12.7167","longitude":"30.65"}]},{"name":"Northern","code":"43","cities":[{"name":"Dongola","latitude":"19.1658","longitude":"30.4844"}]},{"name":"Northern Darfur","code":"55","cities":[{"name":"Umm Kaddadah","latitude":"13.6002","longitude":"26.7032"}]},{"name":"Red Sea","code":"36","cities":[{"name":"Port Sudan","latitude":"19.6177","longitude":"37.2121"}]},{"name":"Sinnār","code":"58","cities":[{"name":"Singa","latitude":"13.15","longitude":"33.9333"},{"name":"Sinnar","latitude":"13.55","longitude":"33.6333"}]},{"name":"Southern Darfur","code":"49","cities":[{"name":"Gereida","latitude":"11.277","longitude":"25.1367"}]},{"name":"Southern Kordofan","code":"50","cities":[{"name":"Umm Durman","latitude":"11.7833","longitude":"30.9167"}]},{"name":"West Kordofan State","code":"62","cities":[{"name":"Al Lagowa","latitude":"11.3938","longitude":"29.1313"},{"name":"An Nuhud","latitude":"12.7","longitude":"28.4333"}]},{"name":"Western Darfur","code":"47","cities":[{"name":"Geneina","latitude":"13.453","longitude":"22.44"}]},{"name":"White Nile","code":"41","cities":[{"name":"Rabak","latitude":"13.1461","longitude":"32.7346"}]}]}