{"name":"Slovenia","code":"SI","regions":[{"name":"Ankaran","code":"213","cities":[{"name":"Ankaran","latitude":"45.5768","longitude":"13.7309"},{"name":"Debeli Rtic","latitude":"45.5953","longitude":"13.7155"}]},{"name":"Beltinci","code":"J3","cities":[{"name":"Beltinci","latitude":"46.6053","longitude":"16.2406"}]},{"name":"Benedikt","code":"F4","cities":[{"name":"Benedikt","latitude":"46.6086","longitude":"15.8883"}]},{"name":"Bistrica ob Sotli","code":"F5","cities":[{"name":"Bistrica ob Sotli","latitude":"46.0589","longitude":"15.6642"},{"name":"Dekmanca","latitude":"46.0845","longitude":"15.632"}]},{"name":"Bloke","code":"G2","cities":[{"name":"Nova Vas","latitude":"45.7696","longitude":"14.5009"},{"name":"Sveta Trojica","latitude":"45.8053","longitude":"14.4919"},{"name":"Velike Bloke","latitude":"45.7696","longitude":"14.5009"}]},{"name":"Bohinj","code":"04","cities":[{"name":"Bohinjska Bistrica","latitude":"46.2749","longitude":"13.9493"},{"name":"Stara Fužina","latitude":"46.3008","longitude":"13.9254"}]},{"name":"Borovnica","code":"05","cities":[{"name":"Borovnica","latitude":"45.9158","longitude":"14.3631"}]},{"name":"Brda","code":"07","cities":[{"name":"Dobrovo","latitude":"45.9964","longitude":"13.5264"},{"name":"Kojsko","latitude":"46.0092","longitude":"13.5797"}]},{"name":"Brezovica","code":"09","cities":[{"name":"Brezovica pri Ljubljani","latitude":"46.0333","longitude":"14.4"},{"name":"Jezero","latitude":"45.9684","longitude":"14.4321"},{"name":"Notranje Gorice","latitude":"45.9875","longitude":"14.3989"},{"name":"Podplesivica","latitude":"45.9953","longitude":"14.3916"},{"name":"Preserje","latitude":"45.9577","longitude":"14.4244"}]},{"name":"Cankova","code":"F8","cities":[{"name":"Cankova","latitude":"46.7245","longitude":"16.0203"}]},{"name":"Celje","code":"11","cities":[{"name":"Celje","latitude":"46.231","longitude":"15.2608"},{"name":"Skofja Vas","latitude":"46.2679","longitude":"15.2912"},{"name":"Smartno v Rozni Dolini","latitude":"46.2945","longitude":"15.2431"},{"name":"Teharje","latitude":"46.2303","longitude":"15.3022"}]},{"name":"Cerklje na Gorenjskem","code":"12","cities":[{"name":"Cerklje na Gorenjskem","latitude":"46.2542","longitude":"14.4886"},{"name":"Grad","latitude":"46.2667","longitude":"14.5"}]},{"name":"Cerknica","code":"13","cities":[{"name":"Begunje pri Cerknici","latitude":"45.818","longitude":"14.3764"},{"name":"Cerknica","latitude":"45.7931","longitude":"14.3625"},{"name":"Grahovo","latitude":"45.7693","longitude":"14.4166"},{"name":"Rakek","latitude":"45.8134","longitude":"14.3106"}]},{"name":"Cerkno","code":"14","cities":[{"name":"Cerkno","latitude":"46.1256","longitude":"13.9817"}]},{"name":"Cerkvenjak","code":"F9","cities":[{"name":"Cerkvenjak","latitude":"46.5706","longitude":"15.9436"},{"name":"Zgornje Verjane","latitude":"46.55","longitude":"15.9"}]},{"name":"Cirkulane","code":"196","cities":[{"name":"Cirkulane","latitude":"46.3441","longitude":"15.9947"}]},{"name":"Destrnik","code":"G1","cities":[{"name":"Destrnik","latitude":"46.5006","longitude":"15.875"}]},{"name":"Dobje","code":"H3","cities":[{"name":"Dobje pri Planini","latitude":"46.1389","longitude":"15.4043"}]},{"name":"Dobrepolje","code":"M2","cities":[{"name":"Kukovo","latitude":"45.7406","longitude":"14.822"}]},{"name":"Dobrna","code":"H5","cities":[{"name":"Dobrna","latitude":"46.3393","longitude":"15.2232"},{"name":"Pristova","latitude":"46.334","longitude":"15.2017"}]},{"name":"Dobrova-Polhov Gradec","code":"G4","cities":[{"name":"Dobrova","latitude":"46.055","longitude":"14.4172"},{"name":"Polhov Gradec","latitude":"46.0669","longitude":"14.3161"}]},{"name":"Dobrovnik","code":"K9","cities":[{"name":"Dobrovnik","latitude":"46.6541","longitude":"16.3564"}]},{"name":"Dol pri Ljubljani","code":"22","cities":[{"name":"Dol pri Ljubljani","latitude":"46.0886","longitude":"14.6008"}]},{"name":"Dolenjske Toplice","code":"F7","cities":[{"name":"Dolenjske Toplice","latitude":"45.7566","longitude":"15.0592"}]},{"name":"Dornava","code":"24","cities":[{"name":"Dornava","latitude":"46.4367","longitude":"15.9536"},{"name":"Polensak","latitude":"46.4755","longitude":"16.0032"}]},{"name":"Dravograd","code":"25","cities":[{"name":"Dravograd","latitude":"46.5881","longitude":"15.0192"},{"name":"Libelice","latitude":"46.62","longitude":"14.9497"},{"name":"Sentjanz pri Dravogradu","latitude":"46.5611","longitude":"15.0389"}]},{"name":"Duplek","code":"26","cities":[{"name":"Spodnja Korena","latitude":"46.524","longitude":"15.7723"},{"name":"Spodnji Duplek","latitude":"46.5042","longitude":"15.7366"},{"name":"Zgornji Duplek","latitude":"46.5156","longitude":"15.77"}]},{"name":"Gorenja Vas-Poljane","code":"27","cities":[{"name":"Gorenja Vas","latitude":"46.1667","longitude":"14.15"},{"name":"Poljane nad Skofjo Loko","latitude":"46.1333","longitude":"14.2"},{"name":"Prelesje","latitude":"46.0667","longitude":"14.2"},{"name":"Volca","latitude":"46.1353","longitude":"14.1883"}]},{"name":"Gorje","code":"207","cities":[{"name":"Zgornje Gorje","latitude":"46.3796","longitude":"14.0694"}]},{"name":"Gornja Radgona","code":"29","cities":[{"name":"Gornja Radgona","latitude":"46.6788","longitude":"16.0009"},{"name":"Spodnji Ivanjci","latitude":"46.5956","longitude":"15.9814"}]},{"name":"Gornji Grad","code":"30","cities":[{"name":"Gornji Grad","latitude":"46.2953","longitude":"14.8083"}]},{"name":"Gornji Petrovci","code":"31","cities":[{"name":"Adrijanci","latitude":"46.8154","longitude":"16.2474"},{"name":"Gornji Petrovci","latitude":"46.8053","longitude":"16.2225"}]},{"name":"Grad","code":"G8","cities":[{"name":"Grad","latitude":"46.8","longitude":"16.1"},{"name":"Motovilci","latitude":"46.7764","longitude":"16.0664"},{"name":"Radovci","latitude":"46.7853","longitude":"16.0925"}]},{"name":"Grosuplje","code":"32","cities":[{"name":"Grosuplje","latitude":"45.9556","longitude":"14.6589"},{"name":"Luce","latitude":"45.9189","longitude":"14.7317"},{"name":"Smarje-Sap","latitude":"45.9762","longitude":"14.6118"},{"name":"Velika Loka","latitude":"45.9403","longitude":"14.728"}]},{"name":"Hajdina","code":"H8","cities":[{"name":"Hajdina","latitude":"46.4089","longitude":"15.8469"}]},{"name":"Hodos","code":"H2","cities":[{"name":"Hodoš","latitude":"46.8233","longitude":"16.3342"}]},{"name":"Horjul","code":"M1","cities":[{"name":"Horjul","latitude":"46.0236","longitude":"14.2992"}]},{"name":"Hrastnik","code":"34","cities":[{"name":"Dol pri Hrastniku","latitude":"46.1419","longitude":"15.1128"},{"name":"Hrastnik","latitude":"46.1461","longitude":"15.0814"}]},{"name":"Hrpelje-Kozina","code":"35","cities":[{"name":"Kozina","latitude":"45.61","longitude":"13.9356"},{"name":"Materija","latitude":"45.5814","longitude":"13.9967"},{"name":"Obrov","latitude":"45.5464","longitude":"14.0861"},{"name":"Ritomece","latitude":"45.5588","longitude":"14.0725"}]},{"name":"Idrija","code":"36","cities":[{"name":"Crni Vrh","latitude":"45.9223","longitude":"14.0406"},{"name":"Godovic","latitude":"45.9563","longitude":"14.0978"},{"name":"Idrija","latitude":"46.0011","longitude":"14.0291"},{"name":"Spodnja Idrija","latitude":"46.029","longitude":"14.0245"},{"name":"Zirovnica","latitude":"46.0167","longitude":"14.0833"}]},{"name":"Ig","code":"37","cities":[{"name":"Ig","latitude":"45.9603","longitude":"14.5289"},{"name":"Rogatec nad Zelimljami","latitude":"45.897","longitude":"14.5637"}]},{"name":"Ilirska Bistrica","code":"38","cities":[{"name":"Ilirska Bistrica","latitude":"45.5697","longitude":"14.2408"},{"name":"Jelsane","latitude":"45.5031","longitude":"14.2762"},{"name":"Knezak","latitude":"45.6271","longitude":"14.2469"},{"name":"Podgrad","latitude":"45.5204","longitude":"14.1513"}]},{"name":"Izola","code":"40","cities":[{"name":"Izola","latitude":"45.4955","longitude":"13.6077"}]},{"name":"Jesenice","code":"H4","cities":[{"name":"Jesenice","latitude":"46.4306","longitude":"14.0669"}]},{"name":"Jezersko","code":"I8","cities":[{"name":"Zgornje Jezersko","latitude":"46.3808","longitude":"14.4702"}]},{"name":"Kamnik","code":"H6","cities":[{"name":"Kamnik","latitude":"46.2285","longitude":"14.6132"},{"name":"Laze v Tuhinju","latitude":"46.2194","longitude":"14.7611"},{"name":"Motnik","latitude":"46.216","longitude":"14.8872"},{"name":"Stahovica","latitude":"46.2619","longitude":"14.6022"}]},{"name":"Kanal","code":"44","cities":[{"name":"Deskle","latitude":"46.0531","longitude":"13.6138"},{"name":"Kal nad Kanalom","latitude":"46.0845","longitude":"13.7395"},{"name":"Kanal","latitude":"46.0889","longitude":"13.6339"}]},{"name":"Kobilje","code":"47","cities":[{"name":"Kobilje","latitude":"46.6847","longitude":"16.3978"}]},{"name":"Komen","code":"49","cities":[{"name":"Komen","latitude":"45.8153","longitude":"13.7483"}]},{"name":"Komenda","code":"164","cities":[{"name":"Komenda","latitude":"46.2048","longitude":"14.5384"}]},{"name":"Koper","code":"50","cities":[{"name":"Bošamarin","latitude":"45.5664","longitude":"13.7994"},{"name":"Crni Kal","latitude":"45.5527","longitude":"13.884"},{"name":"Dekani","latitude":"45.5502","longitude":"13.8113"},{"name":"Gracisce","latitude":"45.505","longitude":"13.8769"},{"name":"Koper","latitude":"45.5538","longitude":"13.7439"},{"name":"Marezige","latitude":"45.5097","longitude":"13.8031"},{"name":"Pobegi","latitude":"45.5394","longitude":"13.7961"},{"name":"Smarje","latitude":"45.5053","longitude":"13.7167"},{"name":"Zgornje Skofije","latitude":"45.5664","longitude":"13.7994"}]},{"name":"Kostanjevica na Krki","code":"197","cities":[{"name":"Kostanjevica na Krki","latitude":"45.847","longitude":"15.4209"}]},{"name":"Kostel","code":"K4","cities":[{"name":"Municipality of Kostel","latitude":"45.5101","longitude":"14.9135"},{"name":"Vas","latitude":"45.4748","longitude":"14.8638"}]},{"name":"Kozje","code":"51","cities":[{"name":"Buce","latitude":"46.1028","longitude":"15.5881"},{"name":"Kozje","latitude":"46.075","longitude":"15.5603"},{"name":"Lesicno","latitude":"46.0986","longitude":"15.5157"},{"name":"Podsreda","latitude":"46.0428","longitude":"15.5869"}]},{"name":"Kranj","code":"52","cities":[{"name":"Golnik","latitude":"46.3333","longitude":"14.3333"},{"name":"Kranj","latitude":"46.2389","longitude":"14.3556"},{"name":"Zabnica","latitude":"46.1986","longitude":"14.3331"},{"name":"Zgornja Besnica","latitude":"46.2667","longitude":"14.2833"}]},{"name":"Kranjska Gora","code":"53","cities":[{"name":"Gozd Martuljek","latitude":"46.4834","longitude":"13.8379"},{"name":"Kranjska Gora","latitude":"46.4839","longitude":"13.7894"},{"name":"Mojstrana","latitude":"46.4611","longitude":"13.9369"},{"name":"Ratece","latitude":"46.478","longitude":"13.8517"}]},{"name":"Kungota","code":"55","cities":[{"name":"Zgornja Kungota","latitude":"46.6392","longitude":"15.6156"}]},{"name":"Kuzma","code":"I2","cities":[{"name":"Kuzma","latitude":"46.8369","longitude":"16.0833"}]},{"name":"Lenart","code":"I3","cities":[{"name":"Lenart v Slov. Goricah","latitude":"46.5761","longitude":"15.8314"}]},{"name":"Lendava","code":"I4","cities":[{"name":"Lendava","latitude":"46.5614","longitude":"16.4506"}]},{"name":"Litija","code":"I5","cities":[{"name":"Breg pri Litiji","latitude":"46.0642","longitude":"14.8533"},{"name":"Dole pri Litiji","latitude":"46.0353","longitude":"15.0189"},{"name":"Gabrovka","latitude":"46.0167","longitude":"15.0"},{"name":"Litija","latitude":"46.056","longitude":"14.8235"},{"name":"Sava","latitude":"46.0898","longitude":"14.8904"},{"name":"Vace","latitude":"46.12","longitude":"14.8392"}]},{"name":"Ljubljana","code":"61","cities":[{"name":"Crnuce","latitude":"46.1025","longitude":"14.5339"},{"name":"Ljubljana","latitude":"46.0503","longitude":"14.5046"}]},{"name":"Ljubno","code":"62","cities":[{"name":"Ljubno ob Savinji","latitude":"46.3436","longitude":"14.8338"}]},{"name":"Ljutomer","code":"I6","cities":[{"name":"Ljutomer","latitude":"46.5208","longitude":"16.1975"},{"name":"Mala Nedelja","latitude":"46.5258","longitude":"16.0573"}]},{"name":"Logatec","code":"64","cities":[{"name":"Logatec","latitude":"45.9144","longitude":"14.2258"},{"name":"Rovte","latitude":"45.9814","longitude":"14.1779"}]},{"name":"Log–Dragomer","code":"208","cities":[{"name":"Log pri Brezovici","latitude":"46.0167","longitude":"14.3667"}]},{"name":"Lovrenc na Pohorju","code":"K6","cities":[{"name":"Lovrenc na Pohorju","latitude":"46.5406","longitude":"15.3931"}]},{"name":"Lukovica","code":"68","cities":[{"name":"Blagovica","latitude":"46.1769","longitude":"14.8072"},{"name":"Krtina","latitude":"46.1519","longitude":"14.6286"},{"name":"Lukovica","latitude":"46.1667","longitude":"14.7"}]},{"name":"Makole","code":"198","cities":[{"name":"Loznica","latitude":"46.3333","longitude":"15.65"},{"name":"Makole","latitude":"46.3172","longitude":"15.6672"}]},{"name":"Maribor","code":"J2","cities":[{"name":"Bresternica","latitude":"46.5697","longitude":"15.575"},{"name":"Kamnica","latitude":"46.5744","longitude":"15.6142"},{"name":"Limbus","latitude":"46.5565","longitude":"15.5778"},{"name":"Malecnik","latitude":"46.5542","longitude":"15.7028"},{"name":"Maribor","latitude":"46.5803","longitude":"15.7438"}]},{"name":"Markovci","code":"M9","cities":[{"name":"Markovci","latitude":"46.3833","longitude":"15.95"}]},{"name":"Medvode","code":"71","cities":[{"name":"Mavcice","latitude":"46.1818","longitude":"14.3948"},{"name":"Medvode","latitude":"46.1333","longitude":"14.4333"},{"name":"Smlednik","latitude":"46.1627","longitude":"14.4273"}]},{"name":"Mestna Obcina Novo mesto","code":"J7","cities":[{"name":"Novo Mesto","latitude":"45.8363","longitude":"15.1938"},{"name":"Sempeter","latitude":"45.8353","longitude":"15.2194"},{"name":"Suhor","latitude":"45.8237","longitude":"15.1031"},{"name":"Ursna Sela","latitude":"45.7296","longitude":"15.1354"}]},{"name":"Metlika","code":"73","cities":[{"name":"Gradac","latitude":"45.6167","longitude":"15.25"},{"name":"Metlika","latitude":"45.6472","longitude":"15.3142"}]},{"name":"Miren-Kostanjevica","code":"J5","cities":[{"name":"Miren","latitude":"45.8956","longitude":"13.6075"}]},{"name":"Mirna","code":"212","cities":[{"name":"Mirna","latitude":"45.9553","longitude":"15.0619"}]},{"name":"Mislinja","code":"76","cities":[{"name":"Mislinja","latitude":"46.4411","longitude":"15.1956"}]},{"name":"Mokronog-Trebelno","code":"199","cities":[{"name":"Mokronog","latitude":"45.9342","longitude":"15.1408"},{"name":"Trebelno","latitude":"45.9167","longitude":"15.15"}]},{"name":"Moravske Toplice","code":"78","cities":[{"name":"Bogojina","latitude":"46.675","longitude":"16.2909"},{"name":"Martjanci","latitude":"46.6864","longitude":"16.1978"},{"name":"Moravske Toplice","latitude":"46.6831","longitude":"16.2208"},{"name":"Prosenjakovci","latitude":"46.7429","longitude":"16.3217"}]},{"name":"Mozirje","code":"79","cities":[{"name":"Mozirje","latitude":"46.3394","longitude":"14.9633"}]},{"name":"Murska Sobota","code":"80","cities":[{"name":"Murska Sobota","latitude":"46.6625","longitude":"16.1664"}]},{"name":"Muta","code":"81","cities":[{"name":"Muta","latitude":"46.6114","longitude":"15.1661"}]},{"name":"Naklo","code":"82","cities":[{"name":"Naklo","latitude":"46.2728","longitude":"14.3172"},{"name":"Podnart","latitude":"46.2952","longitude":"14.2557"}]},{"name":"Nazarje","code":"83","cities":[{"name":"Kokarje","latitude":"46.3019","longitude":"14.955"},{"name":"Nazarje","latitude":"46.3176","longitude":"14.9467"},{"name":"Smartno ob Dreti","latitude":"46.2839","longitude":"14.8903"}]},{"name":"Nova Gorica","code":"84","cities":[{"name":"Branik","latitude":"45.8572","longitude":"13.7842"},{"name":"Dornberk","latitude":"45.8908","longitude":"13.7331"},{"name":"Grgar","latitude":"45.9963","longitude":"13.669"},{"name":"Kromberk","latitude":"45.9612","longitude":"13.6714"},{"name":"Nova Gorica","latitude":"45.958","longitude":"13.6469"},{"name":"Preserje","latitude":"45.8729","longitude":"13.7913"},{"name":"Prvacina","latitude":"45.89","longitude":"13.7181"},{"name":"Sempas","latitude":"45.9303","longitude":"13.7436"},{"name":"Solkan","latitude":"45.9714","longitude":"13.6494"}]},{"name":"Obcina Ajdovscina","code":"G5","cities":[{"name":"Ajdovščina","latitude":"45.8861","longitude":"13.9066"},{"name":"Crnice","latitude":"45.9106","longitude":"13.7767"},{"name":"Dobravlje","latitude":"45.8839","longitude":"13.8453"},{"name":"Gojace","latitude":"45.9025","longitude":"13.7956"},{"name":"Vodice","latitude":"45.8822","longitude":"14.0817"}]},{"name":"Obcina Apace","code":"N9","cities":[{"name":"Apace","latitude":"46.6972","longitude":"15.9106"},{"name":"Segovci","latitude":"46.6972","longitude":"15.9106"},{"name":"Sladki Vrh","latitude":"46.7075","longitude":"15.8011"}]},{"name":"Obcina Bled","code":"03","cities":[{"name":"Bled","latitude":"46.3692","longitude":"14.1136"}]},{"name":"Obcina Bovec","code":"06","cities":[{"name":"Bovec","latitude":"46.3375","longitude":"13.5528"},{"name":"Srpenica","latitude":"46.2929","longitude":"13.4989"}]},{"name":"Obcina Braslovce","code":"K3","cities":[{"name":"Braslovče","latitude":"46.2897","longitude":"15.0389"},{"name":"Gomilsko","latitude":"46.2528","longitude":"15.0422"}]},{"name":"Obcina Brezice","code":"08","cities":[{"name":"Artice","latitude":"45.9539","longitude":"15.5878"},{"name":"Bizeljsko","latitude":"46.0133","longitude":"15.6967"},{"name":"Brežice","latitude":"45.9033","longitude":"15.5911"},{"name":"Cerklje ob Krki","latitude":"45.8834","longitude":"15.5128"},{"name":"Dobova","latitude":"45.8971","longitude":"15.6636"},{"name":"Globoko","latitude":"45.9514","longitude":"15.6265"},{"name":"Krska Vas","latitude":"45.9","longitude":"15.5667"}]},{"name":"Obcina Crensovci","code":"15","cities":[{"name":"Crensovci","latitude":"46.5744","longitude":"16.2906"}]},{"name":"Obcina Crna na Koroskem","code":"16","cities":[{"name":"Crna na Koroskem","latitude":"46.4705","longitude":"14.8501"}]},{"name":"Obcina Crnomelj","code":"17","cities":[{"name":"Dragatus","latitude":"45.5227","longitude":"15.1799"},{"name":"Stari Trg ob Kolpi","latitude":"45.492","longitude":"15.0819"},{"name":"Črnomelj","latitude":"45.5722","longitude":"15.1912"}]},{"name":"Obcina Divaca","code":"19","cities":[{"name":"Divača","latitude":"45.6847","longitude":"13.9703"},{"name":"Dolenja Vas","latitude":"45.7336","longitude":"14.0128"},{"name":"Senozece","latitude":"45.7211","longitude":"14.0411"},{"name":"Skocjan","latitude":"45.6646","longitude":"13.9979"},{"name":"Vremski Britof","latitude":"45.6558","longitude":"14.0275"}]},{"name":"Obcina Domzale","code":"G7","cities":[{"name":"Dob","latitude":"46.1519","longitude":"14.6286"},{"name":"Domžale","latitude":"46.136","longitude":"14.6029"},{"name":"Radomlje","latitude":"46.1736","longitude":"14.6122"},{"name":"Sv. Trojica","latitude":"46.1238","longitude":"14.6795"}]},{"name":"Obcina Gorisnica","code":"28","cities":[{"name":"Gorisnica","latitude":"46.4147","longitude":"16.0139"}]},{"name":"Obcina Hoce-Slivnica","code":"G9","cities":[{"name":"Hocko Pohorje","latitude":"46.506","longitude":"15.5702"},{"name":"Orehova Vas","latitude":"46.4698","longitude":"15.6643"},{"name":"Zgornje Hoce","latitude":"46.4918","longitude":"15.6231"}]},{"name":"Obcina Ivancna Gorica","code":"39","cities":[{"name":"Ivančna Gorica","latitude":"45.9383","longitude":"14.8044"},{"name":"Krka","latitude":"45.8813","longitude":"14.7781"},{"name":"Sentvid pri Sticni","latitude":"45.95","longitude":"14.8434"},{"name":"Vir pri Sticni","latitude":"45.9562","longitude":"14.8201"},{"name":"Visnja Gora","latitude":"45.9539","longitude":"14.7453"},{"name":"Zagradec","latitude":"45.8584","longitude":"14.8342"}]},{"name":"Obcina Jursinci","code":"42","cities":[{"name":"Hlaponci","latitude":"46.4613","longitude":"15.9831"},{"name":"Juršinci","latitude":"46.4878","longitude":"15.9722"}]},{"name":"Obcina Kidricevo","code":"45","cities":[{"name":"Cirkovce","latitude":"46.3999","longitude":"15.7312"},{"name":"Kidricevo","latitude":"46.4036","longitude":"15.7911"},{"name":"Kungota","latitude":"46.4236","longitude":"15.7906"},{"name":"Lovrenc na Dravskem Polju","latitude":"46.3736","longitude":"15.7792"}]},{"name":"Obcina Kobarid","code":"46","cities":[{"name":"Kobarid","latitude":"46.2481","longitude":"13.5772"}]},{"name":"Obcina Kocevje","code":"H7","cities":[{"name":"Kočevje","latitude":"45.6433","longitude":"14.8633"},{"name":"Morava","latitude":"45.5532","longitude":"14.8584"},{"name":"Stara Cerkev","latitude":"45.6693","longitude":"14.8443"},{"name":"Videm","latitude":"45.545","longitude":"15.0272"}]},{"name":"Obcina Krizevci","code":"N7","cities":[{"name":"Krizevci pri Ljutomeru","latitude":"46.5683","longitude":"16.1386"}]},{"name":"Obcina Krsko","code":"54","cities":[{"name":"Blanca","latitude":"45.9852","longitude":"15.4004"},{"name":"Koprivnica","latitude":"46.0357","longitude":"15.5381"},{"name":"Krško","latitude":"45.9591","longitude":"15.4917"},{"name":"Leskovec pri Krskem","latitude":"45.9357","longitude":"15.4718"},{"name":"Podbocje","latitude":"45.8657","longitude":"15.4722"},{"name":"Raka","latitude":"45.9297","longitude":"15.3842"},{"name":"Senovo","latitude":"46.0236","longitude":"15.4769"},{"name":"Veliki Podlog","latitude":"45.8988","longitude":"15.4504"},{"name":"Zdole","latitude":"45.9795","longitude":"15.541"}]},{"name":"Obcina Lasko","code":"57","cities":[{"name":"Laško","latitude":"46.1542","longitude":"15.2343"},{"name":"Rimske Toplice","latitude":"46.1226","longitude":"15.1919"},{"name":"Smarjeta pri Celju","latitude":"46.1318","longitude":"15.1969"},{"name":"Stopce","latitude":"46.1396","longitude":"15.2677"}]},{"name":"Obcina Loska Dolina","code":"I7","cities":[{"name":"Stari Trg pri Lozu","latitude":"45.7148","longitude":"14.471"}]},{"name":"Obcina Loski Potok","code":"66","cities":[{"name":"Draga","latitude":"45.6325","longitude":"14.6602"},{"name":"Hrib-Loski Potok","latitude":"45.6989","longitude":"14.5805"},{"name":"Podpreska","latitude":"45.6481","longitude":"14.6408"}]},{"name":"Obcina Luce","code":"I9","cities":[{"name":"Raduha","latitude":"46.3657","longitude":"14.7446"}]},{"name":"Obcina Majsperk","code":"J1","cities":[{"name":"Majšperk","latitude":"46.3517","longitude":"15.7336"},{"name":"Ptujska Gora","latitude":"46.355","longitude":"15.76"},{"name":"Sitez","latitude":"46.3034","longitude":"15.769"},{"name":"Stoperce","latitude":"46.2911","longitude":"15.7217"}]},{"name":"Obcina Menges","code":"72","cities":[{"name":"Menges","latitude":"46.1669","longitude":"14.575"}]},{"name":"Obcina Mezica","code":"74","cities":[{"name":"Mezica","latitude":"46.5214","longitude":"14.8544"}]},{"name":"Obcina Miklavz na Dravskem Polju","code":"169","cities":[{"name":"Miklavz na Dravskem Polju","latitude":"46.5058","longitude":"15.6972"}]},{"name":"Obcina Mirna Pec","code":"M5","cities":[{"name":"Mirna Peč","latitude":"45.8603","longitude":"15.0833"}]},{"name":"Obcina Moravce","code":"77","cities":[{"name":"Kresnice","latitude":"46.102","longitude":"14.7858"},{"name":"Moravce","latitude":"46.1369","longitude":"14.745"}]},{"name":"Obcina Ormoz","code":"87","cities":[{"name":"Ivanjkovci","latitude":"46.4622","longitude":"16.1458"},{"name":"Jastrebci","latitude":"46.4495","longitude":"16.2559"},{"name":"Kog","latitude":"46.4677","longitude":"16.2497"},{"name":"Miklavz pri Ormozu","latitude":"46.46","longitude":"16.2136"},{"name":"Ormoz","latitude":"46.4114","longitude":"16.1544"},{"name":"Podgorci","latitude":"46.4292","longitude":"16.0636"},{"name":"Velika Nedelja","latitude":"46.4178","longitude":"16.1097"}]},{"name":"Obcina Podcetrtek","code":"20","cities":[{"name":"Podčetrtek","latitude":"46.1568","longitude":"15.5992"},{"name":"Prelasko","latitude":"46.1106","longitude":"15.6044"},{"name":"Pristava pri Mestinju","latitude":"46.1983","longitude":"15.5996"}]},{"name":"Obcina Poljcane","code":"200","cities":[{"name":"Poljcane","latitude":"46.3119","longitude":"15.5792"}]},{"name":"Obcina Race-Fram","code":"98","cities":[{"name":"Fram","latitude":"46.4506","longitude":"15.6322"},{"name":"Race","latitude":"46.4519","longitude":"15.6814"}]},{"name":"Obcina Radece","code":"99","cities":[{"name":"Radeče","latitude":"46.0681","longitude":"15.1839"}]},{"name":"Obcina Ravne na Koroskem","code":"K8","cities":[{"name":"Kotlje","latitude":"46.5214","longitude":"14.9869"},{"name":"Ravne na Koroskem","latitude":"46.5431","longitude":"14.9692"}]},{"name":"Obcina Razkrizje","code":"176","cities":[{"name":"Razkrizje","latitude":"46.5221","longitude":"16.2797"}]},{"name":"Obcina Recica ob Savinji","code":"209","cities":[{"name":"Recica ob Savinji","latitude":"46.3167","longitude":"14.9167"}]},{"name":"Obcina Rence-Vogrsko","code":"201","cities":[{"name":"Rence","latitude":"45.89","longitude":"13.6686"},{"name":"Volcja Draga","latitude":"45.9069","longitude":"13.6775"}]},{"name":"Obcina Rogaska Slatina","code":"A7","cities":[{"name":"Podplat","latitude":"46.2429","longitude":"15.5757"},{"name":"Rogaška Slatina","latitude":"46.2375","longitude":"15.6397"}]},{"name":"Obcina Rogasovci","code":"A6","cities":[{"name":"Rogasovci","latitude":"46.8","longitude":"16.0333"},{"name":"Serdica","latitude":"46.8245","longitude":"16.0501"}]},{"name":"Obcina Ruse","code":"L3","cities":[{"name":"Bistrica ob Dravi","latitude":"46.5572","longitude":"15.5144"},{"name":"Fala","latitude":"46.545","longitude":"15.451"},{"name":"Ruše","latitude":"46.5394","longitude":"15.5158"}]},{"name":"Obcina Salovci","code":"L4","cities":[{"name":"Budinci","latitude":"46.8642","longitude":"16.2689"},{"name":"Cepinci","latitude":"46.8667","longitude":"16.2"},{"name":"Dolenci","latitude":"46.85","longitude":"13.95"},{"name":"Domanjsevci","latitude":"46.7909","longitude":"16.2448"},{"name":"Markovci","latitude":"46.8444","longitude":"16.2336"},{"name":"Salovci","latitude":"46.4233","longitude":"16.2274"}]},{"name":"Obcina Semic","code":"B1","cities":[{"name":"Semic","latitude":"45.6461","longitude":"15.1822"}]},{"name":"Obcina Sempeter-Vrtojba","code":"92","cities":[{"name":"Sempeter pri Gorici","latitude":"45.9275","longitude":"13.6411"}]},{"name":"Obcina Sencur","code":"B2","cities":[{"name":"Sencur","latitude":"46.2456","longitude":"14.4197"},{"name":"Visoko","latitude":"46.2715","longitude":"14.416"}]},{"name":"Obcina Sentilj","code":"B3","cities":[{"name":"Cersak","latitude":"46.6972","longitude":"15.664"},{"name":"Velka","latitude":"46.6753","longitude":"15.7692"},{"name":"Šentilj","latitude":"46.6792","longitude":"15.6532"}]},{"name":"Obcina Sentjernej","code":"B4","cities":[{"name":"Šentjernej","latitude":"45.8384","longitude":"15.3342"}]},{"name":"Obcina Sentrupert","code":"211","cities":[{"name":"Zabukovje","latitude":"45.9873","longitude":"15.0498"}]},{"name":"Obcina Sezana","code":"B7","cities":[{"name":"Dutovlje","latitude":"45.7581","longitude":"13.8322"},{"name":"Grize","latitude":"45.7558","longitude":"13.9436"},{"name":"Lokev","latitude":"45.6611","longitude":"13.9281"},{"name":"Sežana","latitude":"45.7092","longitude":"13.8733"},{"name":"Storje","latitude":"45.7386","longitude":"13.9292"}]},{"name":"Obcina Skocjan","code":"B8","cities":[{"name":"Klenovik","latitude":"45.9399","longitude":"15.256"}]},{"name":"Obcina Skofljica","code":"C1","cities":[{"name":"Skofljica","latitude":"45.9833","longitude":"14.5767"}]},{"name":"Obcina Smarje pri Jelsah","code":"C5","cities":[{"name":"Grobelno","latitude":"46.2117","longitude":"15.4447"},{"name":"Smarje pri Jelsah","latitude":"46.2272","longitude":"15.5192"},{"name":"Sveti Stefan","latitude":"46.1846","longitude":"15.4939"}]},{"name":"Obcina Smarjeske Toplice","code":"206","cities":[{"name":"Otocec","latitude":"45.8675","longitude":"15.2733"},{"name":"Smarjeske Toplice","latitude":"45.8624","longitude":"15.2219"}]},{"name":"Obcina Smartno ob Paki","code":"C6","cities":[{"name":"Smartno ob Paki","latitude":"46.3333","longitude":"15.0333"}]},{"name":"Obcina Smartno pri Litiji","code":"L9","cities":[{"name":"Primskovo","latitude":"45.9732","longitude":"14.9155"},{"name":"Smartno pri Litiji","latitude":"46.0444","longitude":"14.8442"},{"name":"Zavrstnik","latitude":"46.0472","longitude":"14.8183"}]},{"name":"Obcina Sodrazica","code":"H9","cities":[{"name":"Sodrazica","latitude":"45.7596","longitude":"14.6365"},{"name":"Zimarice","latitude":"45.7786","longitude":"14.6014"}]},{"name":"Obcina Solcava","code":"G6","cities":[{"name":"Robanov Kot","latitude":"46.3906","longitude":"14.6905"},{"name":"Solcava","latitude":"46.4165","longitude":"14.6923"}]},{"name":"Obcina Sostanj","code":"C7","cities":[{"name":"Sostanj","latitude":"46.3825","longitude":"15.0531"},{"name":"Topolsica","latitude":"46.4087","longitude":"15.012"}]},{"name":"Obcina Sredisce ob Dravi","code":"202","cities":[{"name":"Sredisce ob Dravi","latitude":"46.3942","longitude":"16.2681"}]},{"name":"Obcina Starse","code":"115","cities":[{"name":"Marjeta na Dravskem Polju","latitude":"46.4525","longitude":"15.7369"},{"name":"Starse","latitude":"46.4658","longitude":"15.7672"}]},{"name":"Obcina Store","code":"C9","cities":[{"name":"Štore","latitude":"46.2208","longitude":"15.3139"}]},{"name":"Obcina Straza","code":"203","cities":[{"name":"Straza","latitude":"45.7802","longitude":"15.0742"}]},{"name":"Obcina Sveti Andraz v Slovenskih Goricah","code":"I1","cities":[{"name":"Vitomarci","latitude":"46.5284","longitude":"15.9443"}]},{"name":"Obcina Sveti Jurij ob Scavnici","code":"D1","cities":[{"name":"Dragotinci","latitude":"46.5862","longitude":"16.0407"},{"name":"Slaptinci","latitude":"46.5705","longitude":"16.0513"},{"name":"Sveti Jurij ob Scavnici","latitude":"46.559","longitude":"16.1123"}]},{"name":"Obcina Sveti Tomaz","code":"205","cities":[{"name":"Rucmanci","latitude":"46.4902","longitude":"16.0462"},{"name":"Sveti Tomaz","latitude":"46.4842","longitude":"16.0836"}]},{"name":"Obcina Tisina","code":"010","cities":[{"name":"Borejci","latitude":"46.6828","longitude":"16.1017"},{"name":"Tisina","latitude":"46.6836","longitude":"16.0525"}]},{"name":"Obcina Tolmin","code":"D2","cities":[{"name":"Gorenji Log","latitude":"46.1333","longitude":"13.7333"},{"name":"Idrija pri Baci","latitude":"46.1469","longitude":"13.7389"},{"name":"Most na Soci","latitude":"46.1469","longitude":"13.7389"},{"name":"Podbrdo","latitude":"46.2138","longitude":"13.9643"},{"name":"Slap ob Idrijci","latitude":"46.1256","longitude":"13.8091"},{"name":"Tolmin","latitude":"46.183","longitude":"13.7332"}]},{"name":"Obcina Trnovska vas","code":"J4","cities":[{"name":"Trnovska Vas","latitude":"46.5202","longitude":"15.8866"}]},{"name":"Obcina Trzic","code":"D5","cities":[{"name":"Krize","latitude":"46.3428","longitude":"14.3014"},{"name":"Sebenje","latitude":"46.3326","longitude":"14.3056"},{"name":"Trzic","latitude":"46.3636","longitude":"14.3105"}]},{"name":"Obcina Turnisce","code":"D6","cities":[{"name":"Turnisce","latitude":"46.6278","longitude":"16.3203"}]},{"name":"Obcina Velike Lasce","code":"D8","cities":[{"name":"Turjak","latitude":"45.8753","longitude":"14.618"},{"name":"Velike Lašče","latitude":"45.8322","longitude":"14.6364"}]},{"name":"Obcina Verzej","code":"L6","cities":[{"name":"Verzej","latitude":"46.5836","longitude":"16.1653"}]},{"name":"Obcina Zalec","code":"N5","cities":[{"name":"Dobriša Vas","latitude":"46.2654","longitude":"15.0907"},{"name":"Grize","latitude":"46.2307","longitude":"15.1553"},{"name":"Petrovce","latitude":"46.24","longitude":"15.1847"},{"name":"Sempeter v Savinj. Dolini","latitude":"46.2564","longitude":"15.1219"},{"name":"Žalec","latitude":"46.2515","longitude":"15.1648"}]},{"name":"Obcina Zavrc","code":"E9","cities":[{"name":"Korenjak","latitude":"46.3419","longitude":"16.0444"},{"name":"Zavrc","latitude":"46.3917","longitude":"16.0497"}]},{"name":"Obcina Zelezniki","code":"F1","cities":[{"name":"Selca","latitude":"46.2244","longitude":"14.2056"},{"name":"Zelezniki","latitude":"46.2333","longitude":"14.1667"},{"name":"Zgornja Sorica","latitude":"46.2191","longitude":"14.0375"}]},{"name":"Obcina Zetale","code":"H1","cities":[{"name":"Nadole","latitude":"46.2876","longitude":"15.7673"},{"name":"Žetale","latitude":"46.275","longitude":"15.7939"}]},{"name":"Obcina Ziri","code":"F2","cities":[{"name":"Ziri","latitude":"46.0422","longitude":"14.1072"}]},{"name":"Obcina Zrece","code":"F3","cities":[{"name":"Stranice","latitude":"46.3636","longitude":"15.3653"},{"name":"Zrece","latitude":"46.3822","longitude":"15.3792"}]},{"name":"Obcina Zuzemberk","code":"M8","cities":[{"name":"Hinje","latitude":"45.7622","longitude":"14.8797"},{"name":"Žužemberk","latitude":"45.8339","longitude":"14.9292"}]},{"name":"Odranci","code":"086","cities":[{"name":"Odranci","latitude":"46.5867","longitude":"16.2803"}]},{"name":"Oplotnica","code":"J8","cities":[{"name":"Oplotnica","latitude":"46.3871","longitude":"15.4455"}]},{"name":"Osilnica","code":"088","cities":[{"name":"Osilnica","latitude":"45.5278","longitude":"14.6944"}]},{"name":"Pesnica","code":"89","cities":[{"name":"Pernica","latitude":"46.58","longitude":"15.7278"},{"name":"Pesnica pri Mariboru","latitude":"46.6069","longitude":"15.6767"}]},{"name":"Piran","code":"J9","cities":[{"name":"Lucija","latitude":"45.491","longitude":"13.6104"},{"name":"Piran","latitude":"45.4767","longitude":"13.6233"},{"name":"Portorož","latitude":"45.5143","longitude":"13.5921"},{"name":"Secovlje","latitude":"45.4767","longitude":"13.6233"}]},{"name":"Pivka","code":"91","cities":[{"name":"Dolnja Kosana","latitude":"45.6628","longitude":"14.1242"},{"name":"Pivka","latitude":"45.6829","longitude":"14.1959"}]},{"name":"Podlehnik","code":"M7","cities":[{"name":"Podlehnik","latitude":"46.3353","longitude":"15.88"}]},{"name":"Podvelka","code":"K2","cities":[{"name":"Podvelka","latitude":"46.5869","longitude":"15.3306"}]},{"name":"Polzela","code":"J6","cities":[{"name":"Polzela","latitude":"46.2816","longitude":"15.064"}]},{"name":"Postojna","code":"94","cities":[{"name":"Hrusevje","latitude":"45.758","longitude":"14.1021"},{"name":"Postojna","latitude":"45.7769","longitude":"14.2167"},{"name":"Prestranek","latitude":"45.7276","longitude":"14.1903"}]},{"name":"Prebold","code":"N4","cities":[{"name":"Prebold","latitude":"46.2369","longitude":"15.0925"}]},{"name":"Preddvor","code":"K5","cities":[{"name":"Preddvor","latitude":"46.3025","longitude":"14.4231"}]},{"name":"Prevalje","code":"N6","cities":[{"name":"Prevalje","latitude":"46.5469","longitude":"14.9208"}]},{"name":"Ptuj","code":"K7","cities":[{"name":"Ptuj","latitude":"46.3833","longitude":"15.95"}]},{"name":"Puconci","code":"97","cities":[{"name":"Bodonci","latitude":"46.744","longitude":"16.0916"},{"name":"Mackovci","latitude":"46.7814","longitude":"16.1689"},{"name":"Pecarovci","latitude":"46.7521","longitude":"16.1532"},{"name":"Puconci","latitude":"46.7067","longitude":"16.1564"}]},{"name":"Radenci","code":"A1","cities":[{"name":"Radenci","latitude":"46.642","longitude":"16.0378"}]},{"name":"Radlje ob Dravi","code":"A2","cities":[{"name":"Radlje ob Dravi","latitude":"46.6175","longitude":"15.2273"},{"name":"Vuhred","latitude":"46.597","longitude":"15.2372"}]},{"name":"Radovljica","code":"A3","cities":[{"name":"Begunje na Gorenjskem","latitude":"46.3833","longitude":"14.2167"},{"name":"Brezje","latitude":"46.329","longitude":"14.2323"},{"name":"Kamna Gorica","latitude":"46.3167","longitude":"14.2"},{"name":"Kropa","latitude":"46.3","longitude":"14.2"},{"name":"Lesce","latitude":"46.3611","longitude":"14.1578"},{"name":"Ljubno","latitude":"46.3201","longitude":"14.2519"},{"name":"Radovljica","latitude":"46.3444","longitude":"14.1744"}]},{"name":"Ribnica","code":"L1","cities":[{"name":"Ortnek","latitude":"45.7791","longitude":"14.679"},{"name":"Ribnica","latitude":"45.7386","longitude":"14.7275"}]},{"name":"Ribnica na Pohorju","code":"L2","cities":[{"name":"Ribnica na Pohorju","latitude":"46.535","longitude":"15.2728"}]},{"name":"Rogatec","code":"A8","cities":[{"name":"Brezovec pri Rogatcu","latitude":"46.2341","longitude":"15.6829"},{"name":"Rogatec","latitude":"46.2286","longitude":"15.7016"}]},{"name":"Selnica ob Dravi","code":"K1","cities":[{"name":"Bistrica pri Rusah","latitude":"46.5572","longitude":"15.5144"},{"name":"Selnica ob Dravi","latitude":"46.55","longitude":"15.495"}]},{"name":"Sentjur","code":"L7","cities":[{"name":"Dramlje","latitude":"46.2736","longitude":"15.3947"},{"name":"Gorica pri Slivnici","latitude":"46.1872","longitude":"15.4325"},{"name":"Kalobje","latitude":"46.1708","longitude":"15.3919"},{"name":"Loka pri Zusmu","latitude":"46.1575","longitude":"15.5147"},{"name":"Planina pri Sevnici","latitude":"46.108","longitude":"15.4118"},{"name":"Ponikva","latitude":"46.241","longitude":"15.4567"},{"name":"Šentjur pri Celju","latitude":"46.2172","longitude":"15.3975"}]},{"name":"Sevnica","code":"B6","cities":[{"name":"Bostanj","latitude":"46.0144","longitude":"15.2825"},{"name":"Krmelj","latitude":"45.9847","longitude":"15.1894"},{"name":"Loka pri Zidanem Mostu","latitude":"46.0579","longitude":"15.2046"},{"name":"Sentjanz","latitude":"46.0075","longitude":"15.1668"},{"name":"Sevnica","latitude":"46.0078","longitude":"15.3156"},{"name":"Trzisce","latitude":"45.9589","longitude":"15.1972"}]},{"name":"Slovenj Gradec","code":"C2","cities":[{"name":"Podgorje","latitude":"46.4719","longitude":"15.0836"},{"name":"Slovenj Gradec","latitude":"46.4719","longitude":"15.0836"},{"name":"Smartno pri Slovenj Gradcu","latitude":"46.4894","longitude":"15.1067"}]},{"name":"Slovenska Bistrica","code":"L8","cities":[{"name":"Laporje","latitude":"46.3467","longitude":"15.5947"},{"name":"Pragersko","latitude":"46.3967","longitude":"15.66"},{"name":"Slovenska Bistrica","latitude":"46.3932","longitude":"15.566"},{"name":"Smartno na Pohorju","latitude":"46.4411","longitude":"15.5355"},{"name":"Zgornja Polskava","latitude":"46.4256","longitude":"15.6122"}]},{"name":"Slovenske Konjice","code":"C4","cities":[{"name":"Loce","latitude":"46.2978","longitude":"15.5003"},{"name":"Slovenske Konjice","latitude":"46.3381","longitude":"15.427"}]},{"name":"Sveta Ana","code":"M3","cities":[{"name":"Sv. Ana v Slov. Goricah","latitude":"46.5838","longitude":"15.8478"}]},{"name":"Sveta Trojica v Slovenskih Goricah","code":"204","cities":[{"name":"Gocova","latitude":"46.553","longitude":"15.8639"},{"name":"Zgornja Senarska","latitude":"46.5653","longitude":"15.8736"}]},{"name":"Sveti Jurij v Slovenskih Goricah","code":"210","cities":[{"name":"Jurovski Dol","latitude":"46.6064","longitude":"15.7847"}]},{"name":"Tabor","code":"N8","cities":[{"name":"Kapla","latitude":"46.2449","longitude":"15.0117"},{"name":"Pondor","latitude":"46.2423","longitude":"14.9986"},{"name":"Tabor","latitude":"46.2361","longitude":"15.0183"}]},{"name":"Trbovlje","code":"D3","cities":[{"name":"Trbovlje","latitude":"46.155","longitude":"15.0533"}]},{"name":"Trebnje","code":"D4","cities":[{"name":"Dobrnic","latitude":"45.8743","longitude":"14.9856"},{"name":"Trebnje","latitude":"45.9042","longitude":"15.0217"},{"name":"Veliki Gaber","latitude":"45.935","longitude":"14.9047"}]},{"name":"Trzin","code":"L5","cities":[{"name":"Trzin","latitude":"46.1333","longitude":"14.5667"}]},{"name":"Velenje","code":"D7","cities":[{"name":"Velenje","latitude":"46.3719","longitude":"15.0256"}]},{"name":"Velika Polana","code":"M4","cities":[{"name":"Velika Polana","latitude":"46.5744","longitude":"16.3443"}]},{"name":"Videm","code":"N2","cities":[{"name":"Videm pri Ptuju","latitude":"46.3679","longitude":"15.9028"},{"name":"Zgornji Leskovec","latitude":"46.3294","longitude":"15.9332"}]},{"name":"Vipava","code":"E1","cities":[{"name":"Col","latitude":"45.8758","longitude":"14.005"},{"name":"Duplje","latitude":"45.8653","longitude":"13.9497"},{"name":"Podnanos","latitude":"45.7969","longitude":"13.9714"},{"name":"Vipava","latitude":"45.8435","longitude":"13.9648"}]},{"name":"Vitanje","code":"E2","cities":[{"name":"Brezen","latitude":"46.4035","longitude":"15.2845"},{"name":"Vitanje","latitude":"46.3798","longitude":"15.2907"}]},{"name":"Vodice","code":"E3","cities":[{"name":"Repnje","latitude":"46.1638","longitude":"14.4793"},{"name":"Vodice","latitude":"46.189","longitude":"14.4892"}]},{"name":"Vojnik","code":"N3","cities":[{"name":"Frankolovo","latitude":"46.3306","longitude":"15.3144"},{"name":"Nova Cerkev","latitude":"46.3128","longitude":"15.2856"},{"name":"Vojnik","latitude":"46.2933","longitude":"15.3033"}]},{"name":"Vransko","code":"G3","cities":[{"name":"Vransko","latitude":"46.2439","longitude":"14.9514"}]},{"name":"Vrhnika","code":"E5","cities":[{"name":"Vrhnika","latitude":"45.9641","longitude":"14.3008"}]},{"name":"Vuzenica","code":"E6","cities":[{"name":"Vuzenica","latitude":"46.5964","longitude":"15.1672"}]},{"name":"Zagorje ob Savi","code":"E7","cities":[{"name":"Cemsenik","latitude":"46.176","longitude":"14.9462"},{"name":"Izlake","latitude":"46.15","longitude":"14.95"},{"name":"Kisovec","latitude":"46.1391","longitude":"14.9629"},{"name":"Podkum","latitude":"46.0714","longitude":"15.0286"},{"name":"Zagorje ob Savi","latitude":"46.1348","longitude":"14.9988"}]},{"name":"Škofja Loka","code":"B9","cities":[{"name":"Škofja Loka","latitude":"46.1655","longitude":"14.3063"}]}]}