{"name":"Slovakia","code":"SK","regions":[{"name":"Banska Bystrica","code":"01","cities":[{"name":"Abovce","latitude":"48.3187","longitude":"20.3365"},{"name":"Banská Bystrica","latitude":"48.7491","longitude":"19.1958"},{"name":"Banská Štiavnica","latitude":"48.4489","longitude":"18.9669"},{"name":"Batka","latitude":"48.3813","longitude":"20.1712"},{"name":"Batorova","latitude":"48.1344","longitude":"19.2714"},{"name":"Benus","latitude":"48.8258","longitude":"19.7635"},{"name":"Blh nad Iplom","latitude":"48.0778","longitude":"19.1309"},{"name":"Blhovce","latitude":"48.2751","longitude":"19.9538"},{"name":"Breznicka","latitude":"48.4223","longitude":"19.7358"},{"name":"Brezno","latitude":"48.85","longitude":"19.6"},{"name":"Brusno","latitude":"48.7901","longitude":"19.3813"},{"name":"Budca","latitude":"48.5738","longitude":"19.0694"},{"name":"Busince","latitude":"48.1746","longitude":"19.5012"},{"name":"Bzovik","latitude":"48.3215","longitude":"19.0918"},{"name":"Chyzne","latitude":"48.6688","longitude":"20.2205"},{"name":"Cinobana","latitude":"48.444","longitude":"19.6492"},{"name":"Detva","latitude":"48.5608","longitude":"19.4195"},{"name":"Divin","latitude":"48.4499","longitude":"19.5353"},{"name":"Dobra Niva","latitude":"48.4709","longitude":"19.111"},{"name":"Dolna Strehova","latitude":"48.2508","longitude":"19.4888"},{"name":"Dolne Plachtince","latitude":"48.2","longitude":"19.31"},{"name":"Dudince","latitude":"48.1713","longitude":"18.8878"},{"name":"Filakovo","latitude":"48.2676","longitude":"19.8247"},{"name":"Halic","latitude":"48.3539","longitude":"19.5763"},{"name":"Helpa","latitude":"48.8627","longitude":"19.9764"},{"name":"Hlinik nad Hronom","latitude":"48.5354","longitude":"18.7873"},{"name":"Hnusta","latitude":"48.5726","longitude":"19.954"},{"name":"Hodrusa","latitude":"48.4353","longitude":"18.8023"},{"name":"Hontianske Nemce","latitude":"48.2863","longitude":"18.9895"},{"name":"Horna Zdana","latitude":"48.5698","longitude":"18.7559"},{"name":"Horne Hamre","latitude":"48.498","longitude":"18.6666"},{"name":"Hrabicov","latitude":"48.533","longitude":"18.6667"},{"name":"Hrachovo","latitude":"48.4668","longitude":"19.9569"},{"name":"Hrinova","latitude":"48.5779","longitude":"19.5257"},{"name":"Hrnciarske Zaluzany","latitude":"48.4105","longitude":"19.8715"},{"name":"Hrochot,Slovakia","latitude":"48.6581","longitude":"19.313"},{"name":"Hronec","latitude":"48.7976","longitude":"19.5805"},{"name":"Janova Lehota","latitude":"48.655","longitude":"18.7837"},{"name":"Jasenie","latitude":"48.8388","longitude":"19.4597"},{"name":"Kalinovo","latitude":"48.3924","longitude":"19.707"},{"name":"Klenovec","latitude":"48.5995","longitude":"19.8896"},{"name":"Kokava nad Rimavicou","latitude":"48.5689","longitude":"19.8435"},{"name":"Komarno","latitude":"48.5815","longitude":"19.5984"},{"name":"Kordiky","latitude":"48.7726","longitude":"19.0267"},{"name":"Kremnica","latitude":"48.7034","longitude":"18.917"},{"name":"Krupina","latitude":"48.3554","longitude":"19.0647"},{"name":"Lopej","latitude":"48.8176","longitude":"19.4953"},{"name":"Lovca","latitude":"48.5706","longitude":"18.8217"},{"name":"Lovcica","latitude":"48.6184","longitude":"18.7959"},{"name":"Lovinobana","latitude":"48.4374","longitude":"19.5908"},{"name":"Lubenik","latitude":"48.6549","longitude":"20.1961"},{"name":"Lucatin","latitude":"48.7828","longitude":"19.32"},{"name":"Lutila","latitude":"48.6138","longitude":"18.8449"},{"name":"Lučenec","latitude":"48.3595","longitude":"19.7628"},{"name":"Majer","latitude":"48.7351","longitude":"19.1793"},{"name":"Malinec","latitude":"48.498","longitude":"19.6866"},{"name":"Maly Krtis","latitude":"48.1898","longitude":"19.3452"},{"name":"Medzibrod","latitude":"48.7943","longitude":"19.3537"},{"name":"Michalova","latitude":"48.7679","longitude":"19.7809"},{"name":"Modry Kamen","latitude":"48.2413","longitude":"19.3349"},{"name":"Mostenica","latitude":"48.8084","longitude":"19.2905"},{"name":"Mytna","latitude":"48.4677","longitude":"19.5525"},{"name":"Nenince","latitude":"48.1449","longitude":"19.2598"},{"name":"Nova Bana","latitude":"48.423","longitude":"18.6404"},{"name":"Ocova","latitude":"48.6015","longitude":"19.2861"},{"name":"Opatovska Nova Ves","latitude":"48.1165","longitude":"19.282"},{"name":"Panicke Dravce","latitude":"48.2867","longitude":"19.6506"},{"name":"Pavlovce","latitude":"48.3262","longitude":"20.0823"},{"name":"Pliesovce","latitude":"48.4263","longitude":"19.1556"},{"name":"Podbrezova","latitude":"48.8093","longitude":"19.526"},{"name":"Podkonice","latitude":"48.8027","longitude":"19.261"},{"name":"Pohorela","latitude":"48.8638","longitude":"20.013"},{"name":"Pohronska Polhora","latitude":"48.7605","longitude":"19.7962"},{"name":"Polomka","latitude":"48.8523","longitude":"19.8525"},{"name":"Poltar","latitude":"48.4309","longitude":"19.7941"},{"name":"Poniky","latitude":"48.7124","longitude":"19.2927"},{"name":"Predajna","latitude":"48.8141","longitude":"19.4576"},{"name":"Rakosska Bana","latitude":"48.6036","longitude":"20.1292"},{"name":"Revúca","latitude":"48.6835","longitude":"20.1173"},{"name":"Rimavska Bana","latitude":"48.5083","longitude":"19.9411"},{"name":"Rimavska Sec","latitude":"48.3051","longitude":"20.2349"},{"name":"Rimavská Sobota","latitude":"48.3828","longitude":"20.0224"},{"name":"Rudno nad Hronom","latitude":"48.4243","longitude":"18.6899"},{"name":"Sebechleby","latitude":"48.2729","longitude":"18.9567"},{"name":"Selce","latitude":"48.7618","longitude":"19.2045"},{"name":"Senohrad","latitude":"48.354","longitude":"19.2005"},{"name":"Sirakov","latitude":"48.1528","longitude":"19.1854"},{"name":"Sirk","latitude":"48.622","longitude":"20.101"},{"name":"Slatinske Lazy","latitude":"48.499","longitude":"19.3084"},{"name":"Sliač","latitude":"48.6131","longitude":"19.1569"},{"name":"Slovenska Lupca","latitude":"48.7653","longitude":"19.2755"},{"name":"Slovenske DZarmoty","latitude":"48.088","longitude":"19.3"},{"name":"Stara Huta","latitude":"48.4749","longitude":"19.3485"},{"name":"Stara Kremnicka","latitude":"48.6047","longitude":"18.8951"},{"name":"Tajov","latitude":"48.742","longitude":"19.0717"},{"name":"Tekovska Breznica","latitude":"48.3865","longitude":"18.6187"},{"name":"Telgart","latitude":"48.8522","longitude":"20.1821"},{"name":"Teply Vrch","latitude":"48.4731","longitude":"20.0964"},{"name":"Terany","latitude":"48.1797","longitude":"18.8931"},{"name":"Tisovec","latitude":"48.677","longitude":"19.9497"},{"name":"Tomasovce","latitude":"48.3706","longitude":"19.6214"},{"name":"Tornaľa","latitude":"48.4192","longitude":"20.3257"},{"name":"Trnava Hora","latitude":"48.5898","longitude":"18.9543"},{"name":"Turova","latitude":"48.6024","longitude":"19.0537"},{"name":"Valaska","latitude":"48.8076","longitude":"19.571"},{"name":"Vcelince","latitude":"48.3862","longitude":"20.3062"},{"name":"Vecelkov","latitude":"48.1661","longitude":"19.9374"},{"name":"Velka Lehota","latitude":"48.4621","longitude":"18.5592"},{"name":"Velke Dravce","latitude":"48.3464","longitude":"19.8393"},{"name":"Velky Blh","latitude":"48.4419","longitude":"20.1165"},{"name":"Velky Krtis","latitude":"48.2987","longitude":"19.4053"},{"name":"Vidina","latitude":"48.3591","longitude":"19.6543"},{"name":"Vinica","latitude":"48.1173","longitude":"19.1186"},{"name":"Vlkanova","latitude":"48.6713","longitude":"19.1461"},{"name":"Vrbovka","latitude":"48.0889","longitude":"19.4097"},{"name":"Zarnovica","latitude":"48.4812","longitude":"18.7156"},{"name":"Zavadka nad Hronom","latitude":"48.8467","longitude":"19.9099"},{"name":"Zelovce","latitude":"48.1236","longitude":"19.3559"},{"name":"Ziar nad Hronom","latitude":"48.5961","longitude":"18.8557"},{"name":"Zupkov","latitude":"48.5254","longitude":"18.6297"},{"name":"Zvolen","latitude":"48.4636","longitude":"19.1873"},{"name":"Zvolenska Slatina","latitude":"48.5634","longitude":"19.2543"},{"name":"lubietova","latitude":"48.7453","longitude":"19.361"}]},{"name":"Bratislava","code":"02","cities":[{"name":"Bahon","latitude":"48.3094","longitude":"17.4452"},{"name":"Bernolakovo","latitude":"48.1979","longitude":"17.3061"},{"name":"Blatne","latitude":"48.2655","longitude":"17.4249"},{"name":"Borinka","latitude":"48.2631","longitude":"17.0911"},{"name":"Bratislava","latitude":"48.15","longitude":"17.1078"},{"name":"Budmerice","latitude":"48.3576","longitude":"17.4071"},{"name":"Casta","latitude":"48.3992","longitude":"17.3635"},{"name":"Cataj","latitude":"48.2705","longitude":"17.4787"},{"name":"Chorvatsky Grob","latitude":"48.2275","longitude":"17.2902"},{"name":"Dunajska Luzna","latitude":"48.0835","longitude":"17.2607"},{"name":"Gajary","latitude":"48.4703","longitude":"16.928"},{"name":"Hamuliakovo","latitude":"48.0598","longitude":"17.2535"},{"name":"Hlinik","latitude":"48.2897","longitude":"17.2234"},{"name":"Igram","latitude":"48.2849","longitude":"17.459"},{"name":"Ivanka pri Dunaji","latitude":"48.1861","longitude":"17.2556"},{"name":"Kalinkovo","latitude":"48.0598","longitude":"17.2535"},{"name":"Kralova","latitude":"48.3541","longitude":"17.0855"},{"name":"Kuchyna","latitude":"48.406","longitude":"17.1573"},{"name":"Lab","latitude":"48.3667","longitude":"16.9833"},{"name":"Lamac","latitude":"48.193","longitude":"17.0508"},{"name":"Lozorno","latitude":"48.3336","longitude":"17.0432"},{"name":"Malacky","latitude":"48.436","longitude":"17.0219"},{"name":"Male Levare","latitude":"48.5038","longitude":"16.9845"},{"name":"Malinovo","latitude":"48.1545","longitude":"17.2968"},{"name":"Marianka","latitude":"48.249","longitude":"17.064"},{"name":"Miloslavov","latitude":"48.1059","longitude":"17.3"},{"name":"Modra","latitude":"48.334","longitude":"17.3071"},{"name":"Most pri Bratislave","latitude":"48.142","longitude":"17.2709"},{"name":"Pernek","latitude":"48.3632","longitude":"17.1469"},{"name":"Pezinok","latitude":"48.2719","longitude":"17.26"},{"name":"Plavecky Stvrtok","latitude":"48.374","longitude":"17.0009"},{"name":"Podunajske Biskupice","latitude":"48.1325","longitude":"17.2096"},{"name":"Reca","latitude":"48.1966","longitude":"17.5602"},{"name":"Rohoznik","latitude":"48.4568","longitude":"17.1676"},{"name":"Rovinka","latitude":"48.0978","longitude":"17.2363"},{"name":"Rusovce","latitude":"48.0549","longitude":"17.1446"},{"name":"Senec","latitude":"48.2158","longitude":"17.4114"},{"name":"Slovensky Grob","latitude":"48.2576","longitude":"17.2743"},{"name":"Solosnica","latitude":"48.4679","longitude":"17.2331"},{"name":"Studienka","latitude":"48.5265","longitude":"17.1373"},{"name":"Stupava","latitude":"48.2747","longitude":"17.0317"},{"name":"Suchohrad","latitude":"48.4","longitude":"16.8667"},{"name":"Svätý Jur","latitude":"48.2522","longitude":"17.2154"},{"name":"Tomasov","latitude":"48.1425","longitude":"17.3357"},{"name":"Velke Canikovce","latitude":"48.2982","longitude":"17.3496"},{"name":"Velke Levare","latitude":"48.504","longitude":"17.0036"},{"name":"Velky Biel","latitude":"48.2139","longitude":"17.3598"},{"name":"Vinicne","latitude":"48.2719","longitude":"17.3023"},{"name":"Vinosady","latitude":"48.3114","longitude":"17.2904"},{"name":"Vistuk","latitude":"48.3334","longitude":"17.3994"},{"name":"Vysoka pri Morave","latitude":"48.3294","longitude":"16.9119"},{"name":"Zahorska Bystrica","latitude":"48.2411","longitude":"17.0382"},{"name":"Zahorska Ves","latitude":"48.3857","longitude":"16.8508"},{"name":"Zavod","latitude":"48.5422","longitude":"17.0298"},{"name":"Zohor","latitude":"48.3167","longitude":"16.9833"}]},{"name":"Kosice","code":"03","cities":[{"name":"Backa","latitude":"48.4442","longitude":"22.0443"},{"name":"Belza","latitude":"48.5803","longitude":"21.2707"},{"name":"Betlanovce","latitude":"48.9756","longitude":"20.4086"},{"name":"Bidovce","latitude":"48.7362","longitude":"21.4395"},{"name":"Biel","latitude":"48.4056","longitude":"22.0506"},{"name":"Blatne Revistia","latitude":"48.7392","longitude":"22.0847"},{"name":"Bohdanovce","latitude":"48.6561","longitude":"21.4009"},{"name":"Boliarov","latitude":"48.8027","longitude":"21.4325"},{"name":"Bracovce","latitude":"48.6462","longitude":"21.839"},{"name":"Budimir","latitude":"48.7995","longitude":"21.3016"},{"name":"Budkovce","latitude":"48.6322","longitude":"21.9306"},{"name":"Cana","latitude":"48.6099","longitude":"21.3262"},{"name":"Cecejovce","latitude":"48.595","longitude":"21.0651"},{"name":"Cierna nad Tisou","latitude":"48.417","longitude":"22.0887"},{"name":"Cucma","latitude":"48.6912","longitude":"20.5474"},{"name":"Dargov","latitude":"48.7368","longitude":"21.5861"},{"name":"Dobšiná","latitude":"48.8207","longitude":"20.3699"},{"name":"Druzstevna pri Hornade","latitude":"48.791","longitude":"21.2351"},{"name":"Dvorianky","latitude":"48.728","longitude":"21.7099"},{"name":"Geca","latitude":"48.6279","longitude":"21.3099"},{"name":"Gelnica","latitude":"48.8558","longitude":"20.9371"},{"name":"Gemerska Horka","latitude":"48.5327","longitude":"20.3745"},{"name":"Haniska","latitude":"48.6201","longitude":"21.2565"},{"name":"Harichovce","latitude":"49.0033","longitude":"20.7471"},{"name":"Hatalov","latitude":"48.6588","longitude":"21.889"},{"name":"Hnilcik","latitude":"48.859","longitude":"20.5802"},{"name":"Hodkovce","latitude":"48.6824","longitude":"21.0985"},{"name":"Hran","latitude":"48.545","longitude":"21.7847"},{"name":"Hrhov","latitude":"48.604","longitude":"20.7549"},{"name":"Jablonov nad Turnou","latitude":"48.5967","longitude":"20.6776"},{"name":"Jaklovce","latitude":"48.8717","longitude":"20.988"},{"name":"Jasov","latitude":"48.681","longitude":"20.971"},{"name":"Jastrabie","latitude":"48.4845","longitude":"21.8209"},{"name":"Jovsa","latitude":"48.8231","longitude":"22.0917"},{"name":"Kaluza","latitude":"48.8078","longitude":"21.9999"},{"name":"Kechnec","latitude":"48.5512","longitude":"21.2626"},{"name":"Kluknava","latitude":"48.9244","longitude":"20.9414"},{"name":"Komarovce","latitude":"48.5769","longitude":"21.1216"},{"name":"Košice","latitude":"48.6865","longitude":"21.1992"},{"name":"Kralovce","latitude":"48.8025","longitude":"21.3286"},{"name":"Kralovsky Chlmec","latitude":"48.4234","longitude":"21.9794"},{"name":"Krasnohorske Podhradie","latitude":"48.682","longitude":"20.6121"},{"name":"Krompachy","latitude":"48.9145","longitude":"20.8751"},{"name":"Kunova Teplica","latitude":"48.6118","longitude":"20.3807"},{"name":"Kuzmice","latitude":"48.5803","longitude":"21.5648"},{"name":"Kysak","latitude":"48.8556","longitude":"21.2197"},{"name":"Lastomir","latitude":"48.7028","longitude":"21.9253"},{"name":"Letanovce","latitude":"48.9718","longitude":"20.4851"},{"name":"Luhyna","latitude":"48.4906","longitude":"21.6359"},{"name":"Mala Ida","latitude":"48.6748","longitude":"21.1679"},{"name":"Mala Trna","latitude":"48.4485","longitude":"21.6793"},{"name":"Margecany","latitude":"48.8894","longitude":"21.0081"},{"name":"Markusovce","latitude":"48.9119","longitude":"20.6307"},{"name":"Medzev","latitude":"48.7004","longitude":"20.8937"},{"name":"Michalany","latitude":"48.5159","longitude":"21.6234"},{"name":"Michalovce","latitude":"48.7543","longitude":"21.9195"},{"name":"Mokrance","latitude":"48.5986","longitude":"21.0249"},{"name":"Moldava nad Bodvou","latitude":"48.6122","longitude":"20.9981"},{"name":"Nalepkovo","latitude":"48.8424","longitude":"20.6203"},{"name":"Nizna Mysla","latitude":"48.6201","longitude":"21.3659"},{"name":"Nizna Slana","latitude":"48.7267","longitude":"20.4093"},{"name":"Nizny Klatov","latitude":"48.7256","longitude":"21.139"},{"name":"Nizny Zipov","latitude":"48.5821","longitude":"21.6377"},{"name":"Novy Salas","latitude":"48.6113","longitude":"21.473"},{"name":"Odorin","latitude":"48.9337","longitude":"20.6346"},{"name":"Palin","latitude":"48.6577","longitude":"21.9877"},{"name":"Parchovany","latitude":"48.7484","longitude":"21.7179"},{"name":"Pavlovce nad Uhom","latitude":"48.6109","longitude":"22.069"},{"name":"Perin","latitude":"48.5381","longitude":"21.1908"},{"name":"Petrovce nad Laborcom","latitude":"48.7925","longitude":"21.869"},{"name":"Porubka","latitude":"48.7357","longitude":"22.2624"},{"name":"Pozdisovce","latitude":"48.7219","longitude":"21.85"},{"name":"Prakovce","latitude":"48.8159","longitude":"20.8961"},{"name":"Rakovec nad Ondavou","latitude":"48.7687","longitude":"21.7827"},{"name":"Resica","latitude":"48.5425","longitude":"21.04"},{"name":"Rozhanovce","latitude":"48.7488","longitude":"21.3561"},{"name":"Rožňava","latitude":"48.6601","longitude":"20.5376"},{"name":"Rudnany","latitude":"48.8816","longitude":"20.6801"},{"name":"Ruska","latitude":"48.5273","longitude":"22.1407"},{"name":"Ruskov","latitude":"48.6819","longitude":"21.4324"},{"name":"Secovce","latitude":"48.7007","longitude":"21.661"},{"name":"Semsa","latitude":"48.6762","longitude":"21.1137"},{"name":"Slavkovce","latitude":"48.6003","longitude":"21.9269"},{"name":"Slavosovce","latitude":"48.713","longitude":"20.2822"},{"name":"Slivnik","latitude":"48.5999","longitude":"21.5566"},{"name":"Smizany","latitude":"48.9545","longitude":"20.5234"},{"name":"Sobrance","latitude":"48.7445","longitude":"22.1814"},{"name":"Somotor","latitude":"48.4025","longitude":"21.8079"},{"name":"Spisske Tomasovce","latitude":"48.962","longitude":"20.4723"},{"name":"Spisske Vlachy","latitude":"48.9475","longitude":"20.7957"},{"name":"Spissky Hrusov","latitude":"48.9475","longitude":"20.7059"},{"name":"Spišská Nová Ves","latitude":"48.962","longitude":"20.4723"},{"name":"Stare","latitude":"48.8576","longitude":"21.8809"},{"name":"Stitnik","latitude":"48.659","longitude":"20.364"},{"name":"Strazske","latitude":"48.8735","longitude":"21.8367"},{"name":"Streda nad Bodrogom","latitude":"48.3722","longitude":"21.7542"},{"name":"Svedlar","latitude":"48.8135","longitude":"20.7178"},{"name":"Szentes","latitude":"48.4333","longitude":"21.9167"},{"name":"Trebišov","latitude":"48.6286","longitude":"21.7195"},{"name":"Trstene pri Hornade","latitude":"48.5763","longitude":"21.3289"},{"name":"Turna nad Bodvou","latitude":"48.6","longitude":"20.8809"},{"name":"Tusicka Nova Ves","latitude":"48.7191","longitude":"21.7585"},{"name":"Valaliky","latitude":"48.6358","longitude":"21.2988"},{"name":"Velaty","latitude":"48.5241","longitude":"21.6605"},{"name":"Velka Poloma","latitude":"48.7572","longitude":"20.3923"},{"name":"Velke Kapusany","latitude":"48.552","longitude":"22.0804"},{"name":"Velke Trakany","latitude":"48.3917","longitude":"22.0908"},{"name":"Velky Hores","latitude":"48.3876","longitude":"21.9067"},{"name":"Velky Kazimir","latitude":"48.5262","longitude":"21.5898"},{"name":"Vinne","latitude":"48.8096","longitude":"21.9676"},{"name":"Vlachovo","latitude":"48.7691","longitude":"20.4126"},{"name":"Vojany","latitude":"48.5663","longitude":"21.9947"},{"name":"Vojcice","latitude":"48.6784","longitude":"21.7158"},{"name":"Zdana","latitude":"48.6013","longitude":"21.3491"},{"name":"Zemplinska Teplica","latitude":"48.6466","longitude":"21.5721"},{"name":"Zemplinske Hradiste","latitude":"48.5859","longitude":"21.7421"}]},{"name":"Nitra","code":"04","cities":[{"name":"Aleksince","latitude":"48.3664","longitude":"17.9479"},{"name":"Andovce","latitude":"47.9934","longitude":"18.1051"},{"name":"Ardanovce","latitude":"48.4084","longitude":"18.1537"},{"name":"Bab","latitude":"48.3129","longitude":"17.8647"},{"name":"Banov","latitude":"48.0442","longitude":"18.1957"},{"name":"Bardonovo","latitude":"48.1052","longitude":"18.4249"},{"name":"Batorove Kosihy","latitude":"47.832","longitude":"18.4247"},{"name":"Batovce","latitude":"48.2908","longitude":"18.7457"},{"name":"Beladice","latitude":"48.3441","longitude":"18.2899"},{"name":"Besa","latitude":"48.1415","longitude":"18.4011"},{"name":"Besenov","latitude":"48.0422","longitude":"18.2589"},{"name":"Bina","latitude":"47.9224","longitude":"18.6416"},{"name":"Bodza","latitude":"47.8385","longitude":"17.8329"},{"name":"Bojna","latitude":"48.5752","longitude":"18.0551"},{"name":"Bory","latitude":"48.1806","longitude":"18.7491"},{"name":"Branc","latitude":"48.2187","longitude":"18.1442"},{"name":"Branovo","latitude":"48.0232","longitude":"18.308"},{"name":"Brestovec","latitude":"47.8622","longitude":"17.818"},{"name":"Buc","latitude":"47.8048","longitude":"18.4408"},{"name":"Cabaj-Capor","latitude":"48.2445","longitude":"18.029"},{"name":"Cajkov","latitude":"48.2862","longitude":"18.599"},{"name":"Calovec","latitude":"47.8157","longitude":"17.982"},{"name":"Cata","latitude":"47.9516","longitude":"18.6558"},{"name":"Cechynce","latitude":"48.2536","longitude":"18.1568"},{"name":"Celadice","latitude":"48.3292","longitude":"18.239"},{"name":"Celadince","latitude":"48.5109","longitude":"18.1715"},{"name":"Cernik","latitude":"48.1522","longitude":"18.2261"},{"name":"Cerveny Hradok","latitude":"48.3021","longitude":"18.3835"},{"name":"Chotin","latitude":"47.8071","longitude":"18.2269"},{"name":"Chrabrany","latitude":"48.5325","longitude":"18.1431"},{"name":"Cicov","latitude":"47.7712","longitude":"17.7731"},{"name":"Demandice","latitude":"48.1256","longitude":"18.7831"},{"name":"Devicany","latitude":"48.3225","longitude":"18.7054"},{"name":"Diakovce","latitude":"48.1348","longitude":"17.8482"},{"name":"Dlha nad Vahom","latitude":"48.1719","longitude":"17.8643"},{"name":"Dolna Sec","latitude":"48.1763","longitude":"18.564"},{"name":"Dolne Obdokovce","latitude":"48.3171","longitude":"18.2105"},{"name":"Dolne Slazany","latitude":"48.3837","longitude":"18.3256"},{"name":"Dolny Ohaj","latitude":"48.0821","longitude":"18.253"},{"name":"Dolny Pial","latitude":"48.1317","longitude":"18.4619"},{"name":"Dvorany nad Nitrou","latitude":"48.4866","longitude":"18.1187"},{"name":"Dvory nad Zitavou","latitude":"47.9895","longitude":"18.2672"},{"name":"Gbelce","latitude":"47.8511","longitude":"18.5144"},{"name":"Golianovo","latitude":"48.2719","longitude":"18.1919"},{"name":"Horna Kralova","latitude":"48.2453","longitude":"17.9131"},{"name":"Horna Sec","latitude":"48.1981","longitude":"18.5407"},{"name":"Horne Semerovce","latitude":"48.1252","longitude":"18.8819"},{"name":"Horne Turovce","latitude":"48.0992","longitude":"18.945"},{"name":"Hostovce","latitude":"48.4176","longitude":"18.3582"},{"name":"Hronske Klacany","latitude":"48.3595","longitude":"18.4175"},{"name":"Hronske Kosihy","latitude":"48.2658","longitude":"18.5953"},{"name":"Hrusovany","latitude":"48.4373","longitude":"18.0932"},{"name":"Hul","latitude":"48.0991","longitude":"18.26"},{"name":"Hurbanovo","latitude":"47.8931","longitude":"18.2155"},{"name":"Imel","latitude":"47.902","longitude":"18.1468"},{"name":"Ivanka pri Nitre","latitude":"48.2438","longitude":"18.1127"},{"name":"Jacovce","latitude":"48.5945","longitude":"18.1347"},{"name":"Jelenec","latitude":"48.3784","longitude":"18.2235"},{"name":"Kalna","latitude":"48.1978","longitude":"18.5198"},{"name":"Kamenica nad Hronom","latitude":"47.8311","longitude":"18.728"},{"name":"Kamenicna","latitude":"47.8169","longitude":"18.0434"},{"name":"Kamenin","latitude":"47.8884","longitude":"18.6431"},{"name":"Klasov","latitude":"48.2762","longitude":"18.2594"},{"name":"Kmetovo","latitude":"48.1684","longitude":"18.2759"},{"name":"Kolarovo","latitude":"47.9229","longitude":"17.9847"},{"name":"Kolinany","latitude":"48.3571","longitude":"18.2"},{"name":"Kolta","latitude":"48.0174","longitude":"18.4124"},{"name":"Komjatice","latitude":"48.157","longitude":"18.1703"},{"name":"Komárno","latitude":"47.8887","longitude":"18.0232"},{"name":"Kovarce","latitude":"48.4957","longitude":"18.1566"},{"name":"Kozarovce","latitude":"48.2719","longitude":"18.5881"},{"name":"Kralova nad Vahom","latitude":"48.1692","longitude":"17.8422"},{"name":"Kravany nad Dunajom","latitude":"47.76","longitude":"18.4796"},{"name":"Krnca","latitude":"48.5443","longitude":"18.2494"},{"name":"Krusovce","latitude":"48.5879","longitude":"18.2047"},{"name":"Ladice","latitude":"48.3964","longitude":"18.2567"},{"name":"Levice","latitude":"48.2156","longitude":"18.607"},{"name":"Ludanice","latitude":"48.4956","longitude":"18.116"},{"name":"Lukacovce","latitude":"48.3919","longitude":"17.9349"},{"name":"Luzianky","latitude":"48.3491","longitude":"18.029"},{"name":"Machulince","latitude":"48.4118","longitude":"18.4322"},{"name":"Marcelova","latitude":"47.787","longitude":"18.2884"},{"name":"Mlynany","latitude":"48.3327","longitude":"18.3518"},{"name":"Mocenok","latitude":"48.2272","longitude":"17.9267"},{"name":"Mochovce","latitude":"48.1857","longitude":"18.4796"},{"name":"Mojmirovce","latitude":"48.2074","longitude":"18.0658"},{"name":"Mojzesovo","latitude":"48.1333","longitude":"18.2333"},{"name":"Muzla","latitude":"47.7956","longitude":"18.6019"},{"name":"Nana","latitude":"47.8132","longitude":"18.7016"},{"name":"Nemcice","latitude":"48.558","longitude":"18.1225"},{"name":"Nesvady","latitude":"47.9282","longitude":"18.1268"},{"name":"Nitra","latitude":"48.4793","longitude":"17.612"},{"name":"Nitrianska Streda","latitude":"48.5218","longitude":"18.1763"},{"name":"Nitrianske Hrnciarovce","latitude":"48.2668","longitude":"18.2002"},{"name":"Norovce","latitude":"48.6311","longitude":"18.1812"},{"name":"Nova Straz","latitude":"47.7676","longitude":"18.0434"},{"name":"Nove Sady","latitude":"48.4871","longitude":"17.9839"},{"name":"Nové Zámky","latitude":"47.9829","longitude":"18.1731"},{"name":"Obyce","latitude":"48.4238","longitude":"18.459"},{"name":"Okolicna na Ostrove","latitude":"47.8029","longitude":"17.9182"},{"name":"Oponice","latitude":"48.467","longitude":"18.1494"},{"name":"Palarikovo","latitude":"48.0437","longitude":"18.072"},{"name":"Patince","latitude":"47.7389","longitude":"18.2896"},{"name":"Plastovce","latitude":"48.162","longitude":"18.9818"},{"name":"Pohranice","latitude":"48.331","longitude":"18.1791"},{"name":"Pohronsky Ruskov","latitude":"47.9736","longitude":"18.6563"},{"name":"Prasice","latitude":"48.6429","longitude":"18.1109"},{"name":"Pukanec","latitude":"48.3308","longitude":"18.7579"},{"name":"Radava","latitude":"48.0942","longitude":"18.3037"},{"name":"Radosina","latitude":"48.5459","longitude":"17.9385"},{"name":"Radvan nad Dunajom,Slovakia","latitude":"47.7442","longitude":"18.3667"},{"name":"Rajcany","latitude":"48.61","longitude":"18.2338"},{"name":"Risnovce","latitude":"48.3686","longitude":"17.8933"},{"name":"Sarovce","latitude":"48.1057","longitude":"18.6452"},{"name":"Selice","latitude":"48.0937","longitude":"17.9689"},{"name":"Semerovo","latitude":"48.0113","longitude":"18.3525"},{"name":"Skycov","latitude":"48.5003","longitude":"18.4163"},{"name":"Solcany","latitude":"48.538","longitude":"18.2026"},{"name":"Strekov","latitude":"47.9048","longitude":"18.4219"},{"name":"Surianky","latitude":"48.4219","longitude":"18.0231"},{"name":"Svaetoplukovo","latitude":"48.2313","longitude":"18.0597"},{"name":"Svodin","latitude":"47.9105","longitude":"18.4997"},{"name":"Tekovske Luzany","latitude":"48.0986","longitude":"18.5379"},{"name":"Tesedikovo","latitude":"48.1061","longitude":"17.8519"},{"name":"Tlmace","latitude":"48.2893","longitude":"18.5315"},{"name":"Topolcianky","latitude":"48.4162","longitude":"18.4128"},{"name":"Topoľčany","latitude":"48.5325","longitude":"18.1431"},{"name":"Travnica","latitude":"48.1421","longitude":"18.3368"},{"name":"Trnovec nad Vahom","latitude":"48.1472","longitude":"17.934"},{"name":"Tvrdosovce","latitude":"48.0945","longitude":"18.0669"},{"name":"Ulany nad Zitavou","latitude":"48.1059","longitude":"18.237"},{"name":"Urmince","latitude":"48.535","longitude":"18.0979"},{"name":"Velka Mana","latitude":"48.1557","longitude":"18.2891"},{"name":"Velke Kosihy","latitude":"47.7622","longitude":"17.8819"},{"name":"Velke Ludince","latitude":"47.9627","longitude":"18.5114"},{"name":"Velke Ripnany","latitude":"48.5029","longitude":"17.9787"},{"name":"Velke Zaluzie","latitude":"48.3084","longitude":"17.9387"},{"name":"Velky Cetin","latitude":"48.2204","longitude":"18.1854"},{"name":"Velky Kyr","latitude":"48.1825","longitude":"18.1573"},{"name":"Velky Lapas","latitude":"48.2896","longitude":"18.1831"},{"name":"Vlcany","latitude":"48.031","longitude":"17.9521"},{"name":"Vozokany nad Hronom","latitude":"48.0113","longitude":"18.6667"},{"name":"Vrable","latitude":"48.2437","longitude":"18.3085"},{"name":"Vycapy-Opatovce","latitude":"48.4115","longitude":"18.0822"},{"name":"Vyskovce nad Iplom","latitude":"48.055","longitude":"18.8633"},{"name":"Zbehy","latitude":"48.3656","longitude":"18.0181"},{"name":"Zbrojniky","latitude":"48.1169","longitude":"18.6996"},{"name":"Zeliezovce","latitude":"48.0508","longitude":"18.6542"},{"name":"Ziharec","latitude":"48.0761","longitude":"17.889"},{"name":"Zirany","latitude":"48.3745","longitude":"18.1713"},{"name":"Zlate Moravce","latitude":"48.3682","longitude":"18.3896"},{"name":"Zlatna na Ostrove","latitude":"47.7674","longitude":"17.9712"},{"name":"Šahy","latitude":"48.0741","longitude":"18.9495"},{"name":"Šaľa","latitude":"48.1719","longitude":"17.8643"},{"name":"Štúrovo","latitude":"47.7952","longitude":"18.7176"},{"name":"Šurany","latitude":"48.0857","longitude":"18.1823"}]},{"name":"Presov","code":"05","cities":[{"name":"Abranovce","latitude":"48.9318","longitude":"21.3453"},{"name":"Bajerov","latitude":"48.954","longitude":"21.1097"},{"name":"Bardejov","latitude":"49.2918","longitude":"21.2727"},{"name":"Batizovce","latitude":"49.0799","longitude":"20.1854"},{"name":"Bela nad Cirochou","latitude":"48.975","longitude":"22.1076"},{"name":"Belejovce","latitude":"49.3717","longitude":"21.5377"},{"name":"Bystre","latitude":"49.0113","longitude":"21.5429"},{"name":"Bzenov","latitude":"48.9485","longitude":"21.1725"},{"name":"Cernina","latitude":"49.296","longitude":"21.4761"},{"name":"Cerveny Klastor","latitude":"49.3932","longitude":"20.4083"},{"name":"Chmelov","latitude":"49.0687","longitude":"21.4377"},{"name":"Chminianska Nova Ves","latitude":"48.9992","longitude":"21.0822"},{"name":"Chotca","latitude":"49.2485","longitude":"21.68"},{"name":"Circ","latitude":"49.2787","longitude":"20.9242"},{"name":"Dlhe Klcovo","latitude":"48.808","longitude":"21.7356"},{"name":"Dlhe nad Cirochou","latitude":"48.9629","longitude":"22.0596"},{"name":"Drienov","latitude":"48.8732","longitude":"21.2738"},{"name":"Fintice","latitude":"49.0519","longitude":"21.2866"},{"name":"Gaboltov","latitude":"49.3668","longitude":"21.1406"},{"name":"Ganovce","latitude":"49.0287","longitude":"20.3222"},{"name":"Gerlachov","latitude":"49.025","longitude":"20.0792"},{"name":"Giraltovce","latitude":"49.114","longitude":"21.5173"},{"name":"Gregorovce","latitude":"49.0674","longitude":"21.2076"},{"name":"Habura","latitude":"49.3257","longitude":"21.8628"},{"name":"Haligovce","latitude":"49.3635","longitude":"20.4478"},{"name":"Hankovce","latitude":"49.2028","longitude":"21.3993"},{"name":"Hanusovce nad Toplou","latitude":"49.0269","longitude":"21.5041"},{"name":"Havaj","latitude":"49.2606","longitude":"21.7878"},{"name":"Hazlin","latitude":"49.3012","longitude":"21.4201"},{"name":"Hertnik","latitude":"49.2071","longitude":"21.2376"},{"name":"Hervartov","latitude":"49.2467","longitude":"21.2055"},{"name":"Hniezdne","latitude":"49.3026","longitude":"20.6329"},{"name":"Horka","latitude":"49.0167","longitude":"20.0333"},{"name":"Hrabovec","latitude":"49.2723","longitude":"21.379"},{"name":"Hranovnica","latitude":"48.9895","longitude":"20.309"},{"name":"Humenné","latitude":"48.9371","longitude":"21.9163"},{"name":"Huncovce","latitude":"49.1162","longitude":"20.3712"},{"name":"Jablonov","latitude":"49.0166","longitude":"20.7256"},{"name":"Jarabina","latitude":"49.3386","longitude":"20.6574"},{"name":"Jarovnice","latitude":"49.058","longitude":"21.0581"},{"name":"Kamenica nad Cirochou","latitude":"48.9205","longitude":"21.9775"},{"name":"Kapusany","latitude":"49.0434","longitude":"21.3309"},{"name":"Kendice","latitude":"48.878","longitude":"21.3397"},{"name":"Kežmarok","latitude":"49.1362","longitude":"20.4239"},{"name":"Klcov","latitude":"49.0039","longitude":"20.6681"},{"name":"Klusov","latitude":"49.2453","longitude":"21.2591"},{"name":"Kosarovce","latitude":"49.0439","longitude":"21.7846"},{"name":"Koskovce","latitude":"49.0473","longitude":"21.9547"},{"name":"Krucov","latitude":"49.1179","longitude":"21.6098"},{"name":"Kruzlov","latitude":"49.3095","longitude":"21.1399"},{"name":"Kruzlova","latitude":"49.368","longitude":"21.5795"},{"name":"Kukova","latitude":"49.112","longitude":"21.4595"},{"name":"Kurima","latitude":"49.2263","longitude":"21.4536"},{"name":"Lemesany","latitude":"48.8499","longitude":"21.2711"},{"name":"Lendak","latitude":"49.239","longitude":"20.3621"},{"name":"Levoča","latitude":"49.0217","longitude":"20.5921"},{"name":"Lipany","latitude":"49.1538","longitude":"20.9638"},{"name":"Lipniky","latitude":"49.0413","longitude":"21.4094"},{"name":"Lipovce","latitude":"49.0562","longitude":"20.9534"},{"name":"Liptovska Teplicka","latitude":"48.9664","longitude":"20.0888"},{"name":"Lubica","latitude":"49.1167","longitude":"20.45"},{"name":"Lubotice","latitude":"49.0116","longitude":"21.2737"},{"name":"Lubovec","latitude":"48.9123","longitude":"21.1747"},{"name":"Lucivna","latitude":"49.0515","longitude":"20.1424"},{"name":"Malcov","latitude":"49.3047","longitude":"21.0596"},{"name":"Maly Slavkov","latitude":"49.1402","longitude":"20.3873"},{"name":"Marhan","latitude":"49.1705","longitude":"21.4493"},{"name":"Medzilaborce","latitude":"49.2719","longitude":"21.9007"},{"name":"Mengusovce","latitude":"49.0701","longitude":"20.1432"},{"name":"Mirkovce","latitude":"48.8928","longitude":"21.3242"},{"name":"Mosurov","latitude":"49.1231","longitude":"21.2503"},{"name":"Nizne Ruzbachy","latitude":"49.283","longitude":"20.5801"},{"name":"Nizny Hrabovec","latitude":"48.8537","longitude":"21.7517"},{"name":"Nizny Hrusov","latitude":"48.8086","longitude":"21.7682"},{"name":"Nova Lesna","latitude":"49.1211","longitude":"20.2654"},{"name":"Nova lubovna","latitude":"49.2669","longitude":"20.6808"},{"name":"Ovcie","latitude":"48.9667","longitude":"20.9773"},{"name":"Pavlany","latitude":"49.0571","longitude":"20.7132"},{"name":"Pecovska Nova Ves","latitude":"49.1238","longitude":"21.0437"},{"name":"Petrova","latitude":"49.3875","longitude":"21.1197"},{"name":"Petrovany","latitude":"48.9174","longitude":"21.2605"},{"name":"Plavec","latitude":"49.2627","longitude":"20.8423"},{"name":"Plavnica","latitude":"49.2731","longitude":"20.7798"},{"name":"Podolinec","latitude":"49.2587","longitude":"20.536"},{"name":"Poprad","latitude":"49.0614","longitude":"20.298"},{"name":"Prešov","latitude":"49.0386","longitude":"21.3536"},{"name":"Proc","latitude":"49.0967","longitude":"21.3916"},{"name":"Sabinov","latitude":"49.1031","longitude":"21.0988"},{"name":"Sacurov","latitude":"48.8204","longitude":"21.694"},{"name":"Sarisske Jastrabie","latitude":"49.2429","longitude":"20.9089"},{"name":"Secovska Polianka","latitude":"48.7824","longitude":"21.6839"},{"name":"Sedlice","latitude":"48.9182","longitude":"21.1181"},{"name":"Siroke","latitude":"48.9979","longitude":"20.9407"},{"name":"Slovenska Kajna","latitude":"48.9685","longitude":"21.7059"},{"name":"Slovenska Ves","latitude":"49.2221","longitude":"20.4246"},{"name":"Snina","latitude":"48.9886","longitude":"22.151"},{"name":"Sol","latitude":"48.9299","longitude":"21.6037"},{"name":"Spisska Bela","latitude":"49.1872","longitude":"20.4595"},{"name":"Spisska Stara Ves","latitude":"49.383","longitude":"20.3596"},{"name":"Spisska Teplica","latitude":"49.046","longitude":"20.2487"},{"name":"Spisske Bystre","latitude":"48.9958","longitude":"20.2437"},{"name":"Spissky Stiavnik","latitude":"48.9957","longitude":"20.3579"},{"name":"Spissky Stvrtok","latitude":"49.0012","longitude":"20.4671"},{"name":"Spišské Podhradie","latitude":"49.0037","longitude":"20.7518"},{"name":"Stakcin","latitude":"49.0016","longitude":"22.2237"},{"name":"Stará Ľubovňa","latitude":"49.2986","longitude":"20.6862"},{"name":"Strba","latitude":"49.0888","longitude":"20.078"},{"name":"Strbske Pleso","latitude":"49.1182","longitude":"20.0613"},{"name":"Stropkov","latitude":"49.2021","longitude":"21.6522"},{"name":"Svabovce","latitude":"49.028","longitude":"20.3578"},{"name":"Svidník","latitude":"49.3082","longitude":"21.5703"},{"name":"Svinia","latitude":"49.0127","longitude":"21.1217"},{"name":"Svit","latitude":"49.0601","longitude":"20.2069"},{"name":"Terna","latitude":"49.1097","longitude":"21.2387"},{"name":"Tokajik","latitude":"49.1045","longitude":"21.7043"},{"name":"Topolovka","latitude":"48.9249","longitude":"21.8096"},{"name":"Toporec","latitude":"49.2653","longitude":"20.4982"},{"name":"Torysky","latitude":"49.0967","longitude":"20.6762"},{"name":"Tuhrina","latitude":"48.901","longitude":"21.4006"},{"name":"Turcovce","latitude":"49.059","longitude":"21.8462"},{"name":"Ubla","latitude":"48.8994","longitude":"22.3927"},{"name":"Udavske","latitude":"48.9716","longitude":"21.9648"},{"name":"Ulic","latitude":"48.9564","longitude":"22.4301"},{"name":"Uzovce","latitude":"49.0942","longitude":"21.1807"},{"name":"Vechec","latitude":"48.8729","longitude":"21.6301"},{"name":"Velka Frankova","latitude":"49.3368","longitude":"20.2936"},{"name":"Velky Saris","latitude":"49.0383","longitude":"21.1977"},{"name":"Velky Slavkov","latitude":"49.0937","longitude":"20.2884"},{"name":"Velopolie","latitude":"48.992","longitude":"21.9508"},{"name":"Vernar","latitude":"48.9152","longitude":"20.2754"},{"name":"Vikartovce","latitude":"48.9935","longitude":"20.1509"},{"name":"Vitaz","latitude":"48.9714","longitude":"20.9565"},{"name":"Vranov nad Topľou","latitude":"48.8864","longitude":"21.6752"},{"name":"Vrbov","latitude":"49.0876","longitude":"20.4253"},{"name":"Vysna Sunava","latitude":"49.0306","longitude":"20.0845"},{"name":"Vysne Raslavice","latitude":"49.1505","longitude":"21.3154"},{"name":"Vysne Ruzbachy","latitude":"49.3039","longitude":"20.5656"},{"name":"Vysny Hrusov","latitude":"48.9939","longitude":"22.0131"},{"name":"Vysny Orlik","latitude":"49.3443","longitude":"21.5004"},{"name":"Vysny Zipov","latitude":"48.9891","longitude":"21.5823"},{"name":"Vysoké Tatry","latitude":"49.1185","longitude":"20.1246"},{"name":"Zaborske","latitude":"48.9446","longitude":"21.2837"},{"name":"Zalobin","latitude":"48.9667","longitude":"21.7332"},{"name":"Zamutov","latitude":"48.898","longitude":"21.5544"},{"name":"Zborov","latitude":"49.3687","longitude":"21.308"},{"name":"Zdiar","latitude":"49.2672","longitude":"20.2615"},{"name":"lutina","latitude":"49.1677","longitude":"21.0546"}]},{"name":"Trencin","code":"06","cities":[{"name":"Banovce nad Bebravou","latitude":"48.7177","longitude":"18.2603"},{"name":"Beckov","latitude":"48.7559","longitude":"17.7094"},{"name":"Belusa","latitude":"49.1171","longitude":"18.2132"},{"name":"Bodina","latitude":"49.1171","longitude":"18.2132"},{"name":"Bojnice","latitude":"48.9348","longitude":"18.1463"},{"name":"Bolesov","latitude":"48.9348","longitude":"18.1463"},{"name":"Bosaca","latitude":"48.8511","longitude":"17.9228"},{"name":"Bosany","latitude":"48.5816","longitude":"18.2442"},{"name":"Brezova pod Bradlom","latitude":"48.6418","longitude":"17.4564"},{"name":"Brodzany","latitude":"48.4084","longitude":"18.1537"},{"name":"Brunovce","latitude":"48.7559","longitude":"17.7094"},{"name":"Brvniste","latitude":"49.1171","longitude":"18.2132"},{"name":"Bzince pod Javorinou","latitude":"48.7559","longitude":"17.7094"},{"name":"Cachtice","latitude":"48.7559","longitude":"17.7094"},{"name":"Castkovce","latitude":"48.7559","longitude":"17.7094"},{"name":"Cerveny Kamen","latitude":"49.0903","longitude":"18.1774"},{"name":"Chocholna - Velcice","latitude":"48.8511","longitude":"17.9228"},{"name":"Chynorany","latitude":"48.609","longitude":"18.21"},{"name":"Dohnany","latitude":"49.1953","longitude":"18.1521"},{"name":"Dolna Suca","latitude":"48.85","longitude":"17.9492"},{"name":"Domaniza","latitude":"49.1171","longitude":"18.2132"},{"name":"Drietoma","latitude":"48.8511","longitude":"17.9228"},{"name":"Dubnica nad Váhom","latitude":"48.962","longitude":"18.167"},{"name":"Dubodiel","latitude":"48.85","longitude":"17.9492"},{"name":"Handlova","latitude":"49.0354","longitude":"18.8934"},{"name":"Horna Streda","latitude":"48.7559","longitude":"17.7094"},{"name":"Hornany","latitude":"48.85","longitude":"17.9492"},{"name":"Horne Srnie","latitude":"48.992","longitude":"18.1006"},{"name":"Horne Vestenice","latitude":"49.0354","longitude":"18.8934"},{"name":"Horovce","latitude":"49.0452","longitude":"18.2639"},{"name":"Hradok","latitude":"48.7466","longitude":"17.53"},{"name":"Ilava","latitude":"49.2059","longitude":"18.6784"},{"name":"Ivanovce","latitude":"48.8511","longitude":"17.9228"},{"name":"Kanianka","latitude":"48.8123","longitude":"18.5856"},{"name":"Klacno","latitude":"48.9172","longitude":"18.6565"},{"name":"Klatova Nova Ves","latitude":"48.4084","longitude":"18.1537"},{"name":"Kliz","latitude":"48.4084","longitude":"18.1537"},{"name":"Kocovce","latitude":"48.764","longitude":"17.8836"},{"name":"Koseca","latitude":"49.1171","longitude":"18.2132"},{"name":"Krajne","latitude":"48.7559","longitude":"17.7094"},{"name":"Ladce","latitude":"49.1171","longitude":"18.2132"},{"name":"Lazy pod Makytou","latitude":"49.1953","longitude":"18.1521"},{"name":"Lednica","latitude":"49.1062","longitude":"18.2159"},{"name":"Lednicke Rovne","latitude":"49.0665","longitude":"18.2848"},{"name":"Lubina","latitude":"48.7559","longitude":"17.7094"},{"name":"Lysa pod Makytou","latitude":"49.1947","longitude":"18.1964"},{"name":"Male Uherce","latitude":"48.6197","longitude":"18.4032"},{"name":"Malinova","latitude":"48.8543","longitude":"18.6142"},{"name":"Melcice","latitude":"48.8511","longitude":"17.9228"},{"name":"Moravske Lieskove","latitude":"48.7559","longitude":"17.7094"},{"name":"Myjava","latitude":"48.7936","longitude":"17.5775"},{"name":"Nadlice","latitude":"48.61","longitude":"18.2338"},{"name":"Nedanovce","latitude":"48.5938","longitude":"18.2962"},{"name":"Nedasovce","latitude":"48.6657","longitude":"18.3119"},{"name":"Nedozery - Brezany","latitude":"49.0354","longitude":"18.8934"},{"name":"Nimnica","latitude":"49.1953","longitude":"18.1521"},{"name":"Nitrianske Pravno","latitude":"49.0354","longitude":"18.8934"},{"name":"Nitrianske Rudno","latitude":"49.0354","longitude":"18.8934"},{"name":"Nitrianske Sucany","latitude":"48.7323","longitude":"18.4634"},{"name":"Nová Dubnica","latitude":"48.9348","longitude":"18.1463"},{"name":"Nové Mesto nad Váhom","latitude":"48.7552","longitude":"17.8308"},{"name":"Opatovce","latitude":"48.8483","longitude":"17.9829"},{"name":"Papradno","latitude":"49.1171","longitude":"18.2132"},{"name":"Partizánske","latitude":"48.4084","longitude":"18.1537"},{"name":"Plevnik-Drienove","latitude":"49.1171","longitude":"18.2132"},{"name":"Pobedim","latitude":"48.7559","longitude":"17.7094"},{"name":"Podolie","latitude":"48.7559","longitude":"17.7094"},{"name":"Považská Bystrica","latitude":"49.2059","longitude":"18.6784"},{"name":"Pravenec","latitude":"48.8564","longitude":"18.6476"},{"name":"Precin","latitude":"49.1171","longitude":"18.2132"},{"name":"Prievidza","latitude":"49.0354","longitude":"18.8934"},{"name":"Pruske","latitude":"48.9348","longitude":"18.1463"},{"name":"Púchov","latitude":"49.1953","longitude":"18.1521"},{"name":"Raztocno","latitude":"48.7715","longitude":"18.7638"},{"name":"Rybany","latitude":"48.609","longitude":"18.21"},{"name":"Sebedrazie","latitude":"48.9348","longitude":"18.1463"},{"name":"Selec","latitude":"48.85","longitude":"17.9492"},{"name":"Sisov","latitude":"48.6549","longitude":"18.1768"},{"name":"Skalka nad Vahom","latitude":"48.9272","longitude":"18.0748"},{"name":"Slatina nad Bebravou","latitude":"48.8396","longitude":"18.2672"},{"name":"Slavnica","latitude":"48.9348","longitude":"18.1463"},{"name":"Soblahov","latitude":"48.85","longitude":"17.9492"},{"name":"Stara Tura","latitude":"48.7559","longitude":"17.7094"},{"name":"Stvrtok","latitude":"48.8511","longitude":"17.9228"},{"name":"Timoradza","latitude":"48.532","longitude":"18.0794"},{"name":"Trencianska Tepla","latitude":"48.932","longitude":"18.1209"},{"name":"Trencianska Turna","latitude":"48.85","longitude":"17.9492"},{"name":"Trencianske Jastrabie","latitude":"48.85","longitude":"17.9492"},{"name":"Trencianske Teplice","latitude":"48.9106","longitude":"18.1669"},{"name":"Trenčín","latitude":"48.8922","longitude":"18.0456"},{"name":"Tuchyna","latitude":"49.0414","longitude":"18.2179"},{"name":"Tuzina","latitude":"49.0354","longitude":"18.8934"},{"name":"Uhrovec","latitude":"48.532","longitude":"18.0794"},{"name":"Valaska Bela","latitude":"48.8894","longitude":"18.4008"},{"name":"Velke Bierovce","latitude":"48.8524","longitude":"17.983"},{"name":"Velke Uherce","latitude":"48.6068","longitude":"18.4405"},{"name":"Vydrna","latitude":"49.1953","longitude":"18.1521"},{"name":"Zabokreky nad Nitrou","latitude":"48.4084","longitude":"18.1537"},{"name":"Zariecie","latitude":"49.1953","longitude":"18.1521"},{"name":"Zlatniky","latitude":"48.609","longitude":"18.21"},{"name":"Zubak","latitude":"49.1953","longitude":"18.1521"}]},{"name":"Trnava","code":"07","cities":[{"name":"Bac","latitude":"48.0026","longitude":"17.3742"},{"name":"Baka","latitude":"47.9076","longitude":"17.5217"},{"name":"Balon","latitude":"47.8259","longitude":"17.6779"},{"name":"Banka","latitude":"48.5855","longitude":"17.8554"},{"name":"Biely Kostol","latitude":"48.3653","longitude":"17.5253"},{"name":"Blatna na Ostrove","latitude":"48.0084","longitude":"17.4426"},{"name":"Bohdanovce nad Trnavou","latitude":"48.4342","longitude":"17.5277"},{"name":"Bojnicky","latitude":"48.3901","longitude":"17.7978"},{"name":"Boleraz","latitude":"48.4681","longitude":"17.4948"},{"name":"Borovce","latitude":"48.5725","longitude":"17.7456"},{"name":"Borsky Mikulas","latitude":"48.6309","longitude":"17.2145"},{"name":"Borsky Svaety Jur","latitude":"48.6188","longitude":"17.0534"},{"name":"Brodske","latitude":"48.6909","longitude":"17.0145"},{"name":"Bucany","latitude":"48.4158","longitude":"17.6972"},{"name":"Cary","latitude":"48.6513","longitude":"17.0893"},{"name":"Cenkovce","latitude":"48.1062","longitude":"17.4301"},{"name":"Cervenik","latitude":"48.4594","longitude":"17.7569"},{"name":"Chropov","latitude":"48.7708","longitude":"17.3204"},{"name":"Chtelnica","latitude":"48.5673","longitude":"17.6264"},{"name":"Cierny Brod","latitude":"48.144","longitude":"17.6561"},{"name":"Cifer","latitude":"48.3175","longitude":"17.4899"},{"name":"Cilizska Radvan","latitude":"47.8355","longitude":"17.6968"},{"name":"Dechtice","latitude":"48.5469","longitude":"17.5967"},{"name":"Dobra Voda","latitude":"48.5941","longitude":"17.5398"},{"name":"Dobrohost","latitude":"47.9795","longitude":"17.3642"},{"name":"Dojc","latitude":"48.6775","longitude":"17.2543"},{"name":"Dolna Krupa","latitude":"48.4827","longitude":"17.5511"},{"name":"Dolna Streda","latitude":"48.2691","longitude":"17.7499"},{"name":"Dolne Dubove","latitude":"48.4889","longitude":"17.6104"},{"name":"Dolne Oresany","latitude":"48.4397","longitude":"17.4294"},{"name":"Dolne Saliby","latitude":"48.1072","longitude":"17.7817"},{"name":"Dolne Trhoviste","latitude":"48.443","longitude":"17.9042"},{"name":"Dolne Zelenice","latitude":"48.3747","longitude":"17.7517"},{"name":"Dolny Bar","latitude":"47.9689","longitude":"17.6908"},{"name":"Dolny Stal","latitude":"47.9333","longitude":"17.7167"},{"name":"Drahovce","latitude":"48.5159","longitude":"17.8029"},{"name":"Dubovany","latitude":"48.5321","longitude":"17.734"},{"name":"Dunajsky Klatov","latitude":"48.0321","longitude":"17.7012"},{"name":"Dunajská Streda","latitude":"47.9905","longitude":"17.6142"},{"name":"Dvorniky","latitude":"48.3514","longitude":"17.7926"},{"name":"Eliasovce","latitude":"48.123","longitude":"17.4671"},{"name":"Gabcikovo","latitude":"47.8921","longitude":"17.5788"},{"name":"Galanta","latitude":"48.3126","longitude":"17.7205"},{"name":"Gbely","latitude":"48.718","longitude":"17.1163"},{"name":"Hlohovec","latitude":"48.4312","longitude":"17.7804"},{"name":"Holic","latitude":"48.8111","longitude":"17.1624"},{"name":"Holice","latitude":"47.993","longitude":"17.4818"},{"name":"Horna Poton","latitude":"48.0414","longitude":"17.4938"},{"name":"Horne Oresany","latitude":"48.4674","longitude":"17.441"},{"name":"Horne Otrokovce","latitude":"48.4878","longitude":"17.8815"},{"name":"Horne Saliby","latitude":"48.1231","longitude":"17.7589"},{"name":"Horne Trhoviste","latitude":"48.4681","longitude":"17.8689"},{"name":"Horny Bar","latitude":"47.9483","longitude":"17.4627"},{"name":"Hrnciarovce nad Parnou","latitude":"48.4406","longitude":"17.6369"},{"name":"Hviezdoslavov","latitude":"48.0688","longitude":"17.3425"},{"name":"Jablonica","latitude":"48.6075","longitude":"17.4257"},{"name":"Jahodna","latitude":"48.053","longitude":"17.7074"},{"name":"Jaslovske Bohunice","latitude":"48.4755","longitude":"17.6474"},{"name":"Jelka","latitude":"48.1454","longitude":"17.5113"},{"name":"Jurova","latitude":"47.9336","longitude":"17.5228"},{"name":"Kajal","latitude":"48.1669","longitude":"17.8013"},{"name":"Katlovce","latitude":"48.5243","longitude":"17.6099"},{"name":"Katov","latitude":"48.8308","longitude":"17.1728"},{"name":"Kostolne Kracany","latitude":"47.9735","longitude":"17.5734"},{"name":"Krakovany","latitude":"48.612","longitude":"17.7523"},{"name":"Krizovany nad Dudvahom","latitude":"48.359","longitude":"17.6742"},{"name":"Kuklov","latitude":"48.637","longitude":"17.0743"},{"name":"Kuty","latitude":"48.66","longitude":"17.0282"},{"name":"Kvetoslavov","latitude":"48.0552","longitude":"17.3382"},{"name":"Laksarska Nova Ves","latitude":"48.5769","longitude":"17.1854"},{"name":"Lehnice","latitude":"48.0558","longitude":"17.4634"},{"name":"Leopoldov","latitude":"48.4457","longitude":"17.7646"},{"name":"Madunice","latitude":"48.4772","longitude":"17.7803"},{"name":"Majcichov","latitude":"48.2846","longitude":"17.6303"},{"name":"Male Dvorniky","latitude":"48.0189","longitude":"17.6455"},{"name":"Malzenice","latitude":"48.4501","longitude":"17.675"},{"name":"Matuskovo","latitude":"48.1684","longitude":"17.7318"},{"name":"Mocidlany","latitude":"48.7675","longitude":"17.283"},{"name":"Moravany nad Vahom","latitude":"48.6012","longitude":"17.8583"},{"name":"Mostova","latitude":"48.1433","longitude":"17.6796"},{"name":"Nizna","latitude":"48.5329","longitude":"17.6504"},{"name":"Ohrady","latitude":"47.9833","longitude":"17.7037"},{"name":"Okoc","latitude":"47.8904","longitude":"17.8151"},{"name":"Oldza","latitude":"48.0861","longitude":"17.4182"},{"name":"Opoj","latitude":"48.3021","longitude":"17.6438"},{"name":"Pastuchov","latitude":"48.4263","longitude":"17.8781"},{"name":"Pata","latitude":"48.2775","longitude":"17.823"},{"name":"Patas","latitude":"47.878","longitude":"17.6562"},{"name":"Pecenady","latitude":"48.4849","longitude":"17.7202"},{"name":"Petrova Ves","latitude":"48.7194","longitude":"17.1619"},{"name":"Piešťany","latitude":"48.5938","longitude":"17.8267"},{"name":"Prasnik","latitude":"48.6515","longitude":"17.6873"},{"name":"Prietrz","latitude":"48.6757","longitude":"17.4468"},{"name":"Prievaly","latitude":"48.5568","longitude":"17.3492"},{"name":"Radimov","latitude":"48.752","longitude":"17.1995"},{"name":"Radosovce","latitude":"48.5008","longitude":"17.6289"},{"name":"Rakovice","latitude":"48.5579","longitude":"17.739"},{"name":"Rohov","latitude":"48.7272","longitude":"17.3458"},{"name":"Ruzindol","latitude":"48.3718","longitude":"17.4911"},{"name":"Rybky","latitude":"48.7124","longitude":"17.335"},{"name":"Samorin","latitude":"48.0301","longitude":"17.3097"},{"name":"Sastin","latitude":"48.6362","longitude":"17.1502"},{"name":"Sastin-Straze","latitude":"48.6379","longitude":"17.1401"},{"name":"Selpice","latitude":"48.4342","longitude":"17.5277"},{"name":"Senica","latitude":"48.6792","longitude":"17.367"},{"name":"Sereg","latitude":"48.2915","longitude":"17.744"},{"name":"Sintava","latitude":"48.2827","longitude":"17.762"},{"name":"Skalica","latitude":"48.8396","longitude":"17.2266"},{"name":"Sladkovicovo","latitude":"48.2014","longitude":"17.6385"},{"name":"Smolenice","latitude":"48.5079","longitude":"17.4267"},{"name":"Smrdaky","latitude":"48.7217","longitude":"17.3085"},{"name":"Sobotiste","latitude":"48.7351","longitude":"17.4073"},{"name":"Sokolovce","latitude":"48.5356","longitude":"17.8436"},{"name":"Soporna","latitude":"48.2541","longitude":"17.8093"},{"name":"Spacince","latitude":"48.4402","longitude":"17.6074"},{"name":"Stefanov","latitude":"48.6793","longitude":"17.2039"},{"name":"Stvrtok na Ostrove","latitude":"48.0992","longitude":"17.3539"},{"name":"Sucha nad Parnou","latitude":"48.411","longitude":"17.487"},{"name":"Tomasikovo","latitude":"48.0879","longitude":"17.6937"},{"name":"Topolnica","latitude":"48.1728","longitude":"17.7945"},{"name":"Topolniky","latitude":"47.9675","longitude":"17.7902"},{"name":"Trakovice","latitude":"48.4393","longitude":"17.7116"},{"name":"Trebatice","latitude":"48.5965","longitude":"17.7515"},{"name":"Trhova Hradska","latitude":"47.99","longitude":"17.7611"},{"name":"Trnava","latitude":"48.3762","longitude":"17.5829"},{"name":"Trnavka","latitude":"48.0126","longitude":"17.4101"},{"name":"Trstice","latitude":"48.0079","longitude":"17.8112"},{"name":"Unin","latitude":"48.7284","longitude":"17.215"},{"name":"Vahovce","latitude":"48.2492","longitude":"17.7854"},{"name":"Velka Maca","latitude":"48.2415","longitude":"17.6899"},{"name":"Velka Paka","latitude":"48.0406","longitude":"17.4057"},{"name":"Velke Brestovany","latitude":"48.3866","longitude":"17.6932"},{"name":"Velke Kostolany","latitude":"48.5099","longitude":"17.7219"},{"name":"Velke Surovce","latitude":"48.3312","longitude":"17.7186"},{"name":"Velke Ulany","latitude":"48.1665","longitude":"17.5752"},{"name":"Velky Grob","latitude":"48.2492","longitude":"17.4972"},{"name":"Velky Meder","latitude":"47.858","longitude":"17.7688"},{"name":"Vesele","latitude":"48.548","longitude":"17.7315"},{"name":"Vlckovce","latitude":"48.317","longitude":"17.6497"},{"name":"Voderady","latitude":"48.277","longitude":"17.5594"},{"name":"Vrakun","latitude":"47.9429","longitude":"17.6011"},{"name":"Vrbové","latitude":"48.6197","longitude":"17.7226"},{"name":"Vydrany","latitude":"48.0181","longitude":"17.5944"},{"name":"Zavar","latitude":"48.3528","longitude":"17.6738"},{"name":"Zelenec","latitude":"48.329","longitude":"17.5954"},{"name":"Zemianske Sady","latitude":"48.33","longitude":"17.8199"}]},{"name":"Zilina","code":"08","cities":[{"name":"Benadovo","latitude":"49.4301","longitude":"19.3468"},{"name":"Benov","latitude":"49.1874","longitude":"18.4862"},{"name":"Blatnica","latitude":"48.9357","longitude":"18.9299"},{"name":"Bobrov","latitude":"49.4266","longitude":"19.5464"},{"name":"Bobrovec","latitude":"49.1211","longitude":"19.6141"},{"name":"Breza","latitude":"49.3876","longitude":"19.3844"},{"name":"Brezovica","latitude":"49.3386","longitude":"19.649"},{"name":"Bytča","latitude":"49.22","longitude":"18.5598"},{"name":"Cierne","latitude":"49.4936","longitude":"18.8195"},{"name":"Dlha nad Oravou","latitude":"49.2667","longitude":"19.45"},{"name":"Dlhe Pole","latitude":"49.3076","longitude":"18.6379"},{"name":"Dolna Tizina","latitude":"49.2207","longitude":"18.9181"},{"name":"Dolny Hricov","latitude":"49.2319","longitude":"18.6333"},{"name":"Dolný Kubín","latitude":"49.2098","longitude":"19.3034"},{"name":"Drazkovce","latitude":"49.0549","longitude":"18.9552"},{"name":"Gbelany","latitude":"49.2063","longitude":"18.8443"},{"name":"Gotovany","latitude":"49.0603","longitude":"19.5043"},{"name":"Habovka","latitude":"49.2733","longitude":"19.6035"},{"name":"Horna Stubna","latitude":"48.825","longitude":"18.8846"},{"name":"Horny Vadicov","latitude":"49.275","longitude":"18.8937"},{"name":"Hricovske Podhradie","latitude":"49.2222","longitude":"18.6226"},{"name":"Hrustin","latitude":"49.3239","longitude":"19.3469"},{"name":"Hvozdnica","latitude":"49.2097","longitude":"18.4881"},{"name":"Hybe","latitude":"49.0461","longitude":"19.8354"},{"name":"Kalameny","latitude":"49.1252","longitude":"19.4153"},{"name":"Kamenna Poruba","latitude":"49.0923","longitude":"18.6884"},{"name":"Klastor pod Znievom","latitude":"48.9762","longitude":"18.8026"},{"name":"Kolarovice","latitude":"49.2742","longitude":"18.5283"},{"name":"Krasno nad Kysucou","latitude":"49.3957","longitude":"18.8343"},{"name":"Kriva","latitude":"49.2869","longitude":"19.48"},{"name":"Krpelany","latitude":"49.125","longitude":"19.0936"},{"name":"Krusetnica","latitude":"49.3752","longitude":"19.3388"},{"name":"Kysucky Lieskovec","latitude":"49.3388","longitude":"18.8161"},{"name":"Kysucké Nové Mesto","latitude":"49.298","longitude":"18.7614"},{"name":"Lazany","latitude":"49.0354","longitude":"18.8934"},{"name":"Liesek","latitude":"49.3612","longitude":"19.6749"},{"name":"Lietava","latitude":"49.1732","longitude":"18.672"},{"name":"Likavka","latitude":"49.0926","longitude":"19.3116"},{"name":"Lipovec","latitude":"49.1289","longitude":"18.922"},{"name":"Liptovska Luzna","latitude":"48.941","longitude":"19.3238"},{"name":"Liptovska Osada","latitude":"48.9515","longitude":"19.2574"},{"name":"Liptovska Sielnica","latitude":"49.1431","longitude":"19.5142"},{"name":"Liptovska Stiavnica","latitude":"49.0526","longitude":"19.3536"},{"name":"Liptovska Tepla","latitude":"49.1025","longitude":"19.4097"},{"name":"Liptovske Revuce","latitude":"48.9179","longitude":"19.1824"},{"name":"Liptovske Sliace","latitude":"49.0648","longitude":"19.395"},{"name":"Liptovsky Hradok","latitude":"49.0418","longitude":"19.7184"},{"name":"Liptovsky Jan","latitude":"49.0456","longitude":"19.6827"},{"name":"Liptovsky Ondrej","latitude":"49.0943","longitude":"19.7169"},{"name":"Liptovský Mikuláš","latitude":"49.1204","longitude":"19.5471"},{"name":"Lokca","latitude":"49.3715","longitude":"19.4119"},{"name":"Lubochna","latitude":"49.1201","longitude":"19.1689"},{"name":"Ludrova","latitude":"49.0522","longitude":"19.3288"},{"name":"Lúčky","latitude":"49.1347","longitude":"19.4083"},{"name":"Makov","latitude":"49.37","longitude":"18.4847"},{"name":"Maluzina","latitude":"48.9774","longitude":"19.765"},{"name":"Maly Cepcin","latitude":"48.9056","longitude":"18.8412"},{"name":"Martin","latitude":"49.0643","longitude":"18.9274"},{"name":"Mojs","latitude":"49.1967","longitude":"18.8203"},{"name":"Mošovce","latitude":"48.9094","longitude":"18.8848"},{"name":"Nededza","latitude":"49.2216","longitude":"18.8356"},{"name":"Neslusa","latitude":"49.3177","longitude":"18.7415"},{"name":"Nizna","latitude":"49.3075","longitude":"19.5208"},{"name":"Nova Bystrica","latitude":"49.3431","longitude":"19.0197"},{"name":"Námestovo","latitude":"49.4368","longitude":"19.4925"},{"name":"Ochodnica","latitude":"49.3484","longitude":"18.7872"},{"name":"Olesna","latitude":"49.4236","longitude":"18.6779"},{"name":"Oravska Lesna","latitude":"49.3675","longitude":"19.1842"},{"name":"Oravska Polhora","latitude":"49.5272","longitude":"19.4407"},{"name":"Oravske Vesele","latitude":"49.466","longitude":"19.3834"},{"name":"Oravsky Podzamok","latitude":"49.2594","longitude":"19.3569"},{"name":"Oscadnica","latitude":"49.4357","longitude":"18.8819"},{"name":"Partizanska lupca","latitude":"49.0621","longitude":"19.4398"},{"name":"Petrovice","latitude":"49.2579","longitude":"18.5235"},{"name":"Podbiel","latitude":"49.3086","longitude":"19.4807"},{"name":"Podhorie","latitude":"49.1757","longitude":"18.6419"},{"name":"Podhradie","latitude":"49.0861","longitude":"19.0545"},{"name":"Poluvsie","latitude":"49.1345","longitude":"18.7119"},{"name":"Povina","latitude":"49.3122","longitude":"18.8053"},{"name":"Predmier","latitude":"49.1985","longitude":"18.5327"},{"name":"Pribovce","latitude":"49.001","longitude":"18.8829"},{"name":"Pribylina","latitude":"49.097","longitude":"19.8047"},{"name":"Rabca","latitude":"49.486","longitude":"19.4762"},{"name":"Rabcice","latitude":"49.5073","longitude":"19.5238"},{"name":"Radola","latitude":"49.293","longitude":"18.7866"},{"name":"Rajec","latitude":"49.089","longitude":"18.6401"},{"name":"Rajecke Teplice","latitude":"49.1277","longitude":"18.6829"},{"name":"Rakova","latitude":"49.4448","longitude":"18.7379"},{"name":"Rosina","latitude":"49.1833","longitude":"18.7667"},{"name":"Rudina","latitude":"49.2888","longitude":"18.7355"},{"name":"Ružomberok","latitude":"49.0729","longitude":"19.3036"},{"name":"Sihelne","latitude":"49.5082","longitude":"19.4115"},{"name":"Skalite","latitude":"49.4966","longitude":"18.8971"},{"name":"Sklabina","latitude":"49.0488","longitude":"19.002"},{"name":"Slovenske Pravno","latitude":"48.9094","longitude":"18.759"},{"name":"Smrecany","latitude":"49.1165","longitude":"19.6491"},{"name":"Sneznica","latitude":"49.2679","longitude":"18.7915"},{"name":"Stankovany","latitude":"49.1423","longitude":"19.1739"},{"name":"Staskov","latitude":"49.4195","longitude":"18.6813"},{"name":"Stiavnik","latitude":"49.2402","longitude":"18.4659"},{"name":"Strecno","latitude":"49.188","longitude":"18.8645"},{"name":"Sucany","latitude":"49.0999","longitude":"18.9907"},{"name":"Sucha Hora","latitude":"49.3663","longitude":"19.7899"},{"name":"Sulov","latitude":"49.1646","longitude":"18.5889"},{"name":"Svedernik","latitude":"49.2653","longitude":"18.6411"},{"name":"Svrcinovec","latitude":"49.4818","longitude":"18.7993"},{"name":"Teplicka nad Vahom","latitude":"49.227","longitude":"18.8008"},{"name":"Terchova","latitude":"49.2584","longitude":"19.0269"},{"name":"Trstena","latitude":"49.361","longitude":"19.6125"},{"name":"Turany","latitude":"49.1175","longitude":"19.0403"},{"name":"Turie","latitude":"49.1491","longitude":"18.7498"},{"name":"Turzovka","latitude":"49.4043","longitude":"18.6226"},{"name":"Turčianske Teplice","latitude":"48.8623","longitude":"18.8605"},{"name":"Tvrdosin","latitude":"49.337","longitude":"19.556"},{"name":"Valca","latitude":"49.0018","longitude":"18.845"},{"name":"Varin","latitude":"49.2023","longitude":"18.8707"},{"name":"Vazec","latitude":"49.0597","longitude":"19.9804"},{"name":"Velicna","latitude":"49.207","longitude":"19.2473"},{"name":"Velke Rovne","latitude":"49.2913","longitude":"18.5843"},{"name":"Vitanova","latitude":"49.3548","longitude":"19.7306"},{"name":"Vrutky","latitude":"49.1133","longitude":"18.9171"},{"name":"Vychodna","latitude":"49.0591","longitude":"19.8901"},{"name":"Vysoka nad Kysucou","latitude":"49.3785","longitude":"18.5441"},{"name":"Zakamenne","latitude":"49.3886","longitude":"19.2929"},{"name":"Zaskov","latitude":"49.1724","longitude":"19.2174"},{"name":"Zavazna Poruba","latitude":"49.054","longitude":"19.6491"},{"name":"Zazriva","latitude":"49.2748","longitude":"19.153"},{"name":"Zbynov","latitude":"49.1208","longitude":"18.6487"},{"name":"Zubrohlava","latitude":"49.4454","longitude":"19.5117"},{"name":"lubela","latitude":"49.0485","longitude":"19.4792"},{"name":"Čadca","latitude":"49.4546","longitude":"18.7986"},{"name":"Žilina","latitude":"49.2244","longitude":"18.739"}]}]}