{"name":"Sierra Leone","code":"SL","regions":[{"name":"Eastern Province","code":"01","cities":[{"name":"Boidu","latitude":"8.4167","longitude":"-10.8333"}]},{"name":"North West","code":"NW","cities":[{"name":"Port Loko","latitude":"8.7711","longitude":"-12.785"}]},{"name":"Northern Province","code":"02","cities":[{"name":"Lunsar","latitude":"8.6833","longitude":"-12.5333"}]},{"name":"Southern Province","code":"03","cities":[{"name":"Bonthe","latitude":"7.5264","longitude":"-12.505"}]},{"name":"Western Area","code":"04","cities":[{"name":"Freetown","latitude":"8.49","longitude":"-13.2342"}]}]}