{"name":"Turkey","code":"TR","regions":[{"name":"Adana","code":"81","cities":[{"name":"Adana","latitude":"36.95","longitude":"35.35"},{"name":"Aladag","latitude":"37.5849","longitude":"35.5308"},{"name":"Ayas","latitude":"36.7632","longitude":"35.7814"},{"name":"Ceyhan","latitude":"37.0247","longitude":"35.8175"},{"name":"Feke","latitude":"37.8151","longitude":"35.9092"},{"name":"Imamoglu","latitude":"37.2651","longitude":"35.6572"},{"name":"Karatas","latitude":"36.5636","longitude":"35.3821"},{"name":"Kozan","latitude":"37.4489","longitude":"35.8223"},{"name":"Saricam","latitude":"37.1483","longitude":"35.5051"},{"name":"Seyhan","latitude":"36.9875","longitude":"35.3059"},{"name":"Yuregir","latitude":"36.9681","longitude":"35.353"}]},{"name":"Adiyaman","code":"02","cities":[{"name":"Adıyaman","latitude":"37.7644","longitude":"38.2763"},{"name":"Golbasi","latitude":"37.7762","longitude":"37.6395"},{"name":"Kahta","latitude":"37.7855","longitude":"38.6237"},{"name":"Kozan","latitude":"37.9163","longitude":"38.3756"}]},{"name":"Afyonkarahisar","code":"03","cities":[{"name":"Afyonkarahisar","latitude":"38.8736","longitude":"30.6092"},{"name":"Iscehisar","latitude":"38.8619","longitude":"30.7503"},{"name":"Suhut","latitude":"38.5314","longitude":"30.5378"}]},{"name":"Aksaray","code":"75","cities":[{"name":"Aksaray","latitude":"38.3144","longitude":"33.9528"}]},{"name":"Amasya","code":"05","cities":[{"name":"Amasya","latitude":"40.6849","longitude":"35.8688"},{"name":"Merzifon","latitude":"40.8725","longitude":"35.4697"}]},{"name":"Ankara","code":"68","cities":[{"name":"Akyurt","latitude":"40.1368","longitude":"33.0869"},{"name":"Altindag","latitude":"39.966","longitude":"32.9247"},{"name":"Ankara","latitude":"39.9214","longitude":"32.8347"},{"name":"Cankaya","latitude":"39.8875","longitude":"32.8567"},{"name":"Cubuk","latitude":"40.2386","longitude":"33.0322"},{"name":"Etimesgut","latitude":"39.9533","longitude":"32.6328"},{"name":"Fethiye","latitude":"40.1283","longitude":"32.5572"},{"name":"Golbasi","latitude":"39.7904","longitude":"32.809"},{"name":"Kazan","latitude":"40.2314","longitude":"32.6846"},{"name":"Kecioeren","latitude":"40.0067","longitude":"32.8562"},{"name":"Kizilay","latitude":"39.9213","longitude":"32.8505"},{"name":"Kizilcahamam","latitude":"40.4705","longitude":"32.6555"},{"name":"Mamak","latitude":"39.9401","longitude":"32.9097"},{"name":"Nalligolcuk","latitude":"40.2635","longitude":"31.5382"},{"name":"Osmangazi","latitude":"40.016","longitude":"32.8657"},{"name":"Polatlı","latitude":"39.5772","longitude":"32.1413"},{"name":"Pursaklar","latitude":"40.0365","longitude":"32.8966"},{"name":"Sakarya","latitude":"39.5016","longitude":"32.0795"},{"name":"Sereflikochisar","latitude":"38.9438","longitude":"33.5471"},{"name":"Sincan","latitude":"39.9724","longitude":"32.5856"},{"name":"Yenimahalle","latitude":"39.9779","longitude":"32.8015"}]},{"name":"Antalya","code":"07","cities":[{"name":"Alanya","latitude":"36.5437","longitude":"31.9998"},{"name":"Antalya","latitude":"36.9094","longitude":"30.6947"},{"name":"Dosemealti","latitude":"37.0239","longitude":"30.6042"},{"name":"Finike","latitude":"36.2982","longitude":"30.1408"},{"name":"Genclik","latitude":"36.8752","longitude":"30.7072"},{"name":"Kas","latitude":"36.2028","longitude":"29.6328"},{"name":"Kemerkoy","latitude":"36.3587","longitude":"29.7109"},{"name":"Kepez","latitude":"36.9136","longitude":"31.6161"},{"name":"Konyaalti","latitude":"36.8664","longitude":"30.6303"},{"name":"Kumluca","latitude":"36.3707","longitude":"30.2864"},{"name":"Manavgat","latitude":"36.7887","longitude":"31.4462"},{"name":"Muratpasa","latitude":"36.894","longitude":"30.7071"},{"name":"Serik","latitude":"36.9169","longitude":"31.0989"},{"name":"Side","latitude":"36.7633","longitude":"31.3917"}]},{"name":"Ardahan","code":"86","cities":[{"name":"Ardahan","latitude":"41.1087","longitude":"42.7022"},{"name":"Posof","latitude":"41.5111","longitude":"42.7292"}]},{"name":"Artvin","code":"08","cities":[{"name":"Arhavi","latitude":"41.3549","longitude":"41.3023"},{"name":"Artvin","latitude":"41.1816","longitude":"41.8217"},{"name":"Murgul","latitude":"41.2744","longitude":"41.5661"}]},{"name":"Aydın","code":"09","cities":[{"name":"Aydin","latitude":"37.8453","longitude":"27.8375"},{"name":"Buharkent","latitude":"37.9405","longitude":"28.6206"},{"name":"Cine","latitude":"37.6117","longitude":"28.0614"},{"name":"Didim","latitude":"37.385","longitude":"27.2564"},{"name":"Germencik","latitude":"37.8685","longitude":"27.5991"},{"name":"Karabaglar","latitude":"37.5669","longitude":"28.585"},{"name":"Kosk","latitude":"37.8533","longitude":"28.0517"},{"name":"Kusadasi","latitude":"37.8556","longitude":"27.2566"},{"name":"Nazilli","latitude":"37.9163","longitude":"28.3222"},{"name":"Soeke","latitude":"37.7482","longitude":"27.4061"},{"name":"Sultanhisar","latitude":"37.8901","longitude":"28.1587"},{"name":"Yenipazar","latitude":"37.8265","longitude":"28.2006"}]},{"name":"Ağrı","code":"04","cities":[{"name":"Ağrı","latitude":"39.678","longitude":"43.2028"},{"name":"Canik","latitude":"39.0","longitude":"42.7167"},{"name":"Sarikoy","latitude":"39.8625","longitude":"42.4407"}]},{"name":"Balıkesir","code":"10","cities":[{"name":"Aivali","latitude":"39.319","longitude":"26.6954"},{"name":"Balıkesir","latitude":"39.6443","longitude":"27.8116"},{"name":"Bigadic","latitude":"39.389","longitude":"28.1321"},{"name":"Burhaniye","latitude":"39.5002","longitude":"26.9689"},{"name":"Edremit","latitude":"39.5883","longitude":"27.0271"},{"name":"Erdek","latitude":"40.3996","longitude":"27.7882"},{"name":"Gonen","latitude":"40.1028","longitude":"27.6593"},{"name":"Kocaeli","latitude":"39.6259","longitude":"27.558"},{"name":"Marmara","latitude":"40.5824","longitude":"27.556"},{"name":"Panderma","latitude":"40.3522","longitude":"27.9767"},{"name":"Susurluk","latitude":"39.9136","longitude":"28.1578"}]},{"name":"Bartın","code":"87","cities":[{"name":"Bartin","latitude":"41.5855","longitude":"32.3381"},{"name":"Kurucasile","latitude":"41.8378","longitude":"32.7162"}]},{"name":"Batman","code":"76","cities":[{"name":"Batman","latitude":"37.8541","longitude":"41.1831"},{"name":"Kayapinar","latitude":"37.5536","longitude":"41.163"}]},{"name":"Bayburt","code":"77","cities":[{"name":"Bayburt","latitude":"40.2589","longitude":"40.2278"},{"name":"Bayrampasa","latitude":"40.1729","longitude":"39.8222"},{"name":"Igdir","latitude":"40.2","longitude":"40.6955"},{"name":"Sancaktepe","latitude":"40.2","longitude":"40.1167"}]},{"name":"Bilecik","code":"11","cities":[{"name":"Bilecik","latitude":"40.1419","longitude":"29.9793"},{"name":"Bozuyuk","latitude":"39.9078","longitude":"30.0367"}]},{"name":"Bingöl","code":"12","cities":[{"name":"Bingol","latitude":"38.8881","longitude":"40.4954"},{"name":"Kasaba","latitude":"39.3136","longitude":"40.3503"},{"name":"Solhan","latitude":"38.9634","longitude":"41.0293"}]},{"name":"Bitlis","code":"13","cities":[{"name":"Adilcevaz","latitude":"38.8039","longitude":"42.7342"},{"name":"Ahlat","latitude":"38.7465","longitude":"42.4858"},{"name":"Bitlis","latitude":"38.5333","longitude":"42.2333"},{"name":"Tatvan","latitude":"38.5088","longitude":"42.2781"}]},{"name":"Bolu","code":"14","cities":[{"name":"Bolu","latitude":"40.801","longitude":"31.6052"},{"name":"Goynuk","latitude":"40.3418","longitude":"30.8471"},{"name":"Tepebasi","latitude":"40.3606","longitude":"30.8119"}]},{"name":"Burdur","code":"15","cities":[{"name":"Burdur","latitude":"37.3968","longitude":"30.2267"}]},{"name":"Bursa","code":"16","cities":[{"name":"Bursa","latitude":"40.2623","longitude":"28.698"},{"name":"Karacabey","latitude":"40.216","longitude":"28.3642"},{"name":"Mustafakemalpasa","latitude":"40.0368","longitude":"28.4132"},{"name":"Nilufer","latitude":"40.2833","longitude":"28.95"},{"name":"Orhangazi","latitude":"40.4863","longitude":"29.3056"},{"name":"Yaman","latitude":"40.3333","longitude":"28.7167"},{"name":"Yenişehir","latitude":"40.2663","longitude":"29.6605"},{"name":"Yildirim","latitude":"40.3289","longitude":"29.5632"},{"name":"İnegöl","latitude":"40.0763","longitude":"29.5176"}]},{"name":"Canakkale","code":"17","cities":[{"name":"Biga","latitude":"40.2281","longitude":"27.2422"},{"name":"Merkez","latitude":"40.1332","longitude":"26.4205"},{"name":"Çanakkale","latitude":"40.4367","longitude":"26.6154"}]},{"name":"Denizli","code":"20","cities":[{"name":"Chonai","latitude":"37.7573","longitude":"29.27"},{"name":"Civril","latitude":"38.306","longitude":"29.7431"},{"name":"Denizli","latitude":"37.8468","longitude":"29.0848"},{"name":"Pamukkale","latitude":"37.9158","longitude":"29.1202"}]},{"name":"Diyarbakir","code":"21","cities":[{"name":"Diyarbakır","latitude":"37.9995","longitude":"40.0008"},{"name":"Ergani","latitude":"38.2711","longitude":"39.7552"},{"name":"Hani","latitude":"38.4171","longitude":"40.3976"},{"name":"Kayapinar","latitude":"37.9422","longitude":"40.1931"},{"name":"Miepherkeim","latitude":"38.1425","longitude":"41.0091"}]},{"name":"Duezce","code":"93","cities":[{"name":"Duezce","latitude":"40.8367","longitude":"31.161"}]},{"name":"Edirne","code":"22","cities":[{"name":"Edirne","latitude":"41.6718","longitude":"26.5828"},{"name":"Meric","latitude":"41.1935","longitude":"26.4257"},{"name":"Zorlanae","latitude":"40.855","longitude":"26.6307"}]},{"name":"Elazığ","code":"23","cities":[{"name":"Acibadem","latitude":"38.4511","longitude":"39.5522"},{"name":"Elâzığ","latitude":"38.6178","longitude":"39.2692"}]},{"name":"Erzincan","code":"24","cities":[{"name":"Bugdayli","latitude":"39.7598","longitude":"39.564"},{"name":"Erzincan","latitude":"39.7522","longitude":"39.4928"},{"name":"Kemah","latitude":"39.5302","longitude":"38.8931"}]},{"name":"Erzurum","code":"25","cities":[{"name":"Aziziye","latitude":"39.8073","longitude":"41.3779"},{"name":"Erzurum","latitude":"40.0886","longitude":"41.3617"},{"name":"Horasan","latitude":"40.006","longitude":"42.087"},{"name":"Yakutiye","latitude":"39.8982","longitude":"41.2692"}]},{"name":"Eskişehir","code":"26","cities":[{"name":"Eskişehir","latitude":"39.8383","longitude":"30.55"},{"name":"Mesudiye","latitude":"39.5358","longitude":"30.9378"},{"name":"Odunpazari","latitude":"39.7732","longitude":"30.5365"}]},{"name":"Gaziantep","code":"83","cities":[{"name":"Gaziantep","latitude":"36.9867","longitude":"37.2621"},{"name":"Islahiye","latitude":"37.023","longitude":"36.623"},{"name":"Nizip","latitude":"37.0102","longitude":"37.7965"},{"name":"Sahinbey","latitude":"36.8997","longitude":"37.3564"},{"name":"Sehitkamil","latitude":"37.0846","longitude":"37.3567"}]},{"name":"Giresun","code":"28","cities":[{"name":"Burunucu","latitude":"40.9388","longitude":"38.2938"},{"name":"Espiye","latitude":"40.9518","longitude":"38.7113"},{"name":"Giresun","latitude":"40.844","longitude":"38.4181"},{"name":"Görele","latitude":"41.0308","longitude":"39.0031"},{"name":"Piraziz","latitude":"40.9333","longitude":"38.1333"}]},{"name":"Guemueshane","code":"69","cities":[{"name":"Gümüşhane","latitude":"40.4303","longitude":"39.5861"},{"name":"Kose","latitude":"40.21","longitude":"39.6511"}]},{"name":"Hakkâri","code":"70","cities":[{"name":"Baglar","latitude":"37.2881","longitude":"44.5164"},{"name":"Hakkari","latitude":"37.5744","longitude":"43.7408"}]},{"name":"Hatay","code":"31","cities":[{"name":"Antakya","latitude":"36.2834","longitude":"36.2412"},{"name":"Arsuz","latitude":"36.4131","longitude":"35.8903"},{"name":"Belen","latitude":"36.4926","longitude":"36.2208"},{"name":"Doertyol","latitude":"36.8616","longitude":"36.2288"},{"name":"Erdemli","latitude":"36.6222","longitude":"36.4778"},{"name":"Hassa","latitude":"36.7994","longitude":"36.5178"},{"name":"Kirikhan","latitude":"36.4994","longitude":"36.3576"},{"name":"Payas","latitude":"36.7555","longitude":"36.2134"},{"name":"Reyhanli","latitude":"36.2692","longitude":"36.5672"},{"name":"Samandag","latitude":"36.0875","longitude":"35.9681"},{"name":"İskenderun","latitude":"36.5872","longitude":"36.1735"}]},{"name":"Isparta","code":"33","cities":[{"name":"Isparta","latitude":"37.7648","longitude":"30.5571"}]},{"name":"Istanbul","code":"34","cities":[{"name":"Adalar","latitude":"40.8653","longitude":"29.1374"},{"name":"Agva","latitude":"41.1134","longitude":"29.9068"},{"name":"Atasehir","latitude":"40.9833","longitude":"29.1167"},{"name":"Avcilar","latitude":"40.988","longitude":"28.7203"},{"name":"Bagcilar","latitude":"41.0336","longitude":"28.8685"},{"name":"Bakirkoey","latitude":"40.9875","longitude":"28.8617"},{"name":"Basak","latitude":"41.3299","longitude":"28.4387"},{"name":"Basaksehir","latitude":"41.0909","longitude":"28.8028"},{"name":"Bayrampasa","latitude":"41.0182","longitude":"28.9372"},{"name":"Besiktas","latitude":"41.05","longitude":"29.0167"},{"name":"Beykoz","latitude":"41.1439","longitude":"29.0906"},{"name":"Beylikduzu","latitude":"40.982","longitude":"28.6399"},{"name":"Beyoğlu","latitude":"41.0328","longitude":"28.9724"},{"name":"Bostanci","latitude":"40.9514","longitude":"29.0931"},{"name":"Bueyuekcekmece","latitude":"41.0156","longitude":"28.56"},{"name":"Catalca","latitude":"41.1428","longitude":"28.4679"},{"name":"Cekmekoey","latitude":"41.0332","longitude":"29.1729"},{"name":"Esenler","latitude":"41.05","longitude":"28.85"},{"name":"Esenyurt","latitude":"41.0321","longitude":"28.6805"},{"name":"Fatih","latitude":"41.0225","longitude":"28.9408"},{"name":"Florya","latitude":"40.9786","longitude":"28.7922"},{"name":"Gayrettepe","latitude":"41.0649","longitude":"29.0053"},{"name":"Gungoren","latitude":"41.0198","longitude":"28.8954"},{"name":"Harbiye","latitude":"41.0454","longitude":"28.9923"},{"name":"Ihlas Marmara Evleri - I. Kisim","latitude":"40.9781","longitude":"28.6845"},{"name":"Istanbul","latitude":"41.0087","longitude":"29.0173"},{"name":"Kagithane","latitude":"41.0794","longitude":"28.9647"},{"name":"Kartal","latitude":"40.9022","longitude":"29.188"},{"name":"Kucukcekmece","latitude":"40.9973","longitude":"28.7823"},{"name":"Kucukyali","latitude":"40.946","longitude":"29.1002"},{"name":"Maltepe","latitude":"40.9357","longitude":"29.1551"},{"name":"Pasabahce","latitude":"41.1124","longitude":"29.0965"},{"name":"Pendik","latitude":"40.8775","longitude":"29.2725"},{"name":"Sariyer","latitude":"41.1667","longitude":"29.05"},{"name":"Siliviri","latitude":"41.0739","longitude":"28.2464"},{"name":"Sisli","latitude":"41.0605","longitude":"28.9872"},{"name":"Skutari","latitude":"41.025","longitude":"29.0328"},{"name":"Sultanbeyli","latitude":"40.9656","longitude":"29.27"},{"name":"Sultangazi","latitude":"41.1065","longitude":"28.8685"},{"name":"Taksim","latitude":"41.0371","longitude":"28.9866"},{"name":"Topkapi","latitude":"41.018","longitude":"28.93"},{"name":"Turkoba","latitude":"41.0356","longitude":"28.5178"},{"name":"Tuzla","latitude":"40.8285","longitude":"29.3096"},{"name":"Umraniye","latitude":"41.0167","longitude":"29.0833"},{"name":"Yesilkoy","latitude":"40.9631","longitude":"28.8213"},{"name":"Zeytinburnu","latitude":"40.9833","longitude":"28.9"}]},{"name":"Izmir","code":"35","cities":[{"name":"Aliaga","latitude":"38.7998","longitude":"26.972"},{"name":"Bayrakli","latitude":"38.46","longitude":"27.16"},{"name":"Bergama","latitude":"39.1207","longitude":"27.1857"},{"name":"Bornova","latitude":"38.4694","longitude":"27.211"},{"name":"Buca","latitude":"38.3841","longitude":"27.1696"},{"name":"Cesme","latitude":"38.3221","longitude":"26.3014"},{"name":"Cigli","latitude":"38.5065","longitude":"27.0552"},{"name":"Cordaleo","latitude":"38.45","longitude":"27.1154"},{"name":"Denizli","latitude":"38.3667","longitude":"26.75"},{"name":"Dikili","latitude":"39.071","longitude":"26.8902"},{"name":"Ergene","latitude":"38.4678","longitude":"27.2189"},{"name":"Gaziemir","latitude":"38.3239","longitude":"27.1292"},{"name":"Guzelbahce","latitude":"38.364","longitude":"26.8882"},{"name":"Izmir","latitude":"38.4925","longitude":"27.1357"},{"name":"Karabaglar","latitude":"38.3722","longitude":"27.1361"},{"name":"Kemalpasa","latitude":"38.4225","longitude":"27.4194"},{"name":"Kinik","latitude":"39.0872","longitude":"27.3833"},{"name":"Kiraz","latitude":"38.2306","longitude":"28.2044"},{"name":"Konak","latitude":"38.4045","longitude":"27.0926"},{"name":"Menderes","latitude":"38.249","longitude":"27.1369"},{"name":"Merkez","latitude":"38.4165","longitude":"27.2074"},{"name":"Narlidere","latitude":"38.3975","longitude":"27.0185"},{"name":"OEdemis","latitude":"38.2244","longitude":"27.9366"},{"name":"Tire","latitude":"37.9833","longitude":"27.7667"},{"name":"Torbali","latitude":"38.1509","longitude":"27.3558"},{"name":"Urla","latitude":"38.3288","longitude":"26.7691"},{"name":"Yamanlar","latitude":"38.5426","longitude":"27.1327"}]},{"name":"Iğdır","code":"88","cities":[{"name":"Iğdır","latitude":"39.9237","longitude":"44.045"}]},{"name":"Kahramanmaraş","code":"46","cities":[{"name":"Afsin","latitude":"38.2532","longitude":"36.9138"},{"name":"Elbistan","latitude":"38.2059","longitude":"37.1983"},{"name":"Goksun","latitude":"38.0233","longitude":"36.4966"},{"name":"Kahramanmaraş","latitude":"37.5892","longitude":"36.9181"}]},{"name":"Karabuek","code":"89","cities":[{"name":"Karabük","latitude":"41.2141","longitude":"32.6906"},{"name":"Safranbolu","latitude":"41.2508","longitude":"32.6942"}]},{"name":"Karaman","code":"78","cities":[{"name":"Ayranci","latitude":"37.3613","longitude":"33.6883"},{"name":"Karaman","latitude":"37.1811","longitude":"33.215"},{"name":"Kazimkarabekir","latitude":"37.2303","longitude":"32.9589"}]},{"name":"Kars","code":"84","cities":[{"name":"Kars","latitude":"40.602","longitude":"43.0949"}]},{"name":"Kastamonu","code":"37","cities":[{"name":"Catalzeytin","latitude":"41.9531","longitude":"34.2163"},{"name":"Kastamonu","latitude":"41.4801","longitude":"33.6876"},{"name":"Taskopru","latitude":"41.5135","longitude":"34.2134"},{"name":"Tosya","latitude":"41.0149","longitude":"34.0349"}]},{"name":"Kayseri","code":"38","cities":[{"name":"Develi","latitude":"38.3936","longitude":"35.4942"},{"name":"Kayseri","latitude":"38.8763","longitude":"35.3759"},{"name":"Kocasinan","latitude":"38.7715","longitude":"35.5725"},{"name":"Melikgazi","latitude":"38.7259","longitude":"36.2124"}]},{"name":"Kilis","code":"90","cities":[{"name":"Kilis","latitude":"36.7161","longitude":"37.115"}]},{"name":"Kocaeli","code":"41","cities":[{"name":"Darica","latitude":"40.7797","longitude":"29.3945"},{"name":"Derince","latitude":"40.758","longitude":"29.8175"},{"name":"Gebze","latitude":"40.7992","longitude":"29.4305"},{"name":"Goelcuek","latitude":"40.7245","longitude":"29.8307"},{"name":"Karamursel","latitude":"40.6914","longitude":"29.6157"},{"name":"Kartepe","latitude":"40.7494","longitude":"30.0271"},{"name":"Korfez","latitude":"40.7738","longitude":"29.7265"},{"name":"Kosekoy","latitude":"40.7692","longitude":"29.957"},{"name":"Ortakoy","latitude":"41.0215","longitude":"29.8942"},{"name":"İzmit","latitude":"40.7018","longitude":"29.9991"}]},{"name":"Konya","code":"71","cities":[{"name":"Akcayazi","latitude":"37.6998","longitude":"33.2555"},{"name":"Huyuk","latitude":"37.9539","longitude":"31.5964"},{"name":"Karatay","latitude":"37.8712","longitude":"32.5284"},{"name":"Konya","latitude":"37.6797","longitude":"32.3383"},{"name":"Kulu","latitude":"39.0955","longitude":"33.08"},{"name":"Meram","latitude":"37.8265","longitude":"32.4692"},{"name":"Selcuklu","latitude":"37.8842","longitude":"32.4922"}]},{"name":"Kütahya","code":"43","cities":[{"name":"Hisarcik","latitude":"39.2506","longitude":"29.2312"},{"name":"Kütahya","latitude":"39.4242","longitude":"29.9833"},{"name":"Simav","latitude":"39.0878","longitude":"28.9689"},{"name":"Tavsanli","latitude":"39.5424","longitude":"29.4987"}]},{"name":"Kırklareli","code":"39","cities":[{"name":"Avcilar","latitude":"41.8954","longitude":"27.8546"},{"name":"Babaeski","latitude":"41.4306","longitude":"27.0977"},{"name":"Boztas","latitude":"41.8667","longitude":"27.7"},{"name":"Kırklareli","latitude":"41.9238","longitude":"27.438"},{"name":"Lüleburgaz","latitude":"41.4038","longitude":"27.3592"}]},{"name":"Kırıkkale","code":"79","cities":[{"name":"Kirikkale","latitude":"39.8785","longitude":"33.3585"}]},{"name":"Kırşehir","code":"40","cities":[{"name":"Kırşehir","latitude":"39.1458","longitude":"34.1639"}]},{"name":"Malatya","code":"44","cities":[{"name":"Battalgazi","latitude":"38.4247","longitude":"38.3662"},{"name":"Malatya","latitude":"38.3046","longitude":"38.2409"},{"name":"Yesilyurt","latitude":"38.2972","longitude":"38.2497"}]},{"name":"Manisa","code":"45","cities":[{"name":"Cukurova","latitude":"38.4513","longitude":"28.2035"},{"name":"Magnesia ad Sipylum","latitude":"38.5267","longitude":"27.785"},{"name":"Salihli","latitude":"38.4808","longitude":"28.1476"},{"name":"Sarigol","latitude":"38.2408","longitude":"28.6919"},{"name":"Saruhanli","latitude":"38.7342","longitude":"27.5673"},{"name":"Soma","latitude":"39.184","longitude":"27.61"},{"name":"Turgutlu","latitude":"38.4997","longitude":"27.696"}]},{"name":"Mardin","code":"72","cities":[{"name":"Kiziltepe","latitude":"37.1932","longitude":"40.588"},{"name":"Mardin","latitude":"37.2281","longitude":"40.6114"},{"name":"Midyat","latitude":"37.4281","longitude":"41.3387"},{"name":"Nisibis","latitude":"37.0778","longitude":"41.2178"}]},{"name":"Mersin","code":"32","cities":[{"name":"Akdeniz","latitude":"36.4598","longitude":"34.1411"},{"name":"Erdemli","latitude":"36.605","longitude":"34.3084"},{"name":"Igdir","latitude":"36.8998","longitude":"34.6351"},{"name":"Merkez","latitude":"36.4779","longitude":"34.149"},{"name":"Mersin","latitude":"36.8755","longitude":"34.6212"},{"name":"Mezitli","latitude":"36.75","longitude":"34.4833"},{"name":"Silifke","latitude":"36.3786","longitude":"33.9353"},{"name":"Tarsus","latitude":"36.9188","longitude":"34.8784"}]},{"name":"Muğla","code":"48","cities":[{"name":"Bodrum","latitude":"37.0383","longitude":"27.4292"},{"name":"Dalaman","latitude":"36.7585","longitude":"28.7984"},{"name":"Fethiye","latitude":"36.6256","longitude":"29.1154"},{"name":"Marmaris","latitude":"36.855","longitude":"28.2742"},{"name":"Milas","latitude":"37.3175","longitude":"27.7897"},{"name":"Mugla","latitude":"37.0554","longitude":"28.3218"},{"name":"Narli","latitude":"36.9942","longitude":"29.0341"},{"name":"Yatagan","latitude":"37.3399","longitude":"28.1345"}]},{"name":"Muş","code":"49","cities":[{"name":"Muş","latitude":"38.771","longitude":"41.5918"}]},{"name":"Nevsehir","code":"50","cities":[{"name":"Avanos","latitude":"38.715","longitude":"34.8467"},{"name":"Derinkuyu","latitude":"38.3698","longitude":"34.733"},{"name":"Nevşehir","latitude":"38.6532","longitude":"34.7201"},{"name":"Ortahisar","latitude":"38.6329","longitude":"34.8528"}]},{"name":"Nigde","code":"73","cities":[{"name":"Bor","latitude":"37.8906","longitude":"34.5589"},{"name":"Niğde","latitude":"38.0272","longitude":"34.7672"}]},{"name":"Ordu","code":"52","cities":[{"name":"Altinordu","latitude":"40.9825","longitude":"37.8784"},{"name":"Fatsa","latitude":"41.0278","longitude":"37.5014"},{"name":"Korgan","latitude":"40.827","longitude":"37.3509"},{"name":"Kumru","latitude":"40.8744","longitude":"37.2639"},{"name":"Ordu","latitude":"41.0074","longitude":"37.4812"},{"name":"UEnye","latitude":"41.1322","longitude":"37.2878"}]},{"name":"Osmaniye","code":"91","cities":[{"name":"Osmaniye","latitude":"37.0742","longitude":"36.2478"}]},{"name":"Rize","code":"53","cities":[{"name":"Ardeşen","latitude":"41.1949","longitude":"40.9884"},{"name":"Cayeli","latitude":"41.0944","longitude":"40.7255"},{"name":"Derepazari","latitude":"41.024","longitude":"40.4233"},{"name":"Findikli","latitude":"41.2709","longitude":"41.1352"},{"name":"Pazar","latitude":"41.1832","longitude":"40.8834"},{"name":"Rize","latitude":"41.0208","longitude":"40.5219"}]},{"name":"Sakarya","code":"54","cities":[{"name":"Adapazarı","latitude":"40.8406","longitude":"30.4289"},{"name":"Erenler","latitude":"40.7525","longitude":"30.4044"},{"name":"Ferizli","latitude":"40.9378","longitude":"30.4819"},{"name":"Geyve","latitude":"40.5075","longitude":"30.2925"},{"name":"Kaynarca","latitude":"41.0343","longitude":"30.3078"},{"name":"Serdivan","latitude":"40.762","longitude":"30.356"}]},{"name":"Samsun","code":"55","cities":[{"name":"Akalan","latitude":"41.2748","longitude":"35.7197"},{"name":"Alacam","latitude":"41.0908","longitude":"35.9133"},{"name":"Bafra","latitude":"41.5724","longitude":"35.9121"},{"name":"Girne","latitude":"41.65","longitude":"36.05"},{"name":"Kavak","latitude":"41.0817","longitude":"36.0397"},{"name":"Samsun","latitude":"41.15","longitude":"36.3833"},{"name":"Terme","latitude":"41.2096","longitude":"36.9763"},{"name":"Vezirkopru","latitude":"41.1397","longitude":"35.4508"},{"name":"Yakakent","latitude":"41.5667","longitude":"35.6553"},{"name":"Çarşamba","latitude":"41.1989","longitude":"36.7219"}]},{"name":"Siirt","code":"74","cities":[{"name":"Kurtalan","latitude":"37.9273","longitude":"41.6977"},{"name":"Siirt","latitude":"37.9326","longitude":"41.9402"}]},{"name":"Sinop","code":"57","cities":[{"name":"Sinop","latitude":"42.0268","longitude":"35.1625"}]},{"name":"Sivas","code":"58","cities":[{"name":"Cayiroba","latitude":"39.2087","longitude":"37.045"},{"name":"Duzce","latitude":"39.15","longitude":"37.65"},{"name":"Sarkisla","latitude":"39.3482","longitude":"36.4092"},{"name":"Sivas","latitude":"39.5942","longitude":"36.9065"},{"name":"Suşehri","latitude":"40.1598","longitude":"38.0897"},{"name":"Tokus","latitude":"39.9186","longitude":"37.097"},{"name":"Ulas","latitude":"39.4464","longitude":"37.0348"}]},{"name":"Tekirdağ","code":"59","cities":[{"name":"Kapakli","latitude":"41.3291","longitude":"27.9806"},{"name":"Kocaali","latitude":"40.6483","longitude":"26.9947"},{"name":"Malkara","latitude":"40.8881","longitude":"26.9058"},{"name":"Saray","latitude":"41.4431","longitude":"27.9274"},{"name":"Tekirdağ","latitude":"41.0494","longitude":"27.3014"},{"name":"Çerkezköy","latitude":"41.2888","longitude":"27.9959"},{"name":"Çorlu","latitude":"41.1592","longitude":"27.8"}]},{"name":"Tokat","code":"60","cities":[{"name":"Erbaa","latitude":"40.6629","longitude":"36.5748"},{"name":"Niksar","latitude":"40.5956","longitude":"36.9503"},{"name":"Tokat Province","latitude":"40.3908","longitude":"36.6117"},{"name":"Turhal","latitude":"40.3856","longitude":"36.0764"},{"name":"Zile","latitude":"40.3026","longitude":"35.8952"}]},{"name":"Trabzon","code":"61","cities":[{"name":"Sürmene","latitude":"40.9152","longitude":"40.118"},{"name":"Trabzon","latitude":"40.9867","longitude":"39.7559"}]},{"name":"Tunceli","code":"62","cities":[{"name":"Tunceli","latitude":"39.1083","longitude":"39.5471"}]},{"name":"Uşak","code":"64","cities":[{"name":"Karaagac","latitude":"38.65","longitude":"29.3333"},{"name":"Uşak","latitude":"38.65","longitude":"29.3333"}]},{"name":"Van","code":"65","cities":[{"name":"Ercis","latitude":"39.0286","longitude":"43.3664"},{"name":"Van","latitude":"38.4924","longitude":"43.3831"}]},{"name":"Yalova","code":"92","cities":[{"name":"Yalova","latitude":"40.612","longitude":"29.3385"}]},{"name":"Yozgat","code":"66","cities":[{"name":"Akdagmadeni","latitude":"39.6534","longitude":"35.8807"},{"name":"Yozgat","latitude":"39.8215","longitude":"34.8148"}]},{"name":"Zonguldak","code":"85","cities":[{"name":"Alapli","latitude":"41.1664","longitude":"31.3755"},{"name":"Bender Eregli","latitude":"41.2826","longitude":"31.4181"},{"name":"Zonguldak","latitude":"41.3539","longitude":"31.696"}]},{"name":"Çankırı","code":"82","cities":[{"name":"Cerkes","latitude":"40.8116","longitude":"32.8936"},{"name":"Çankırı","latitude":"40.4437","longitude":"33.8535"}]},{"name":"Çorum","code":"19","cities":[{"name":"Seydimcakalli","latitude":"40.5063","longitude":"34.6924"},{"name":"Çorum","latitude":"40.7107","longitude":"34.8735"}]},{"name":"Şanlıurfa","code":"63","cities":[{"name":"Akcakale","latitude":"36.7127","longitude":"39.0985"},{"name":"Karakopru","latitude":"37.2062","longitude":"38.8019"},{"name":"Kayseri","latitude":"37.7333","longitude":"39.2"},{"name":"Sanliurfa","latitude":"37.188","longitude":"38.947"},{"name":"Siverek","latitude":"37.7557","longitude":"39.3121"},{"name":"Viranşehir","latitude":"37.2353","longitude":"39.7631"}]},{"name":"Şırnak","code":"80","cities":[{"name":"Andac","latitude":"37.359","longitude":"43.2655"},{"name":"Cizre","latitude":"37.3302","longitude":"42.1848"},{"name":"Silopi","latitude":"37.2441","longitude":"42.4636"},{"name":"Sirnak","latitude":"37.5228","longitude":"42.4594"},{"name":"Uludere","latitude":"37.445","longitude":"42.8617"}]}]}