{"name":"Uzbekistan","code":"UZ","regions":[{"name":"Andijan","code":"01","cities":[{"name":"Andijan","latitude":"40.7859","longitude":"72.346"}]},{"name":"Fergana","code":"03","cities":[{"name":"Fergana","latitude":"40.3895","longitude":"71.7831"},{"name":"Margilan","latitude":"40.4691","longitude":"71.7156"}]},{"name":"Jizzakh Province","code":"04","cities":[{"name":"Jizzakh","latitude":"40.1173","longitude":"67.8483"},{"name":"Namingan","latitude":"39.9419","longitude":"68.7294"}]},{"name":"Karakalpakstan","code":"09","cities":[{"name":"Nukus","latitude":"42.453","longitude":"59.6015"},{"name":"Yangiovul","latitude":"41.8612","longitude":"61.4778"}]},{"name":"Namangan","code":"06","cities":[{"name":"Chust","latitude":"40.8839","longitude":"71.2431"}]},{"name":"Navoiy Province","code":"07","cities":[{"name":"Navoiy","latitude":"40.0844","longitude":"65.3792"}]},{"name":"Qashqadaryo","code":"08","cities":[{"name":"Denov","latitude":"38.8445","longitude":"65.4799"}]},{"name":"Samarqand Viloyati","code":"10","cities":[{"name":"Samarkand","latitude":"39.6542","longitude":"66.9597"}]},{"name":"Sirdaryo","code":"11","cities":[{"name":"Guliston","latitude":"40.4906","longitude":"68.791"}]},{"name":"Surxondaryo Viloyati","code":"12","cities":[{"name":"Boysun","latitude":"38.2063","longitude":"67.1966"}]},{"name":"Toshkent Shahri","code":"13","cities":[{"name":"Tashkent","latitude":"41.3171","longitude":"69.2494"}]},{"name":"Toshkent Viloyati","code":"14","cities":[{"name":"Amir Timur","latitude":"41.0194","longitude":"68.9408"},{"name":"Angren","latitude":"41.0163","longitude":"70.141"}]},{"name":"Xorazm Viloyati","code":"05","cities":[{"name":"Gurlan","latitude":"41.8447","longitude":"60.3919"},{"name":"Khiva","latitude":"41.3783","longitude":"60.3639"},{"name":"Urgench","latitude":"41.55","longitude":"60.6333"}]}]}