{"name":"Saint Vincent and the Grenadines","code":"VC","regions":[{"name":"Grenadines","code":"06","cities":[{"name":"Port Elizabeth","latitude":"13.0167","longitude":"-61.2333"}]},{"name":"Parish of Charlotte","code":"01","cities":[{"name":"Georgetown","latitude":"13.2667","longitude":"-61.1167"}]},{"name":"Parish of Saint Andrew","code":"02","cities":[{"name":"Questelles","latitude":"13.1667","longitude":"-61.2333"}]},{"name":"Parish of Saint David","code":"03","cities":[{"name":"Chateaubelair","latitude":"13.2833","longitude":"-61.25"}]},{"name":"Parish of Saint George","code":"04","cities":[{"name":"Kingstown","latitude":"13.1333","longitude":"-61.2167"}]},{"name":"Parish of Saint Patrick","code":"05","cities":[{"name":"Rutland Vale","latitude":"13.2","longitude":"-61.2833"}]}]}