{"name":"Venezuela","code":"VE","regions":[{"name":"Amazonas","code":"01","cities":[{"name":"Guapachana","latitude":"3.884","longitude":"-67.041"},{"name":"Puerto Ayacucho","latitude":"5.6639","longitude":"-67.6236"}]},{"name":"Anzoátegui","code":"02","cities":[{"name":"Agua Dulce","latitude":"9.3776","longitude":"-64.781"},{"name":"Altagracia","latitude":"8.5647","longitude":"-64.0661"},{"name":"Anaco","latitude":"9.4375","longitude":"-64.4731"},{"name":"Barcelona","latitude":"10.1333","longitude":"-64.7"},{"name":"Bergantin","latitude":"10.0178","longitude":"-64.3682"},{"name":"Cantaura","latitude":"9.3106","longitude":"-64.3594"},{"name":"Clarines","latitude":"9.9363","longitude":"-65.1688"},{"name":"El Chaparro","latitude":"10.2333","longitude":"-64.5417"},{"name":"El Tigre","latitude":"8.8871","longitude":"-64.248"},{"name":"Lecherias","latitude":"10.2","longitude":"-64.7"},{"name":"Pariaguan","latitude":"8.8505","longitude":"-64.7127"},{"name":"Puerto Cruz","latitude":"10.2178","longitude":"-64.6128"},{"name":"Puerto Piritu","latitude":"10.0692","longitude":"-65.053"},{"name":"San Jose de Guanipa","latitude":"8.8933","longitude":"-64.1592"},{"name":"San Tome","latitude":"8.1333","longitude":"-64.9417"}]},{"name":"Apure","code":"03","cities":[{"name":"Achaguas","latitude":"7.7634","longitude":"-68.2324"},{"name":"Arichuna","latitude":"7.7172","longitude":"-67.1147"},{"name":"Guasdualito","latitude":"7.2472","longitude":"-70.7294"},{"name":"San Fernando de Apure","latitude":"7.8994","longitude":"-67.4658"}]},{"name":"Aragua","code":"04","cities":[{"name":"Aliviadero","latitude":"10.8833","longitude":"-67.0833"},{"name":"Antunez","latitude":"9.9167","longitude":"-67.1333"},{"name":"Aponte","latitude":"10.4089","longitude":"-67.7639"},{"name":"Barbacoas","latitude":"9.483","longitude":"-66.9818"},{"name":"Barrio Campo Alegre","latitude":"10.2242","longitude":"-67.6014"},{"name":"Barrio El Carmen","latitude":"10.2448","longitude":"-67.5973"},{"name":"Cagua","latitude":"10.1892","longitude":"-67.4451"},{"name":"Cambural de Cataure","latitude":"9.9833","longitude":"-66.7667"},{"name":"Colonia Tovar","latitude":"10.42","longitude":"-67.2837"},{"name":"El Consejo","latitude":"10.2333","longitude":"-67.2667"},{"name":"La Victoria","latitude":"10.235","longitude":"-67.3312"},{"name":"Las Tejerias","latitude":"10.25","longitude":"-67.1667"},{"name":"Maracay","latitude":"10.2494","longitude":"-67.5945"},{"name":"Palo Negro","latitude":"10.1727","longitude":"-67.5401"},{"name":"San Mateo","latitude":"10.2167","longitude":"-67.4167"},{"name":"Santa Cruz","latitude":"10.1828","longitude":"-67.5094"},{"name":"Tucupido","latitude":"10.0794","longitude":"-67.6553"},{"name":"Turmero","latitude":"10.2282","longitude":"-67.4847"},{"name":"Villa de Cura","latitude":"10.0333","longitude":"-67.4833"}]},{"name":"Barinas","code":"05","cities":[{"name":"Agua","latitude":"8.7372","longitude":"-70.3394"},{"name":"Agua Colorada","latitude":"8.3092","longitude":"-70.7492"},{"name":"Barinas","latitude":"8.6292","longitude":"-70.2072"},{"name":"Barinitas","latitude":"8.7631","longitude":"-70.4142"}]},{"name":"Bolívar","code":"06","cities":[{"name":"Agua Salada","latitude":"7.2","longitude":"-62.05"},{"name":"Caicara del Orinoco","latitude":"7.6482","longitude":"-66.1688"},{"name":"Campamento Rio Grande","latitude":"8.05","longitude":"-61.6333"},{"name":"Ciudad Bolívar","latitude":"8.1192","longitude":"-63.5521"},{"name":"Ciudad Guayana","latitude":"8.352","longitude":"-62.6491"},{"name":"Ciudad Piar","latitude":"7.4473","longitude":"-63.3137"},{"name":"Puerto Ordaz and San Felix","latitude":"8.2981","longitude":"-62.7186"},{"name":"San Félix","latitude":"8.367","longitude":"-62.6618"},{"name":"Upata","latitude":"8.0083","longitude":"-62.4029"}]},{"name":"Carabobo","code":"07","cities":[{"name":"Agua Blanca","latitude":"10.0369","longitude":"-67.8461"},{"name":"Agua Linda","latitude":"9.9539","longitude":"-68.1478"},{"name":"Aguirre","latitude":"10.2436","longitude":"-68.2658"},{"name":"Alpargaton","latitude":"10.4644","longitude":"-68.2553"},{"name":"Altamira","latitude":"10.0061","longitude":"-67.7803"},{"name":"Antonio Jose de Sucre","latitude":"10.4619","longitude":"-68.0049"},{"name":"Bejuma","latitude":"10.1775","longitude":"-68.2567"},{"name":"Campo de Carabobo","latitude":"10.0167","longitude":"-68.1569"},{"name":"El Vigia","latitude":"10.1507","longitude":"-67.9005"},{"name":"Guacara","latitude":"10.2297","longitude":"-67.8739"},{"name":"Libertador","latitude":"10.1726","longitude":"-67.9935"},{"name":"Los Guayos","latitude":"10.1916","longitude":"-67.9369"},{"name":"Mariara","latitude":"10.3012","longitude":"-67.7133"},{"name":"Miranda","latitude":"10.1593","longitude":"-68.3922"},{"name":"Montalban","latitude":"10.2141","longitude":"-68.322"},{"name":"Moron","latitude":"10.4863","longitude":"-68.2021"},{"name":"Naguanagua","latitude":"10.2646","longitude":"-68.0121"},{"name":"Puerto Cabello","latitude":"10.4731","longitude":"-68.0125"},{"name":"San Diego","latitude":"10.2648","longitude":"-67.9517"},{"name":"Tocuyito","latitude":"10.1032","longitude":"-68.0852"},{"name":"Valencia","latitude":"10.179","longitude":"-67.9991"}]},{"name":"Cojedes","code":"08","cities":[{"name":"Alto de Rincon","latitude":"9.4833","longitude":"-68.1833"},{"name":"Cojedes","latitude":"9.6167","longitude":"-68.9167"},{"name":"San Carlos","latitude":"9.6644","longitude":"-68.6"},{"name":"Tinaco","latitude":"9.7031","longitude":"-68.4303"},{"name":"Tinaquillo","latitude":"9.9186","longitude":"-68.3047"}]},{"name":"Delta Amacuro","code":"09","cities":[{"name":"Araguaimujo","latitude":"8.72","longitude":"-61.558"},{"name":"Caño Mánamo","latitude":"9.4344","longitude":"-62.4067"},{"name":"Tucupita","latitude":"9.0686","longitude":"-62.0492"}]},{"name":"Dependencias Federales","code":"24","cities":[{"name":"Los Roques","latitude":"11.9529","longitude":"-66.668"},{"name":"Punta de Garambeo","latitude":"10.8833","longitude":"-65.3"}]},{"name":"Distrito Federal","code":"25","cities":[{"name":"Caracas","latitude":"10.5048","longitude":"-66.9208"},{"name":"Propatria","latitude":"10.5083","longitude":"-66.9583"}]},{"name":"Estado Trujillo","code":"21","cities":[{"name":"Agua Clara","latitude":"9.2731","longitude":"-70.6342"},{"name":"Altamira","latitude":"9.1583","longitude":"-70.3644"},{"name":"Arenosa","latitude":"9.5679","longitude":"-70.4681"},{"name":"Betijoque","latitude":"9.3786","longitude":"-70.7317"},{"name":"Boconó","latitude":"9.2467","longitude":"-70.2678"},{"name":"Chimpire","latitude":"9.3803","longitude":"-70.5623"},{"name":"El Corozo","latitude":"9.1653","longitude":"-70.5913"},{"name":"Trujillo","latitude":"9.3667","longitude":"-70.4333"},{"name":"Valera","latitude":"9.3178","longitude":"-70.6036"}]},{"name":"Falcón","code":"11","cities":[{"name":"Acurigua","latitude":"11.3089","longitude":"-69.4528"},{"name":"Agua Salada","latitude":"10.7719","longitude":"-69.5667"},{"name":"Andarreal","latitude":"10.9622","longitude":"-70.7167"},{"name":"Barrio Colombia","latitude":"11.4522","longitude":"-69.5533"},{"name":"Barro Negro","latitude":"10.8514","longitude":"-70.8512"},{"name":"Blanquillo","latitude":"10.9833","longitude":"-68.3667"},{"name":"Carrizalito","latitude":"11.1417","longitude":"-69.7513"},{"name":"Coro","latitude":"11.4092","longitude":"-69.6672"},{"name":"La Cienaga","latitude":"11.1583","longitude":"-70.6017"},{"name":"Punto Fijo","latitude":"11.6997","longitude":"-70.1992"},{"name":"San Antonio","latitude":"10.6194","longitude":"-70.75"},{"name":"Tucacas","latitude":"10.7978","longitude":"-68.3175"}]},{"name":"Guárico","code":"12","cities":[{"name":"Altagracia de Orituco","latitude":"9.8622","longitude":"-66.3806"},{"name":"Bailon","latitude":"9.869","longitude":"-67.8018"},{"name":"Barrio Bicentenario","latitude":"9.9092","longitude":"-67.3439"},{"name":"Calabozo","latitude":"8.9344","longitude":"-67.4267"},{"name":"Camaguan","latitude":"8.1089","longitude":"-67.6043"},{"name":"Ortiz","latitude":"9.6184","longitude":"-67.2813"},{"name":"San Juan","latitude":"8.7494","longitude":"-66.4614"},{"name":"San Juan de los Morros","latitude":"9.9111","longitude":"-67.3583"},{"name":"Valle de La Pascua","latitude":"9.2167","longitude":"-66.0"}]},{"name":"Lara","code":"13","cities":[{"name":"Agua Colorada","latitude":"10.2444","longitude":"-69.1394"},{"name":"Agua Turbia","latitude":"9.6339","longitude":"-69.8833"},{"name":"Agua Viva","latitude":"10.025","longitude":"-69.2872"},{"name":"Altagracia","latitude":"10.3361","longitude":"-70.1978"},{"name":"Arenales","latitude":"10.153","longitude":"-69.8957"},{"name":"Arenilla","latitude":"10.5878","longitude":"-69.3378"},{"name":"Barquisimeto","latitude":"10.0726","longitude":"-69.3207"},{"name":"Cabudare","latitude":"10.0271","longitude":"-69.0896"},{"name":"Cambural","latitude":"10.3417","longitude":"-69.1199"},{"name":"Carora","latitude":"10.1778","longitude":"-70.0806"},{"name":"Cruz Verde","latitude":"10.2889","longitude":"-70.3644"},{"name":"El Alto","latitude":"10.1017","longitude":"-69.6989"},{"name":"El Tocuyo","latitude":"9.7861","longitude":"-69.7894"},{"name":"Quíbor","latitude":"9.9307","longitude":"-69.6174"},{"name":"Sanare","latitude":"9.7456","longitude":"-69.6517"}]},{"name":"Miranda","code":"15","cities":[{"name":"Agua Caliente","latitude":"10.1667","longitude":"-67.0667"},{"name":"Agua Fria","latitude":"10.3286","longitude":"-66.8875"},{"name":"Altamira","latitude":"10.5111","longitude":"-66.85"},{"name":"Araguita","latitude":"10.1286","longitude":"-66.9006"},{"name":"Aricagua","latitude":"10.58","longitude":"-66.23"},{"name":"Bachaquero","latitude":"10.2617","longitude":"-66.6889"},{"name":"Barlovento","latitude":"10.4304","longitude":"-66.7641"},{"name":"Barrialito","latitude":"10.1053","longitude":"-66.8133"},{"name":"Baruta","latitude":"10.4333","longitude":"-66.8833"},{"name":"Birongo","latitude":"10.4811","longitude":"-66.2394"},{"name":"Carrizal","latitude":"10.35","longitude":"-66.9833"},{"name":"Caucagua","latitude":"10.2859","longitude":"-66.3758"},{"name":"Chacao","latitude":"10.4979","longitude":"-66.8519"},{"name":"Charallave","latitude":"10.2501","longitude":"-66.8563"},{"name":"Cua","latitude":"10.162","longitude":"-66.8915"},{"name":"El Conde","latitude":"10.1547","longitude":"-66.8968"},{"name":"El Limon","latitude":"10.0311","longitude":"-66.6186"},{"name":"Guarenas","latitude":"10.4667","longitude":"-66.6167"},{"name":"Guatire","latitude":"10.4667","longitude":"-66.5333"},{"name":"Higuerote","latitude":"10.4819","longitude":"-66.1041"},{"name":"La Urbina","latitude":"10.2264","longitude":"-66.0744"},{"name":"Los Teques","latitude":"10.35","longitude":"-67.0333"},{"name":"Ocumare","latitude":"10.1217","longitude":"-66.7717"},{"name":"Petare","latitude":"10.4833","longitude":"-66.8167"},{"name":"Punto Fijo","latitude":"10.4645","longitude":"-66.7471"},{"name":"San Antonio","latitude":"10.0696","longitude":"-66.4828"},{"name":"San Antonio de Los Altos","latitude":"10.3668","longitude":"-66.931"},{"name":"San Francisco","latitude":"10.2444","longitude":"-66.4028"},{"name":"Santa Cruz","latitude":"10.1667","longitude":"-65.8"},{"name":"Santa Lucia","latitude":"10.0583","longitude":"-65.6422"},{"name":"Santa Teresa del Tuy","latitude":"10.2314","longitude":"-66.6636"}]},{"name":"Monagas","code":"16","cities":[{"name":"Alto Amundarai","latitude":"10.0236","longitude":"-63.8704"},{"name":"Alto de Los Godos","latitude":"9.7269","longitude":"-63.2142"},{"name":"Aparicio","latitude":"10.0146","longitude":"-63.569"},{"name":"Aragua","latitude":"9.9695","longitude":"-63.4908"},{"name":"Barrio Obrero","latitude":"9.6867","longitude":"-63.6144"},{"name":"Bejucal","latitude":"10.075","longitude":"-63.6833"},{"name":"Bolivar","latitude":"10.1806","longitude":"-63.5611"},{"name":"Caicara","latitude":"9.8186","longitude":"-63.6153"},{"name":"Caripito","latitude":"10.1207","longitude":"-63.0995"},{"name":"El Silencio","latitude":"9.1639","longitude":"-63.8289"},{"name":"Maturín","latitude":"9.75","longitude":"-63.1767"},{"name":"Punta de Mata","latitude":"9.6981","longitude":"-63.6089"}]},{"name":"Mérida","code":"14","cities":[{"name":"Agua Caliente","latitude":"8.235","longitude":"-71.6764"},{"name":"Buena Vista","latitude":"8.1969","longitude":"-71.8256"},{"name":"Campo Alegre","latitude":"8.1033","longitude":"-71.6267"},{"name":"Cano Raya","latitude":"8.8383","longitude":"-71.5317"},{"name":"Ejido","latitude":"8.5497","longitude":"-71.2411"},{"name":"El Cacique","latitude":"8.3646","longitude":"-71.6844"},{"name":"El Vigía","latitude":"8.6219","longitude":"-71.6514"},{"name":"Guayana","latitude":"9.1511","longitude":"-71.0937"},{"name":"Mérida","latitude":"8.5983","longitude":"-71.145"}]},{"name":"Nueva Esparta","code":"17","cities":[{"name":"Altagracia","latitude":"11.0962","longitude":"-63.9404"},{"name":"Apostadero","latitude":"11.0153","longitude":"-63.8106"},{"name":"Bolivar","latitude":"11.05","longitude":"-63.9333"},{"name":"El Pilar","latitude":"10.9833","longitude":"-63.8333"},{"name":"Juan Griego","latitude":"11.0792","longitude":"-63.9622"},{"name":"La Asunción","latitude":"11.0322","longitude":"-63.8657"},{"name":"La Fuente","latitude":"11.0667","longitude":"-63.85"},{"name":"Pampatar","latitude":"10.9965","longitude":"-63.7979"},{"name":"Porlamar","latitude":"10.95","longitude":"-63.85"},{"name":"Punta Arenas","latitude":"10.9667","longitude":"-64.4"},{"name":"San Juan Bautista","latitude":"11.0135","longitude":"-63.9523"},{"name":"Tacarigua","latitude":"11.05","longitude":"-63.9167"}]},{"name":"Portuguesa","code":"18","cities":[{"name":"Acarigua","latitude":"9.5597","longitude":"-69.2019"},{"name":"Aparicion","latitude":"8.9167","longitude":"-69.7667"},{"name":"Araure","latitude":"9.5667","longitude":"-69.2167"},{"name":"Ave Maria","latitude":"8.8724","longitude":"-69.834"},{"name":"Barrio Ajuro","latitude":"9.6111","longitude":"-69.3308"},{"name":"Cordoba","latitude":"9.3333","longitude":"-69.85"},{"name":"El Playon","latitude":"9.1029","longitude":"-69.0339"},{"name":"Guanare","latitude":"9.05","longitude":"-69.75"},{"name":"Mesa de Cavacas","latitude":"9.0833","longitude":"-69.8333"},{"name":"Paraiso de Chabasquen","latitude":"9.4334","longitude":"-69.9482"},{"name":"San Rafael de Onoto","latitude":"9.6783","longitude":"-68.9732"},{"name":"Villa Bruzual","latitude":"9.2841","longitude":"-69.102"}]},{"name":"Sucre","code":"19","cities":[{"name":"Agua Fria","latitude":"10.1611","longitude":"-63.8"},{"name":"Altagracia","latitude":"10.61","longitude":"-62.3244"},{"name":"Alto Amara","latitude":"10.5906","longitude":"-62.5372"},{"name":"Araya","latitude":"10.5682","longitude":"-64.2525"},{"name":"Bijagual","latitude":"10.4084","longitude":"-63.8466"},{"name":"Botijon","latitude":"10.3967","longitude":"-63.45"},{"name":"Capiantar","latitude":"10.4486","longitude":"-63.868"},{"name":"Carúpano","latitude":"10.6653","longitude":"-63.2488"},{"name":"Casanay","latitude":"10.4961","longitude":"-63.4158"},{"name":"Chaguaramal","latitude":"10.6683","longitude":"-62.1478"},{"name":"Cumaná","latitude":"10.4667","longitude":"-64.1667"},{"name":"Río Caribe","latitude":"10.7033","longitude":"-63.1053"},{"name":"San Jose","latitude":"10.3267","longitude":"-63.6272"}]},{"name":"Táchira","code":"20","cities":[{"name":"Agua Mansa","latitude":"8.2846","longitude":"-71.8986"},{"name":"Aguas Calientes","latitude":"7.9195","longitude":"-72.4294"},{"name":"Cano Tigre","latitude":"7.5278","longitude":"-71.8586"},{"name":"La Alquitrana","latitude":"7.6397","longitude":"-72.3242"},{"name":"La Grita","latitude":"8.1372","longitude":"-71.9856"},{"name":"Rubio","latitude":"7.7053","longitude":"-72.3563"},{"name":"San Cristóbal","latitude":"7.7637","longitude":"-72.2233"},{"name":"San Felix","latitude":"8.1197","longitude":"-72.2586"},{"name":"San Juan de Colón","latitude":"8.0378","longitude":"-72.2519"},{"name":"Tariba","latitude":"7.8246","longitude":"-72.2243"},{"name":"Ureña","latitude":"7.9215","longitude":"-72.4517"}]},{"name":"Vargas","code":"26","cities":[{"name":"Anare","latitude":"10.6167","longitude":"-66.65"},{"name":"Caraballeda","latitude":"10.6167","longitude":"-66.8333"},{"name":"Catia La Mar","latitude":"10.6","longitude":"-67.0333"},{"name":"La Guaira","latitude":"10.6","longitude":"-66.9333"},{"name":"Maiquetia","latitude":"10.6","longitude":"-66.95"},{"name":"Puerto La Cruz","latitude":"10.5333","longitude":"-67.35"},{"name":"San Jose","latitude":"10.5767","longitude":"-66.9417"}]},{"name":"Yaracuy","code":"22","cities":[{"name":"Aroa","latitude":"10.4368","longitude":"-68.8905"},{"name":"Barranca Amarilla","latitude":"9.9808","longitude":"-68.9192"},{"name":"Cambural","latitude":"10.1","longitude":"-69.1664"},{"name":"Chivacoa","latitude":"10.1603","longitude":"-68.895"},{"name":"Guama","latitude":"10.2757","longitude":"-68.8157"},{"name":"Guarabao","latitude":"10.2463","longitude":"-68.8049"},{"name":"Nirgua","latitude":"10.1574","longitude":"-68.5664"},{"name":"San Felipe","latitude":"10.3404","longitude":"-68.7361"},{"name":"Yaritagua","latitude":"10.08","longitude":"-69.1261"}]},{"name":"Zulia","code":"23","cities":[{"name":"Ambrosio","latitude":"10.429","longitude":"-71.453"},{"name":"Bachaquero","latitude":"9.9683","longitude":"-71.1161"},{"name":"Barranquitas","latitude":"9.9833","longitude":"-72.0333"},{"name":"Barrio La Vega","latitude":"10.6253","longitude":"-71.6629"},{"name":"Buena Vista","latitude":"10.3831","longitude":"-71.2228"},{"name":"Cabimas","latitude":"10.4019","longitude":"-71.4461"},{"name":"Caja Seca","latitude":"9.1434","longitude":"-71.0727"},{"name":"Calle Larga","latitude":"9.9333","longitude":"-72.4167"},{"name":"Carrasquero","latitude":"11.0347","longitude":"-72.0025"},{"name":"Ciudad Ojeda","latitude":"10.2033","longitude":"-71.31"},{"name":"La Mocha","latitude":"10.5633","longitude":"-71.4547"},{"name":"Lagunillas","latitude":"10.1408","longitude":"-71.2614"},{"name":"Maracaibo","latitude":"10.6286","longitude":"-71.6422"},{"name":"Mene Grande","latitude":"9.8481","longitude":"-70.9289"},{"name":"San Felipe","latitude":"10.6367","longitude":"-71.7153"},{"name":"San Francisco","latitude":"10.65","longitude":"-71.7"},{"name":"Tia Juana","latitude":"10.2611","longitude":"-71.3625"}]}]}