{"name":"Samoa","code":"WS","regions":[{"name":"A'ana","code":"01","cities":[{"name":"Leulumoega","latitude":"-13.8185","longitude":"-171.9133"}]},{"name":"Aiga-i-le-Tai","code":"02","cities":[{"name":"Mulifanua","latitude":"-13.8333","longitude":"-171.9833"}]},{"name":"Atua","code":"03","cities":[{"name":"Lufilufi","latitude":"-13.85","longitude":"-171.5833"},{"name":"Matatufu","latitude":"-14.0167","longitude":"-171.5333"}]},{"name":"Fa'asaleleaga","code":"04","cities":[{"name":"Saipipi","latitude":"-13.6167","longitude":"-172.1333"}]},{"name":"Gaga'emauga","code":"05","cities":[{"name":"Patamea","latitude":"-13.4833","longitude":"-172.2667"}]},{"name":"Gagaifomauga","code":"07","cities":[{"name":"Safotu","latitude":"-13.4462","longitude":"-172.4013"}]},{"name":"Satupa'itea","code":"09","cities":[{"name":"Sagone","latitude":"-13.65","longitude":"-172.5833"}]},{"name":"Tuamasaga","code":"10","cities":[{"name":"Apia","latitude":"-13.8333","longitude":"-171.7333"}]},{"name":"Va'a-o-Fonoti","code":"06","cities":[{"name":"Uafato","latitude":"-13.9333","longitude":"-171.4333"}]},{"name":"Vaisigano","code":"11","cities":[{"name":"Asau","latitude":"-13.5157","longitude":"-172.6389"}]}]}