{"name":"South Africa","code":"ZA","regions":[{"name":"Eastern Cape","code":"05","cities":[{"name":"Alice","latitude":"-32.7833","longitude":"26.8333"},{"name":"Aliwal North","latitude":"-30.7","longitude":"26.7"},{"name":"Aston Bay","latitude":"-34.0832","longitude":"24.9026"},{"name":"Barkly East","latitude":"-30.9667","longitude":"27.6"},{"name":"Bathurst","latitude":"-33.4839","longitude":"26.837"},{"name":"Beacon Bay","latitude":"-32.9761","longitude":"27.9452"},{"name":"Bhisho","latitude":"-32.8667","longitude":"27.4333"},{"name":"Bizana","latitude":"-30.8465","longitude":"29.8509"},{"name":"Black Rock","latitude":"-32.0167","longitude":"29.1"},{"name":"Bluewater Bay","latitude":"-33.85","longitude":"25.4667"},{"name":"Boesmansriviermond","latitude":"-33.6824","longitude":"26.6555"},{"name":"Butterworth","latitude":"-32.3335","longitude":"28.1494"},{"name":"Cape St Francis","latitude":"-34.2063","longitude":"24.8376"},{"name":"Cathcart","latitude":"-32.2997","longitude":"27.1288"},{"name":"Cradock","latitude":"-32.1833","longitude":"25.6167"},{"name":"Despatch","latitude":"-33.8","longitude":"25.4667"},{"name":"East London","latitude":"-33.0333","longitude":"27.9167"},{"name":"Flagstaff","latitude":"-31.0833","longitude":"29.4833"},{"name":"Fort Beaufort","latitude":"-32.7829","longitude":"26.6362"},{"name":"Gonubie","latitude":"-32.9333","longitude":"28.0167"},{"name":"Graaff Reinet","latitude":"-32.25","longitude":"24.55"},{"name":"Grahamstown","latitude":"-33.3013","longitude":"26.5325"},{"name":"Hogsback","latitude":"-32.5913","longitude":"26.9406"},{"name":"Humansdorp","latitude":"-34.0358","longitude":"24.7676"},{"name":"Jeffreys Bay","latitude":"-34.05","longitude":"24.9167"},{"name":"Kenton on Sea","latitude":"-33.7","longitude":"26.6833"},{"name":"King William's Town","latitude":"-32.8833","longitude":"27.4"},{"name":"Kirkwood","latitude":"-33.4156","longitude":"25.4436"},{"name":"Lusikisiki","latitude":"-31.35","longitude":"29.5833"},{"name":"Mount Ayliff","latitude":"-30.8","longitude":"29.3667"},{"name":"Mount Frere","latitude":"-30.9161","longitude":"28.9797"},{"name":"Mthatha","latitude":"-31.5833","longitude":"28.7833"},{"name":"Patensie","latitude":"-33.7562","longitude":"24.823"},{"name":"Peddie","latitude":"-33.2","longitude":"27.1167"},{"name":"Port Alfred","latitude":"-33.6","longitude":"26.9"},{"name":"Port Elizabeth","latitude":"-33.9669","longitude":"25.5828"},{"name":"Queenstown","latitude":"-31.899","longitude":"26.8799"},{"name":"Qumbu","latitude":"-31.1496","longitude":"28.8643"},{"name":"Sidwell","latitude":"-33.9789","longitude":"25.6363"},{"name":"Somerset East","latitude":"-32.7167","longitude":"25.5833"},{"name":"St Francis Bay","latitude":"-34.1603","longitude":"24.8262"},{"name":"Stutterheim","latitude":"-32.5667","longitude":"27.4167"},{"name":"Tsomo","latitude":"-32.0304","longitude":"27.8032"},{"name":"Uitenhage","latitude":"-33.7843","longitude":"25.3971"},{"name":"Umzimkulu","latitude":"-30.2626","longitude":"29.9335"},{"name":"Whittlesea","latitude":"-32.1628","longitude":"26.816"},{"name":"Willowmore","latitude":"-33.2827","longitude":"23.4791"}]},{"name":"Gauteng","code":"GT","cities":[{"name":"Alberton","latitude":"-26.2333","longitude":"28.1333"},{"name":"Alexandra","latitude":"-26.1054","longitude":"28.0998"},{"name":"Allen's Nek","latitude":"-26.1292","longitude":"27.9123"},{"name":"Alrode","latitude":"-26.3019","longitude":"28.1367"},{"name":"Bartlett","latitude":"-26.1704","longitude":"28.256"},{"name":"Bassonia","latitude":"-26.2718","longitude":"28.0642"},{"name":"Bedford Gardens","latitude":"-26.1918","longitude":"28.1205"},{"name":"Bedfordview","latitude":"-26.1667","longitude":"28.15"},{"name":"Benoni","latitude":"-26.1833","longitude":"28.3167"},{"name":"Blackheath","latitude":"-26.1294","longitude":"27.9667"},{"name":"Blairgowrie","latitude":"-26.118","longitude":"28.0188"},{"name":"Bloubosrand","latitude":"-26.0198","longitude":"27.9729"},{"name":"Boksburg","latitude":"-26.2198","longitude":"28.251"},{"name":"Boksburg North","latitude":"-26.2053","longitude":"28.2539"},{"name":"Bophelong","latitude":"-26.6962","longitude":"27.7996"},{"name":"Boskruin","latitude":"-26.087","longitude":"27.9547"},{"name":"Brakpan","latitude":"-26.2333","longitude":"28.3667"},{"name":"Bramley","latitude":"-26.2021","longitude":"28.0841"},{"name":"Brenthurst","latitude":"-26.2486","longitude":"28.3671"},{"name":"Broadacres","latitude":"-25.9906","longitude":"27.9898"},{"name":"Bronkhorstspruit","latitude":"-25.8083","longitude":"28.7406"},{"name":"Brooklyn","latitude":"-25.7694","longitude":"28.2405"},{"name":"Bruma","latitude":"-26.1786","longitude":"28.1083"},{"name":"Bryanston","latitude":"-26.05","longitude":"28.0333"},{"name":"Carletonville","latitude":"-26.3667","longitude":"27.4"},{"name":"Centurion","latitude":"-25.8765","longitude":"28.1711"},{"name":"Chiawelo","latitude":"-26.2834","longitude":"27.8569"},{"name":"Clubview West","latitude":"-25.8322","longitude":"28.1671"},{"name":"Craighall","latitude":"-26.1169","longitude":"28.0194"},{"name":"Craighall Park","latitude":"-26.124","longitude":"28.0159"},{"name":"Cresta","latitude":"-26.13","longitude":"27.9806"},{"name":"Croydon","latitude":"-26.1244","longitude":"28.1995"},{"name":"Cullinan","latitude":"-25.6756","longitude":"28.5222"},{"name":"Dainfern","latitude":"-25.9849","longitude":"28.0045"},{"name":"Dalview","latitude":"-26.2529","longitude":"28.3476"},{"name":"Daveyton","latitude":"-26.15","longitude":"28.4167"},{"name":"De Deur","latitude":"-26.5333","longitude":"27.9333"},{"name":"Diepkloof Zone 5","latitude":"-26.2303","longitude":"27.9373"},{"name":"Dinwiddie","latitude":"-26.2198","longitude":"28.1688"},{"name":"Discovery","latitude":"-26.1598","longitude":"27.892"},{"name":"Dobsonville","latitude":"-26.2138","longitude":"27.868"},{"name":"Doornpoort","latitude":"-25.7069","longitude":"28.2294"},{"name":"Douglasdale","latitude":"-26.04","longitude":"27.9856"},{"name":"Dowerglen","latitude":"-26.1482","longitude":"28.1399"},{"name":"Dube","latitude":"-26.2562","longitude":"27.9221"},{"name":"Dunnottar","latitude":"-26.3517","longitude":"28.4146"},{"name":"Edenvale","latitude":"-26.1299","longitude":"28.1833"},{"name":"Eikenhof","latitude":"-26.3292","longitude":"27.9756"},{"name":"Elandsfontein","latitude":"-25.6944","longitude":"28.5606"},{"name":"Elarduspark","latitude":"-25.8352","longitude":"28.2569"},{"name":"Eldorado Park","latitude":"-26.3006","longitude":"27.9023"},{"name":"Eldoradopark","latitude":"-26.3006","longitude":"27.9023"},{"name":"Elsburg","latitude":"-26.249","longitude":"28.1912"},{"name":"Emmarentia","latitude":"-26.1639","longitude":"28.0108"},{"name":"Equestria","latitude":"-25.7642","longitude":"28.3363"},{"name":"Erasmia","latitude":"-25.8148","longitude":"28.0968"},{"name":"Evaton","latitude":"-26.5189","longitude":"27.8222"},{"name":"Faerie Glen","latitude":"-30.8533","longitude":"30.3354"},{"name":"Fairland","latitude":"-26.1357","longitude":"27.9486"},{"name":"Farrarmere","latitude":"-26.1663","longitude":"28.3001"},{"name":"Florida Glen","latitude":"-26.1667","longitude":"27.9167"},{"name":"Fontainebleau","latitude":"-26.1019","longitude":"27.9665"},{"name":"Fourways","latitude":"-26.0211","longitude":"28.0092"},{"name":"Garsfontein","latitude":"-25.8005","longitude":"28.2919"},{"name":"Geduld","latitude":"-26.231","longitude":"28.4274"},{"name":"Germiston","latitude":"-26.2167","longitude":"28.1833"},{"name":"Glen Austin","latitude":"-25.9667","longitude":"28.15"},{"name":"Glenharvie","latitude":"-26.3878","longitude":"27.6197"},{"name":"Glenhazel","latitude":"-26.1369","longitude":"28.0937"},{"name":"Grasmere","latitude":"-26.4275","longitude":"27.8602"},{"name":"Greenstone Hill","latitude":"-26.1168","longitude":"28.1546"},{"name":"Halfway House","latitude":"-25.9826","longitude":"28.1173"},{"name":"Hatfield","latitude":"-25.746","longitude":"28.2216"},{"name":"Heidelberg","latitude":"-26.5","longitude":"28.35"},{"name":"Hekpoort","latitude":"-25.8792","longitude":"27.6136"},{"name":"Helderkruin","latitude":"-26.1242","longitude":"27.8656"},{"name":"Henley on Klip","latitude":"-26.5667","longitude":"28.0167"},{"name":"Hercules","latitude":"-25.7167","longitude":"28.1833"},{"name":"Highveld","latitude":"-25.8049","longitude":"28.2056"},{"name":"Honeydew","latitude":"-26.0799","longitude":"27.9254"},{"name":"Houghton Estate","latitude":"-26.163","longitude":"28.0554"},{"name":"Hyde Park","latitude":"-26.1207","longitude":"28.0379"},{"name":"Irene","latitude":"-25.8704","longitude":"28.2178"},{"name":"Isando","latitude":"-26.1395","longitude":"28.2093"},{"name":"Jet Park","latitude":"-26.1485","longitude":"28.2209"},{"name":"Johannesburg","latitude":"-26.2309","longitude":"28.0583"},{"name":"Jukskei Park","latitude":"-26.0395","longitude":"27.9784"},{"name":"Kagiso","latitude":"-26.13","longitude":"27.7807"},{"name":"Katlehong","latitude":"-26.3333","longitude":"28.15"},{"name":"Kelvin","latitude":"-26.08","longitude":"28.0972"},{"name":"Kempton Park","latitude":"-26.1","longitude":"28.25"},{"name":"Kenilworth","latitude":"-26.2451","longitude":"28.0498"},{"name":"Kensington","latitude":"-26.1927","longitude":"28.0968"},{"name":"Kibler Park","latitude":"-26.3039","longitude":"28.0015"},{"name":"Krugersdorp","latitude":"-26.0977","longitude":"27.768"},{"name":"KwaThema","latitude":"-26.3037","longitude":"28.4009"},{"name":"Kwamhlanga","latitude":"-25.4283","longitude":"28.7083"},{"name":"Kyalami Park","latitude":"-25.9921","longitude":"28.0811"},{"name":"Lambton","latitude":"-26.2398","longitude":"28.1794"},{"name":"Lanseria","latitude":"-25.941","longitude":"27.9282"},{"name":"Lenasia","latitude":"-26.3155","longitude":"27.8325"},{"name":"Linden","latitude":"-26.1337","longitude":"27.9949"},{"name":"Lynnwood Manor","latitude":"-25.7657","longitude":"28.2808"},{"name":"Mabopane","latitude":"-25.5061","longitude":"28.1064"},{"name":"Magaliesburg","latitude":"-26.0977","longitude":"27.768"},{"name":"Marshalltown","latitude":"-26.2021","longitude":"28.0841"},{"name":"Meadowlands","latitude":"-26.2","longitude":"27.8833"},{"name":"Melville","latitude":"-26.1722","longitude":"28.0078"},{"name":"Meyerton","latitude":"-26.5667","longitude":"28.0167"},{"name":"Mid-Ennerdale","latitude":"-26.42","longitude":"27.8266"},{"name":"Midrand","latitude":"-25.9826","longitude":"28.1173"},{"name":"Midstream","latitude":"-25.9185","longitude":"28.1988"},{"name":"Modderfontein","latitude":"-26.0849","longitude":"28.1698"},{"name":"Mogale City","latitude":"-25.9966","longitude":"27.5377"},{"name":"Monument Park","latitude":"-25.8061","longitude":"28.2293"},{"name":"Morningside Manor","latitude":"-26.0775","longitude":"28.0625"},{"name":"Muldersdrift","latitude":"-26.0333","longitude":"27.85"},{"name":"New Modder","latitude":"-26.185","longitude":"28.3567"},{"name":"Nigel","latitude":"-26.4167","longitude":"28.4667"},{"name":"Noordwyk","latitude":"-25.9826","longitude":"28.1173"},{"name":"North Riding","latitude":"-26.0512","longitude":"27.9644"},{"name":"Olifantsfontein","latitude":"-25.9639","longitude":"28.2394"},{"name":"Onderstepoort","latitude":"-25.6465","longitude":"28.1907"},{"name":"Orange Farm","latitude":"-26.4833","longitude":"27.8667"},{"name":"Parktown North","latitude":"-26.1821","longitude":"28.0267"},{"name":"Paulshof","latitude":"-26.0296","longitude":"28.0422"},{"name":"Pretoria","latitude":"-25.757","longitude":"28.1443"},{"name":"Primrose","latitude":"-26.1822","longitude":"28.166"},{"name":"Queenswood","latitude":"-25.7315","longitude":"28.2532"},{"name":"Quellerina","latitude":"-26.1517","longitude":"27.9355"},{"name":"Rabie Ridge","latitude":"-26.1","longitude":"28.25"},{"name":"Randburg","latitude":"-26.0991","longitude":"27.9759"},{"name":"Randfontein","latitude":"-26.1667","longitude":"27.7"},{"name":"Rayton","latitude":"-25.7392","longitude":"28.5334"},{"name":"Reiger Park","latitude":"-26.2323","longitude":"28.2184"},{"name":"Rivonia","latitude":"-26.05","longitude":"28.05"},{"name":"Robertsham","latitude":"-26.243","longitude":"28.0158"},{"name":"Robindale","latitude":"-26.1165","longitude":"27.9879"},{"name":"Roodekrans","latitude":"-26.0978","longitude":"27.8535"},{"name":"Roodepoort","latitude":"-26.1667","longitude":"27.8667"},{"name":"Rooihuiskraal","latitude":"-25.8049","longitude":"28.2056"},{"name":"Rosslyn","latitude":"-25.6203","longitude":"28.0945"},{"name":"Ruimsig","latitude":"-26.1667","longitude":"27.8667"},{"name":"Sandhurst","latitude":"-26.1055","longitude":"28.0471"},{"name":"Sandown","latitude":"-26.1","longitude":"28.0667"},{"name":"Sandton","latitude":"-26.1","longitude":"28.0667"},{"name":"Sebokeng","latitude":"-26.559","longitude":"27.8441"},{"name":"Sharpeville","latitude":"-26.6837","longitude":"27.8878"},{"name":"Sinoville","latitude":"-25.6793","longitude":"28.2204"},{"name":"Soshanguve","latitude":"-25.5158","longitude":"28.1079"},{"name":"Soweto","latitude":"-26.2661","longitude":"27.8661"},{"name":"Springs","latitude":"-26.25","longitude":"28.4"},{"name":"Sundowner","latitude":"-26.0798","longitude":"27.9361"},{"name":"Sunninghill","latitude":"-26.0355","longitude":"28.0655"},{"name":"Sunward Park","latitude":"-26.2601","longitude":"28.2253"},{"name":"Tembisa","latitude":"-26.1","longitude":"28.25"},{"name":"The Reeds","latitude":"-25.9063","longitude":"28.1359"},{"name":"Tsakane","latitude":"-26.3494","longitude":"28.3859"},{"name":"Vaal Marina","latitude":"-26.8779","longitude":"28.232"},{"name":"Valhalla","latitude":"-25.809","longitude":"28.1488"},{"name":"Vanderbijlpark","latitude":"-26.7","longitude":"27.8167"},{"name":"Vereeniging","latitude":"-26.6667","longitude":"27.9333"},{"name":"Vorna Valley","latitude":"-26.0014","longitude":"28.109"},{"name":"Vosloorus","latitude":"-26.3578","longitude":"28.2067"},{"name":"Walkerville","latitude":"-26.4145","longitude":"27.9685"},{"name":"Waltloo","latitude":"-25.7228","longitude":"28.3171"},{"name":"Wapadrand","latitude":"-25.7793","longitude":"28.333"},{"name":"Waterkloof","latitude":"-25.7763","longitude":"28.2389"},{"name":"Weltevreedenpark","latitude":"-26.1246","longitude":"27.9392"},{"name":"Westonaria","latitude":"-26.3167","longitude":"27.65"},{"name":"Wierdapark","latitude":"-25.8049","longitude":"28.2056"},{"name":"Wilgeheuwel","latitude":"-26.1122","longitude":"27.895"},{"name":"Wingate Park","latitude":"-25.8297","longitude":"28.2493"},{"name":"Witfield","latitude":"-26.186","longitude":"28.2022"},{"name":"Woodmead","latitude":"-26.0471","longitude":"28.0812"},{"name":"Wynberg","latitude":"-26.1039","longitude":"28.0762"}]},{"name":"KwaZulu-Natal","code":"NL","cities":[{"name":"Balgowan","latitude":"-29.4667","longitude":"30.2333"},{"name":"Ballitoville","latitude":"-29.5447","longitude":"31.2186"},{"name":"Berea","latitude":"-29.9355","longitude":"30.9962"},{"name":"Bluff","latitude":"-29.9244","longitude":"31.0073"},{"name":"Blythedale Beach","latitude":"-29.3333","longitude":"31.3"},{"name":"Bothas Hill","latitude":"-29.7167","longitude":"30.7285"},{"name":"Bulwer","latitude":"-29.8","longitude":"29.75"},{"name":"Camperdown","latitude":"-29.7252","longitude":"30.544"},{"name":"Cato Ridge","latitude":"-29.7338","longitude":"30.5837"},{"name":"Caversham Glen","latitude":"-29.837","longitude":"30.8432"},{"name":"Chatsworth","latitude":"-29.9147","longitude":"30.8909"},{"name":"Cowies Hill","latitude":"-29.8321","longitude":"30.8947"},{"name":"Creighton","latitude":"-30.0333","longitude":"29.8333"},{"name":"Dalton","latitude":"-29.3333","longitude":"30.6333"},{"name":"Dannhauser","latitude":"-28.001","longitude":"30.0456"},{"name":"Dududu","latitude":"-30.1926","longitude":"30.6174"},{"name":"Dundee","latitude":"-28.1667","longitude":"30.2333"},{"name":"Durban","latitude":"-29.8523","longitude":"31.0191"},{"name":"Empangeni","latitude":"-28.7512","longitude":"31.9011"},{"name":"Eshowe","latitude":"-28.8833","longitude":"31.4667"},{"name":"Estcourt","latitude":"-29.0","longitude":"29.8833"},{"name":"Franklin","latitude":"-30.55","longitude":"29.4167"},{"name":"Gillitts","latitude":"-29.8","longitude":"30.8"},{"name":"Greytown","latitude":"-29.0667","longitude":"30.5833"},{"name":"Hibberdene","latitude":"-30.5833","longitude":"30.5833"},{"name":"Hillcrest","latitude":"-29.7791","longitude":"30.7716"},{"name":"Hilton","latitude":"-29.6177","longitude":"30.3835"},{"name":"Hluhluwe","latitude":"-28.0333","longitude":"32.2833"},{"name":"Howick","latitude":"-29.4667","longitude":"30.2333"},{"name":"Illovo","latitude":"-30.118","longitude":"30.8545"},{"name":"Isipingo","latitude":"-29.9808","longitude":"30.9369"},{"name":"Ixopo","latitude":"-30.15","longitude":"30.0833"},{"name":"Kloof","latitude":"-29.7854","longitude":"30.8363"},{"name":"Kokstad","latitude":"-30.55","longitude":"29.4167"},{"name":"KwaDukuza","latitude":"-29.3333","longitude":"31.3"},{"name":"KwaGingindlovu","latitude":"-29.0167","longitude":"31.5833"},{"name":"KwaNdlovu","latitude":"-29.2675","longitude":"30.7982"},{"name":"KwaNgendezi","latitude":"-29.8167","longitude":"30.85"},{"name":"La Lucia","latitude":"-29.7547","longitude":"31.0744"},{"name":"Ladysmith","latitude":"-28.55","longitude":"29.7833"},{"name":"Malvern","latitude":"-29.8868","longitude":"30.928"},{"name":"Margate","latitude":"-30.85","longitude":"30.3667"},{"name":"Matatiele","latitude":"-30.3333","longitude":"28.8"},{"name":"Mayville","latitude":"-29.8495","longitude":"30.9845"},{"name":"Melmoth","latitude":"-28.5833","longitude":"31.3833"},{"name":"Merrivale","latitude":"-29.5167","longitude":"30.2333"},{"name":"Mkuze","latitude":"-27.6194","longitude":"32.0299"},{"name":"Mooi River","latitude":"-29.2","longitude":"29.9833"},{"name":"Morningside","latitude":"-29.8177","longitude":"31.0172"},{"name":"Mount Edgecombe","latitude":"-29.7031","longitude":"31.0249"},{"name":"Mount Vernon","latitude":"-29.8941","longitude":"30.9279"},{"name":"Mtunzini","latitude":"-28.95","longitude":"31.75"},{"name":"Musgrave","latitude":"-29.8499","longitude":"30.994"},{"name":"Ndwedwe","latitude":"-29.5038","longitude":"30.9322"},{"name":"New Germany","latitude":"-29.7997","longitude":"30.8926"},{"name":"Newcastle","latitude":"-27.75","longitude":"29.9333"},{"name":"Newlands East","latitude":"-29.7791","longitude":"30.9933"},{"name":"Nottingham Road","latitude":"-29.35","longitude":"29.9833"},{"name":"Park Rynie","latitude":"-30.2833","longitude":"30.75"},{"name":"Phoenix","latitude":"-29.7727","longitude":"31.0318"},{"name":"Pietermaritzburg","latitude":"-29.6177","longitude":"30.3835"},{"name":"Pinetown","latitude":"-29.8167","longitude":"30.85"},{"name":"Pongola","latitude":"-27.3833","longitude":"31.6167"},{"name":"Port Edward","latitude":"-31.0539","longitude":"30.2177"},{"name":"Port Shepstone","latitude":"-30.75","longitude":"30.45"},{"name":"Richards Bay","latitude":"-28.7901","longitude":"32.0971"},{"name":"Richmond","latitude":"-29.8667","longitude":"30.2667"},{"name":"Salt Rock","latitude":"-29.5039","longitude":"31.2393"},{"name":"Scottburgh","latitude":"-30.2833","longitude":"30.75"},{"name":"Shakaskraal","latitude":"-29.4499","longitude":"31.2104"},{"name":"Shelly Beach","latitude":"-30.8","longitude":"30.4167"},{"name":"Sydenham","latitude":"-29.8299","longitude":"30.9916"},{"name":"Ulundi","latitude":"-28.3333","longitude":"31.4167"},{"name":"Umgeni Park","latitude":"-29.8049","longitude":"31.0123"},{"name":"Umhlali","latitude":"-29.5833","longitude":"31.1333"},{"name":"Umhlanga","latitude":"-29.7167","longitude":"31.0667"},{"name":"Umzumbe","latitude":"-30.6167","longitude":"30.55"},{"name":"Verulam","latitude":"-29.65","longitude":"31.05"},{"name":"Vryheid","latitude":"-27.7667","longitude":"30.8"},{"name":"Wartburg","latitude":"-29.4309","longitude":"30.5865"},{"name":"Waterfall","latitude":"-29.4063","longitude":"31.0481"},{"name":"Westmead","latitude":"-29.8242","longitude":"30.8387"},{"name":"Westville","latitude":"-29.8333","longitude":"30.9333"},{"name":"Winterton","latitude":"-28.8","longitude":"29.5333"},{"name":"Zimbali","latitude":"-29.5545","longitude":"31.2044"},{"name":"eManzimtoti","latitude":"-30.05","longitude":"30.8833"},{"name":"eMdloti","latitude":"-29.6637","longitude":"31.1251"},{"name":"eMkhomazi","latitude":"-30.2","longitude":"30.8"},{"name":"eMthenteni","latitude":"-30.7217","longitude":"30.4742"},{"name":"eMuziwezinto","latitude":"-30.3204","longitude":"30.668"},{"name":"oThongathi","latitude":"-29.5833","longitude":"31.1333"}]},{"name":"Limpopo","code":"09","cities":[{"name":"Bela-Bela","latitude":"-24.8787","longitude":"28.2806"},{"name":"Bochum","latitude":"-23.2861","longitude":"29.1396"},{"name":"Dendron","latitude":"-23.3865","longitude":"29.3344"},{"name":"Ga-Kgapane","latitude":"-23.6417","longitude":"30.2195"},{"name":"Giyani","latitude":"-23.3167","longitude":"30.7167"},{"name":"Gravelotte","latitude":"-23.9552","longitude":"30.6228"},{"name":"Haenertsburg","latitude":"-23.9444","longitude":"29.9449"},{"name":"Hoedspruit","latitude":"-24.35","longitude":"30.9667"},{"name":"Lephalale","latitude":"-23.6667","longitude":"27.7333"},{"name":"Levubu","latitude":"-22.95","longitude":"30.4833"},{"name":"Louis Trichardt","latitude":"-23.05","longitude":"29.9"},{"name":"Modimolle","latitude":"-24.7","longitude":"28.4"},{"name":"Mokopane","latitude":"-24.1833","longitude":"29.0167"},{"name":"Mookgophong","latitude":"-24.5167","longitude":"28.7167"},{"name":"Musina","latitude":"-22.35","longitude":"30.05"},{"name":"Northam","latitude":"-24.9572","longitude":"27.2707"},{"name":"Onverwacht","latitude":"-23.6912","longitude":"27.6883"},{"name":"Phalaborwa","latitude":"-23.95","longitude":"31.1167"},{"name":"Polokwane","latitude":"-23.85","longitude":"29.38"},{"name":"Seshego","latitude":"-23.85","longitude":"29.38"},{"name":"Shayandima","latitude":"-23.0121","longitude":"30.4214"},{"name":"Thabazimbi","latitude":"-24.6","longitude":"27.4"},{"name":"Thohoyandou","latitude":"-22.95","longitude":"30.4833"},{"name":"Tzaneen","latitude":"-23.8287","longitude":"30.1672"},{"name":"Vaalwater","latitude":"-24.169","longitude":"28.1034"}]},{"name":"Mpumalanga","code":"07","cities":[{"name":"Amersfoort","latitude":"-26.9822","longitude":"28.8519"},{"name":"Balfour","latitude":"-26.6533","longitude":"28.5825"},{"name":"Barberton","latitude":"-25.7862","longitude":"31.0506"},{"name":"Belfast","latitude":"-25.68","longitude":"30.0307"},{"name":"Bethal","latitude":"-26.45","longitude":"29.4667"},{"name":"Blinkpan","latitude":"-26.1","longitude":"29.4333"},{"name":"Bosbokrand","latitude":"-24.836","longitude":"31.0672"},{"name":"Botshabelo","latitude":"-25.7044","longitude":"29.4195"},{"name":"Burgersfort","latitude":"-24.6667","longitude":"30.3333"},{"name":"Davel","latitude":"-26.45","longitude":"29.4667"},{"name":"Delmas","latitude":"-26.15","longitude":"28.6833"},{"name":"Eloff","latitude":"-26.1662","longitude":"28.607"},{"name":"Ermelo","latitude":"-26.5333","longitude":"29.9833"},{"name":"Evander","latitude":"-26.449","longitude":"29.1202"},{"name":"Groblersdal","latitude":"-25.15","longitude":"29.3833"},{"name":"Hazyview","latitude":"-25.0333","longitude":"31.1167"},{"name":"Hectorspruit","latitude":"-25.4389","longitude":"31.6904"},{"name":"Hendrina","latitude":"-26.1489","longitude":"29.7148"},{"name":"Kinross","latitude":"-26.449","longitude":"29.1202"},{"name":"Klipfontein","latitude":"-25.9","longitude":"29.2333"},{"name":"Komatipoort","latitude":"-25.4333","longitude":"31.9333"},{"name":"Kriel","latitude":"-26.2667","longitude":"29.2333"},{"name":"Leandra","latitude":"-26.3667","longitude":"28.9167"},{"name":"Leslie","latitude":"-26.3667","longitude":"28.9167"},{"name":"Lydenburg","latitude":"-25.0995","longitude":"30.4494"},{"name":"Malelane","latitude":"-25.4833","longitude":"31.5167"},{"name":"Marble Hall","latitude":"-24.9667","longitude":"29.3"},{"name":"Middelburg","latitude":"-25.7833","longitude":"29.4667"},{"name":"Nelspruit","latitude":"-25.4628","longitude":"30.9638"},{"name":"Ogies","latitude":"-26.0536","longitude":"29.0685"},{"name":"Piet Retief","latitude":"-26.9988","longitude":"30.8005"},{"name":"Rietkuil","latitude":"-25.9379","longitude":"29.811"},{"name":"Sabie","latitude":"-25.1","longitude":"30.7833"},{"name":"Secunda","latitude":"-26.5427","longitude":"29.1689"},{"name":"Siyabuswa","latitude":"-25.1184","longitude":"29.0537"},{"name":"Standerton","latitude":"-26.95","longitude":"29.25"},{"name":"Trichardt","latitude":"-26.5427","longitude":"29.1689"},{"name":"Volksrust","latitude":"-27.3667","longitude":"29.8833"},{"name":"Waterval Boven","latitude":"-25.6349","longitude":"30.333"},{"name":"White River","latitude":"-25.3167","longitude":"31.0167"},{"name":"Witbank","latitude":"-25.8687","longitude":"29.2376"}]},{"name":"North West","code":"10","cities":[{"name":"Biesiesvlei","latitude":"-26.3913","longitude":"25.8939"},{"name":"Brits","latitude":"-25.6333","longitude":"27.7833"},{"name":"Broederstroom","latitude":"-25.8026","longitude":"27.8751"},{"name":"Christiana","latitude":"-27.914","longitude":"25.1611"},{"name":"Delareyville","latitude":"-26.6833","longitude":"25.4667"},{"name":"Derby","latitude":"-25.9095","longitude":"27.0383"},{"name":"Fochville","latitude":"-26.4833","longitude":"27.5"},{"name":"Ga-Rankuwa","latitude":"-25.5887","longitude":"28.0033"},{"name":"Hammanskraal","latitude":"-25.4069","longitude":"28.2897"},{"name":"Hartbeespoort","latitude":"-25.7333","longitude":"27.85"},{"name":"Itsoseng","latitude":"-26.0629","longitude":"25.8841"},{"name":"Jan Kempdorp","latitude":"-27.9167","longitude":"24.85"},{"name":"Klerksdorp","latitude":"-26.8667","longitude":"26.6667"},{"name":"Kosmos","latitude":"-25.7419","longitude":"27.8546"},{"name":"Koster","latitude":"-25.8667","longitude":"26.9"},{"name":"Kroondal","latitude":"-25.6607","longitude":"27.2527"},{"name":"Leeudoringstad","latitude":"-27.2333","longitude":"26.2333"},{"name":"Lichtenburg","latitude":"-26.15","longitude":"26.1667"},{"name":"Mafikeng","latitude":"-25.868","longitude":"25.6525"},{"name":"Melodie","latitude":"-25.7375","longitude":"27.883"},{"name":"Mmabatho","latitude":"-25.85","longitude":"25.6333"},{"name":"Orkney","latitude":"-26.9833","longitude":"26.6667"},{"name":"Ottosdal","latitude":"-26.8173","longitude":"26.0182"},{"name":"Phokeng","latitude":"-25.6607","longitude":"27.2527"},{"name":"Potchefstroom","latitude":"-26.7167","longitude":"27.1"},{"name":"Rustenburg","latitude":"-25.6607","longitude":"27.2527"},{"name":"Sannieshof","latitude":"-26.5355","longitude":"25.7962"},{"name":"Schweizer-Reneke","latitude":"-27.1833","longitude":"25.3333"},{"name":"Stilfontein","latitude":"-26.85","longitude":"26.7833"},{"name":"Swartruggens","latitude":"-25.6465","longitude":"26.7008"},{"name":"Temba","latitude":"-25.3578","longitude":"28.2218"},{"name":"Tshaneng","latitude":"-25.3454","longitude":"27.1017"},{"name":"Ventersdorp","latitude":"-26.3167","longitude":"26.8167"},{"name":"Vryburg","latitude":"-26.95","longitude":"24.7333"},{"name":"Wolmaransstad","latitude":"-27.2","longitude":"25.9667"},{"name":"Zeerust","latitude":"-25.5333","longitude":"26.0833"}]},{"name":"Northern Cape","code":"08","cities":[{"name":"Aggeneys","latitude":"-29.2077","longitude":"18.8424"},{"name":"Calvinia","latitude":"-31.4667","longitude":"19.7833"},{"name":"Colesberg","latitude":"-30.7333","longitude":"25.1"},{"name":"Danielskuil","latitude":"-28.1795","longitude":"23.5342"},{"name":"De Aar","latitude":"-30.65","longitude":"24.0167"},{"name":"Douglas","latitude":"-29.0664","longitude":"23.7634"},{"name":"Hanover","latitude":"-31.0662","longitude":"24.4545"},{"name":"Hartswater","latitude":"-27.7667","longitude":"24.8167"},{"name":"Hopetown","latitude":"-29.6167","longitude":"24.0833"},{"name":"Hotazel","latitude":"-27.2","longitude":"22.9667"},{"name":"Kakamas","latitude":"-28.75","longitude":"20.6333"},{"name":"Kathu","latitude":"-27.6957","longitude":"23.0493"},{"name":"Keimoes","latitude":"-28.7","longitude":"20.9667"},{"name":"Kimberley","latitude":"-28.7333","longitude":"24.7667"},{"name":"Kleinzee","latitude":"-29.6667","longitude":"17.0833"},{"name":"Kuruman","latitude":"-27.4503","longitude":"23.4309"},{"name":"Loeriesfontein","latitude":"-30.9667","longitude":"19.45"},{"name":"Noupoort","latitude":"-31.1874","longitude":"24.9499"},{"name":"Orania","latitude":"-29.8138","longitude":"24.4121"},{"name":"Postmasburg","latitude":"-28.3167","longitude":"23.0667"},{"name":"Springbok","latitude":"-29.6646","longitude":"17.8776"},{"name":"Sutherland","latitude":"-32.4","longitude":"20.6667"},{"name":"Upington","latitude":"-28.45","longitude":"21.25"},{"name":"Victoria West","latitude":"-31.3983","longitude":"23.1128"},{"name":"Williston","latitude":"-31.3363","longitude":"20.9208"}]},{"name":"Orange Free State","code":"03","cities":[{"name":"Allanridge","latitude":"-27.7492","longitude":"26.6692"},{"name":"Bethlehem","latitude":"-28.2333","longitude":"28.3"},{"name":"Bethulie","latitude":"-30.5055","longitude":"25.9773"},{"name":"Bloemfontein","latitude":"-29.1252","longitude":"26.163"},{"name":"Bothaville","latitude":"-27.3667","longitude":"26.6167"},{"name":"Brandfort","latitude":"-28.7028","longitude":"26.4698"},{"name":"Bultfontein","latitude":"-28.2876","longitude":"26.15"},{"name":"Clarens","latitude":"-28.5134","longitude":"28.4152"},{"name":"Clocolan","latitude":"-28.9","longitude":"27.5667"},{"name":"Deneysville","latitude":"-26.8833","longitude":"28.1"},{"name":"Ficksburg","latitude":"-28.8833","longitude":"27.8833"},{"name":"Frankfort","latitude":"-27.2833","longitude":"28.5"},{"name":"Harrismith","latitude":"-28.2833","longitude":"29.1333"},{"name":"Heilbron","latitude":"-27.2833","longitude":"27.9667"},{"name":"Hennenman","latitude":"-27.9783","longitude":"27.0204"},{"name":"Hoopstad","latitude":"-27.8322","longitude":"25.9034"},{"name":"Kroonstad","latitude":"-27.6485","longitude":"27.2312"},{"name":"Ladybrand","latitude":"-29.2","longitude":"27.45"},{"name":"Lindley","latitude":"-27.8694","longitude":"27.9195"},{"name":"Luckhoff","latitude":"-29.75","longitude":"24.7833"},{"name":"Marquard","latitude":"-28.6729","longitude":"27.4374"},{"name":"Memel","latitude":"-27.6832","longitude":"29.5647"},{"name":"Odendaalsrus","latitude":"-27.8667","longitude":"26.6833"},{"name":"Parys","latitude":"-26.9","longitude":"27.45"},{"name":"Petrus Steyn","latitude":"-27.65","longitude":"28.1333"},{"name":"Petrusburg","latitude":"-29.1138","longitude":"25.421"},{"name":"Reitz","latitude":"-27.8","longitude":"28.4333"},{"name":"Sasolburg","latitude":"-26.8145","longitude":"27.8153"},{"name":"Senekal","latitude":"-28.3167","longitude":"27.6"},{"name":"Thaba Nchu","latitude":"-29.2129","longitude":"26.8342"},{"name":"Theunissen","latitude":"-28.3981","longitude":"26.7164"},{"name":"Vaalpark","latitude":"-26.7679","longitude":"27.8541"},{"name":"Viljoenskroon","latitude":"-27.2167","longitude":"26.95"},{"name":"Villiers","latitude":"-27.0373","longitude":"28.5995"},{"name":"Virginia","latitude":"-28.1167","longitude":"26.9"},{"name":"Vrede","latitude":"-27.4131","longitude":"29.1668"},{"name":"Warden","latitude":"-27.85","longitude":"28.9667"},{"name":"Welkom","latitude":"-27.9801","longitude":"26.729"},{"name":"Wesselsbron","latitude":"-27.85","longitude":"26.3667"}]},{"name":"Western Cape","code":"11","cities":[{"name":"Albertina","latitude":"-34.2017","longitude":"21.5802"},{"name":"Ashton","latitude":"-33.8167","longitude":"20.05"},{"name":"Athlone","latitude":"-33.9676","longitude":"18.4959"},{"name":"Atlantis","latitude":"-33.5653","longitude":"18.4755"},{"name":"Barrydale","latitude":"-33.9053","longitude":"20.7244"},{"name":"Beaufort West","latitude":"-32.35","longitude":"22.5833"},{"name":"Belhar","latitude":"-33.9452","longitude":"18.6251"},{"name":"Bella Vista","latitude":"-33.3294","longitude":"19.3179"},{"name":"Bellville","latitude":"-33.9","longitude":"18.6333"},{"name":"Betty's Bay","latitude":"-34.35","longitude":"19.0333"},{"name":"Bitterfontein","latitude":"-31.0298","longitude":"18.2683"},{"name":"Bothasig","latitude":"-33.8599","longitude":"18.5521"},{"name":"Brackenfell","latitude":"-33.8667","longitude":"18.6833"},{"name":"Bredasdorp","latitude":"-34.5333","longitude":"20.0333"},{"name":"Caledon","latitude":"-34.2191","longitude":"19.4252"},{"name":"Calitzdorp","latitude":"-33.5369","longitude":"21.6809"},{"name":"Camps Bay","latitude":"-33.9502","longitude":"18.3749"},{"name":"Cape Town","latitude":"-33.9165","longitude":"18.4155"},{"name":"Century City","latitude":"-33.8889","longitude":"18.5147"},{"name":"Ceres","latitude":"-33.3667","longitude":"19.3167"},{"name":"Citrusdal","latitude":"-32.6","longitude":"19.0167"},{"name":"Clanwilliam","latitude":"-32.1833","longitude":"18.9"},{"name":"Claremont","latitude":"-33.9816","longitude":"18.4711"},{"name":"Constantia","latitude":"-34.0197","longitude":"18.4484"},{"name":"Darling","latitude":"-33.3833","longitude":"18.3833"},{"name":"Diep River","latitude":"-34.0381","longitude":"18.4628"},{"name":"Durbanville","latitude":"-33.8333","longitude":"18.65"},{"name":"Eendekuil","latitude":"-32.6886","longitude":"18.8797"},{"name":"Elgin","latitude":"-34.1515","longitude":"19.0459"},{"name":"Fish Hoek","latitude":"-34.1342","longitude":"18.4248"},{"name":"Franschhoek","latitude":"-33.9151","longitude":"19.1246"},{"name":"Gansbaai","latitude":"-34.5833","longitude":"19.35"},{"name":"George","latitude":"-33.9694","longitude":"22.4497"},{"name":"Goodwood","latitude":"-33.9026","longitude":"18.5527"},{"name":"Gordon's Bay","latitude":"-34.1667","longitude":"18.8667"},{"name":"Gordons Bay","latitude":"-34.1667","longitude":"18.8667"},{"name":"Grabouw","latitude":"-34.15","longitude":"19.0167"},{"name":"Grassy Park","latitude":"-34.05","longitude":"18.4833"},{"name":"Greyton","latitude":"-34.0523","longitude":"19.6158"},{"name":"Groot-Brakrivier","latitude":"-34.0333","longitude":"22.2167"},{"name":"Harare","latitude":"-34.055","longitude":"18.6707"},{"name":"Hartenbos","latitude":"-34.1167","longitude":"22.1167"},{"name":"Hawston","latitude":"-34.4167","longitude":"19.2333"},{"name":"Heidelberg","latitude":"-34.0903","longitude":"20.9532"},{"name":"Helderberg","latitude":"-34.0277","longitude":"18.8298"},{"name":"Hermanus","latitude":"-34.4166","longitude":"19.2333"},{"name":"Hermon","latitude":"-33.45","longitude":"18.7333"},{"name":"Hopefield","latitude":"-33.0669","longitude":"18.3485"},{"name":"Hout Bay","latitude":"-34.0339","longitude":"18.3538"},{"name":"Khayelitsha","latitude":"-34.0512","longitude":"18.665"},{"name":"Killarney Gardens","latitude":"-33.8271","longitude":"18.533"},{"name":"Klawer","latitude":"-31.7821","longitude":"18.6182"},{"name":"Klein-Brakrivier","latitude":"-34.1833","longitude":"22.1333"},{"name":"Kleinmond","latitude":"-34.35","longitude":"19.0333"},{"name":"Knysna","latitude":"-34.0333","longitude":"23.0333"},{"name":"Koringberg","latitude":"-33.15","longitude":"18.6667"},{"name":"Kraaifontein","latitude":"-33.8481","longitude":"18.7172"},{"name":"Kuils River","latitude":"-33.9333","longitude":"18.6667"},{"name":"Ladismith","latitude":"-33.4833","longitude":"21.2667"},{"name":"Lakeside","latitude":"-34.083","longitude":"18.4487"},{"name":"Langa","latitude":"-33.9451","longitude":"18.5343"},{"name":"Langebaan","latitude":"-33.1","longitude":"18.0333"},{"name":"Langebaanweg","latitude":"-32.9","longitude":"17.9833"},{"name":"Loevenstein","latitude":"-33.8812","longitude":"18.6011"},{"name":"Lutzville","latitude":"-31.5469","longitude":"18.3529"},{"name":"Macassar","latitude":"-34.0688","longitude":"18.7676"},{"name":"Malmesbury","latitude":"-33.45","longitude":"18.7333"},{"name":"Mamre","latitude":"-33.5162","longitude":"18.4712"},{"name":"Matroosfontein","latitude":"-33.9253","longitude":"18.5838"},{"name":"Melkbosstrand","latitude":"-33.7306","longitude":"18.4361"},{"name":"Milnerton","latitude":"-33.8213","longitude":"18.4454"},{"name":"Mitchells Plain","latitude":"-34.0468","longitude":"18.6188"},{"name":"Montagu","latitude":"-33.7833","longitude":"20.1167"},{"name":"Montague Gardens","latitude":"-33.8635","longitude":"18.5203"},{"name":"Monte Vista","latitude":"-33.8845","longitude":"18.5657"},{"name":"Moorreesburg","latitude":"-33.15","longitude":"18.6667"},{"name":"Mossel Bay","latitude":"-34.1833","longitude":"22.1333"},{"name":"Mowbray","latitude":"-33.9347","longitude":"18.4623"},{"name":"Newlands","latitude":"-33.9806","longitude":"18.4449"},{"name":"Nomzamo","latitude":"-34.114","longitude":"18.852"},{"name":"Northern Paarl","latitude":"-33.7083","longitude":"18.9735"},{"name":"Nuwerus","latitude":"-31.1494","longitude":"18.3583"},{"name":"Observatory","latitude":"-33.9361","longitude":"18.4679"},{"name":"Oudtshoorn","latitude":"-33.5833","longitude":"22.2"},{"name":"Paarl","latitude":"-33.7338","longitude":"18.9716"},{"name":"Parow","latitude":"-33.8972","longitude":"18.5999"},{"name":"Paternoster","latitude":"-32.9","longitude":"17.9833"},{"name":"Piketberg","latitude":"-32.9","longitude":"18.7667"},{"name":"Pinelands","latitude":"-33.9213","longitude":"18.5053"},{"name":"Plettenberg Bay","latitude":"-34.0479","longitude":"23.3733"},{"name":"Porterville","latitude":"-33.0167","longitude":"18.9833"},{"name":"Prince Albert","latitude":"-33.2154","longitude":"22.0328"},{"name":"Prince Alfred Hamlet","latitude":"-33.307","longitude":"19.3248"},{"name":"Ravensmead","latitude":"-33.9222","longitude":"18.6065"},{"name":"Rawsonville","latitude":"-33.6511","longitude":"19.4322"},{"name":"Riebeek West","latitude":"-33.45","longitude":"18.7333"},{"name":"Riebeek-Kasteel","latitude":"-33.45","longitude":"18.7333"},{"name":"Riversdale","latitude":"-34.1","longitude":"21.2667"},{"name":"Robertson","latitude":"-33.7966","longitude":"19.8854"},{"name":"Rondebosch","latitude":"-33.963","longitude":"18.4784"},{"name":"Rosebank","latitude":"-33.954","longitude":"18.4684"},{"name":"Saint Helena Bay","latitude":"-32.7667","longitude":"18.0333"},{"name":"Saldanha","latitude":"-33.008","longitude":"17.9525"},{"name":"Sandbaai","latitude":"-34.4311","longitude":"19.1974"},{"name":"Scarborough","latitude":"-34.1989","longitude":"18.3776"},{"name":"Sedgefield","latitude":"-34.0167","longitude":"22.8"},{"name":"Somerset West","latitude":"-34.0833","longitude":"18.85"},{"name":"Sonstraal","latitude":"-33.8484","longitude":"18.6612"},{"name":"Stanford","latitude":"-34.4167","longitude":"19.2333"},{"name":"Stellenbosch","latitude":"-33.9302","longitude":"18.8449"},{"name":"Still Bay","latitude":"-34.3646","longitude":"21.4137"},{"name":"Stompneusbaai","latitude":"-33.0167","longitude":"17.95"},{"name":"Strand","latitude":"-34.107","longitude":"18.8319"},{"name":"Struisbaai","latitude":"-34.7981","longitude":"20.0588"},{"name":"Sun Valley","latitude":"-34.1196","longitude":"18.4002"},{"name":"Swellendam","latitude":"-34.0333","longitude":"20.4333"},{"name":"Table View","latitude":"-33.8138","longitude":"18.482"},{"name":"Tamboerskloof","latitude":"-33.9322","longitude":"18.4025"},{"name":"The Crags","latitude":"-33.9565","longitude":"23.4744"},{"name":"Tokai","latitude":"-34.062","longitude":"18.4315"},{"name":"Touwsrivier","latitude":"-33.3333","longitude":"20.0333"},{"name":"Tulbagh","latitude":"-33.2833","longitude":"19.15"},{"name":"Tyger Valley","latitude":"-33.8713","longitude":"18.6291"},{"name":"Van Riebeeckstrand","latitude":"-33.7012","longitude":"18.4431"},{"name":"Vanrhynsdorp","latitude":"-31.6167","longitude":"18.7333"},{"name":"Velddrif","latitude":"-32.7833","longitude":"18.1667"},{"name":"Vermont","latitude":"-34.422","longitude":"19.1515"},{"name":"Villiersdorp","latitude":"-33.9912","longitude":"19.2922"},{"name":"Vishoek","latitude":"-34.1333","longitude":"18.4333"},{"name":"Vredehoek","latitude":"-33.9441","longitude":"18.4186"},{"name":"Vredenburg","latitude":"-32.9","longitude":"17.9833"},{"name":"Vredendal","latitude":"-31.6667","longitude":"18.5"},{"name":"Vyeboom","latitude":"-34.15","longitude":"19.0167"},{"name":"Welgemoed","latitude":"-33.8722","longitude":"18.6127"},{"name":"Wellington","latitude":"-33.6333","longitude":"19.0"},{"name":"Wilderness","latitude":"-33.9939","longitude":"22.5757"},{"name":"Woodstock","latitude":"-33.9138","longitude":"18.4365"},{"name":"Worcester","latitude":"-33.6511","longitude":"19.4322"},{"name":"Wynberg","latitude":"-33.9998","longitude":"18.4631"},{"name":"Yzerfontein","latitude":"-33.3833","longitude":"18.3833"}]}]}